~Version Information Block
VERS .                 2.00:  CWLS LOG ASCII STANDARD - VERSION 2.00
WRAP .                   NO:  One line per depth step
~Well Information Block
#MNEM.UNIT        Data Type   Information
#---------- ----------------  -----------
STRT .M           3549.7008:  START DEPTH
STOP .M           4618.3296:  STOP DEPTH
STEP .M              0.0000:  STEP
NULL .              -999.25:  NULL VALUE
COMP .                     :  COMPANY
WELL .        NO_15/9-19_SR:  WELL
FLD  .                     :  FIELD
LOC  .                     :  LOCATION
CTRY .                     :  COUNTRY
STAT .                     :  STATE
CNTY .                     :  COUNTY
SRVC .                     :  SERVICE COMPANY
DATE .                     :  DATE
API  .                     :  API NUMBER
UWI  .                     :  UNIQUE WELL ID
~Curve Information Block
#MNEM.UNIT         API CODE   Curve Description
#---------- ----------------  -----------------
DEPTH.M                    :  
BWV  .                     :  0
DT   .                     :  
KLOGH.MD                   :  KLOGH
KLOGV.MD                   :  Vertical PERMEABILITY calculated from logs
PHIF .V/V                  :  0
SAND_FLAG.UNITLESS                 :  SAND_FLAG
SW   .V/V                  :  SW
VSH  .V/V                  :  VSHGR
~Parameter Information Block
#MNEM.UNIT            Value   Description
#---------- ----------------  -----------
PROJECT.     SLEIPNER_OST@st-vlinapp01:  
SET  .             STAT_CPI:  
~Other Information Block
# 
~A       DEPTH            BWV             DT          KLOGH          KLOGV           PHIF      SAND_FLAG             SW            VSH 
# ...
     4189.7808       0.009362        63.4386         0.0000      -999.2500       0.008848         0.0000         1.0000      -999.2500
     4189.9332       0.008848        63.2123         0.0000      -999.2500       0.010391         0.0000         1.0000      -999.2500
     4190.0856       0.010391        62.9114         0.0000      -999.2500       0.011420         0.0000         1.0000      -999.2500
     4190.2380       0.011420        62.9330         0.0000      -999.2500       0.013991         0.0000         1.0000      -999.2500
     4190.3904       0.013991        63.7209         0.0000      -999.2500       0.013991         0.0000         1.0000      -999.2500
     4190.5428       0.013991        64.5379         0.0000      -999.2500       0.011420         0.0000         1.0000      -999.2500
     4190.6952       0.011420        66.3436         0.0000      -999.2500       0.009362         0.0000         1.0000      -999.2500
     4190.8476       0.009362        66.8813         0.0000      -999.2500       0.005762         0.0000         1.0000      -999.2500
     4191.0000       0.005762        66.4895         0.0000      -999.2500       0.004734         0.0000         1.0000      -999.2500
     4191.1524       0.004734        65.6411         0.0000      -999.2500       0.004220         0.0000         1.0000      -999.2500
     4191.3048       0.004220        63.4688         0.0000      -999.2500       0.003705         0.0000         1.0000      -999.2500
     4191.4572       0.003705        61.7662         0.0000      -999.2500       0.004220         0.0000         1.0000      -999.2500
     4191.6096       0.004220        61.4594         0.0000      -999.2500       0.007305         0.0000         1.0000      -999.2500
     4191.7620       0.007305        62.2190         0.0000      -999.2500       0.009362         0.0000         1.0000      -999.2500
     4191.9144       0.009362        63.0938         0.0000      -999.2500       0.012448         0.0000         1.0000      -999.2500
     4192.0668       0.012448        64.9386         0.0000      -999.2500       0.011934         0.0000         1.0000      -999.2500
     4192.2192       0.011934        65.5182         0.0000      -999.2500       0.009877         0.0000         1.0000      -999.2500
     4192.3716       0.009877        65.3712         0.0000      -999.2500       0.008848         0.0000         1.0000      -999.2500
     4192.5240       0.008848        64.6729         0.0000      -999.2500       0.009362         0.0000         1.0000      -999.2500
     4192.6764       0.009362        62.6417         0.0000      -999.2500       0.010391         0.0000         1.0000      -999.2500
     4192.8288       0.010391        61.7292         0.0000      -999.2500       0.011934         0.0000         1.0000      -999.2500
     4192.9812       0.011934        60.8941         0.0000      -999.2500       0.012962         0.0000         1.0000      -999.2500
     4193.1336       0.012962        60.9509         0.0000      -999.2500       0.014505         0.0000         1.0000      -999.2500
     4193.2860       0.014505        61.4713         0.0000      -999.2500       0.015534         0.0000         1.0000      -999.2500
     4193.4384       0.015534        61.7387         0.0000      -999.2500       0.015020         0.0000         1.0000      -999.2500
     4193.5908       0.015020        62.0406         0.0000      -999.2500       0.013991         0.0000         1.0000      -999.2500
     4193.7432       0.013991        62.1069         0.0000      -999.2500       0.012962         0.0000         1.0000      -999.2500
     4193.8956       0.012962        62.3007         0.0000      -999.2500       0.013991         0.0000         1.0000      -999.2500
     4194.0480       0.013991        62.3429         0.0000      -999.2500       0.019134         0.0000         1.0000      -999.2500
     4194.2004       0.019134        61.7378         0.0000      -999.2500       0.024792         0.0000         1.0000      -999.2500
     4194.3528       0.024792        60.6974         0.0000      -999.2500       0.026849         0.0000         1.0000      -999.2500
     4194.5052       0.026849        60.5122         0.0000      -999.2500       0.030449         0.0000         1.0000      -999.2500
     4194.6576       0.030449        61.1881         0.0000      -999.2500       0.030449         0.0000         1.0000      -999.2500
     4194.8100       0.030449        61.7662         0.0000      -999.2500       0.027877         0.0000         1.0000      -999.2500
     4194.9624       0.027877        62.5190         0.0000      -999.2500       0.025820         0.0000         1.0000      -999.2500
     4195.1148       0.025820        62.6428         0.0000      -999.2500       0.021706         0.0000         1.0000      -999.2500
     4195.2672       0.021706        62.6640         0.0000      -999.2500       0.020163         0.0000         1.0000      -999.2500
     4195.4196       0.020163        62.5571         0.0000      -999.2500       0.017592         0.0000         1.0000      -999.2500
     4195.5720       0.017592        62.2164         0.0000      -999.2500       0.016049         0.0000         1.0000      -999.2500
     4195.7244       0.016049        62.0712         0.0000      -999.2500       0.013991         0.0000         1.0000      -999.2500
     4195.8750       0.013991        61.9511         0.0000      -999.2500       0.012962         0.0000         1.0000      -999.2500
     4196.0292       0.012962        61.9580         0.0000      -999.2500       0.011420         0.0000         1.0000      -999.2500
     4196.1816       0.011420        61.9740         0.0000      -999.2500       0.010391         0.0000         1.0000      -999.2500
     4196.3340       0.010391        61.9510         0.0000      -999.2500       0.008848         0.0000         1.0000      -999.2500
     4196.4864       0.008848        61.9001         0.0000      -999.2500       0.008848         0.0000         1.0000      -999.2500
     4196.6388       0.008848        61.9150         0.0000      -999.2500       0.008334         0.0000         1.0000      -999.2500
     4196.7912       0.008334        62.0258         0.0000      -999.2500       0.007820         0.0000         1.0000      -999.2500
     4196.9436       0.007820        62.0969         0.0000      -999.2500       0.005762         0.0000         1.0000      -999.2500
     4197.0960       0.005762        62.1449         0.0000      -999.2500       0.004220         0.0000         1.0000      -999.2500
     4197.2484       0.004220        62.0831         0.0000      -999.2500       0.003191         0.0000         1.0000      -999.2500
     4197.4008       0.003191        61.9981         0.0000      -999.2500       0.005248         0.0000         1.0000      -999.2500
     4197.5532       0.005248        62.7200         0.0000      -999.2500       0.006277         0.0000         1.0000      -999.2500
     4197.7056       0.006277        63.6488         0.0000      -999.2500       0.007820         0.0000         1.0000      -999.2500
     4197.8580       0.007820        66.5003         0.0000      -999.2500       0.006277         0.0000         1.0000      -999.2500
     4198.0104       0.006277        67.9571         0.0000      -999.2500       0.000105         0.0000         1.0000      -999.2500
     4198.1628       0.000105        69.3332         0.0000      -999.2500       0.000000         0.0000         1.0000      -999.2500
     4198.3152       0.000000        68.9026         0.0000      -999.2500       0.000000         0.0000         1.0000      -999.2500
     4198.4676       0.000000        66.3354         0.0000      -999.2500       0.000000         0.0000         1.0000      -999.2500
     4198.6200       0.000000        64.8170         0.0000      -999.2500       0.000000         0.0000         1.0000      -999.2500
     4198.7724       0.000000        62.6828         0.0000      -999.2500       0.000000         0.0000         1.0000      -999.2500
