~Version Information Block
VERS .                 2.00:  CWLS LOG ASCII STANDARD - VERSION 2.00
WRAP .                   NO:  One line per depth step
~Well Information Block
#MNEM.UNIT        Data Type   Information
#---------- ----------------  -----------
STRT .M           3549.7008:  START DEPTH
STOP .M           4618.3296:  STOP DEPTH
STEP .M              0.0000:  STEP
NULL .              -999.25:  NULL VALUE
COMP .                     :  COMPANY
WELL .        NO_15/9-19_SR:  WELL
FLD  .                     :  FIELD
LOC  .                     :  LOCATION
CTRY .                     :  COUNTRY
STAT .                     :  STATE
CNTY .                     :  COUNTY
SRVC .                     :  SERVICE COMPANY
DATE .                     :  DATE
API  .                     :  API NUMBER
UWI  .                     :  UNIQUE WELL ID
~Curve Information Block
#MNEM.UNIT         API CODE   Curve Description
#---------- ----------------  -----------------
DEPTH.M                    :  
BWV  .                     :  0
DT   .                     :  
KLOGH.MD                   :  KLOGH
KLOGV.MD                   :  Vertical PERMEABILITY calculated from logs
PHIF .V/V                  :  0
SAND_FLAG.UNITLESS                 :  SAND_FLAG
SW   .V/V                  :  SW
VSH  .V/V                  :  VSHGR
~Parameter Information Block
#MNEM.UNIT            Value   Description
#---------- ----------------  -----------
PROJECT.     SLEIPNER_OST@st-vlinapp01:  
SET  .             STAT_CPI:  
~Other Information Block
# 
~A       DEPTH            BWV             DT          KLOGH          KLOGV           PHIF      SAND_FLAG             SW            VSH 
# ...
     3778.3008       0.277154        98.6796      1422.2820      1261.2559       0.278290         1.0000         1.0000      -999.2500
     3778.4532       0.278290        99.0974      1487.0439      1322.3094       0.279071         1.0000         1.0000      -999.2500
     3778.6056       0.279071        99.3087      1625.6140      1453.4879       0.280355         1.0000         1.0000      -999.2500
     3778.7580       0.280355        99.6575      1699.7030      1523.9121       0.280580         1.0000         1.0000      -999.2500
     3778.9104       0.280580        99.7678      1699.7030      1523.9121       0.280793         1.0000         1.0000      -999.2500
     3779.0628       0.280793        99.8329      1777.0959      1597.6791       0.281313         1.0000         1.0000      -999.2500
     3779.2152       0.281313        99.8110      2123.8120      1930.4797       0.283562         1.0000         1.0000      -999.2500
     3779.3676       0.283562        99.7870      2321.7070      2121.9792       0.284887         1.0000         1.0000      -999.2500
     3779.5200       0.284887        99.8419      2653.7300      2445.5020       0.286816         1.0000         1.0000      -999.2500
     3779.6724       0.286816       100.1416      2774.5620      2563.8789       0.287230         1.0000         1.0000      -999.2500
     3779.8248       0.287230       100.3557      2653.7300      2445.5020       0.286940         1.0000         1.0000      -999.2500
     3779.9772       0.286940       100.7685      2653.7300      2445.5020       0.286402         1.0000         1.0000      -999.2500
     3780.1296       0.286402       100.9288      2427.4209      2224.6956       0.285615         1.0000         1.0000      -999.2500
     3780.2820       0.285615       101.1567      2538.0540      2332.4871       0.285822         1.0000         1.0000      -999.2500
     3780.4344       0.285822       101.2399      2901.0171      2688.1052       0.287763         1.0000         1.0000      -999.2500
     3780.5868       0.287763       101.3349      3315.8860      3097.9409       0.289319         1.0000         1.0000      -999.2500
     3780.7392       0.289319       101.3310      4143.0698      3924.2515       0.292657         1.0000         1.0000      -999.2500
     3780.8916       0.292657       101.2082      4735.5620      4522.5532       0.294000         1.0000         1.0000      -999.2500
     3781.0440       0.294000       101.1211      4951.3911      4741.6802       0.295124         1.0000         1.0000      -999.2500
     3781.1964       0.295124       101.0761      4951.3911      4741.6802       0.294769         1.0000         1.0000      -999.2500
     3781.3488       0.294769       101.1729      4143.0698      3924.2515       0.292598         1.0000         1.0000      -999.2500
     3781.5000       0.292598       101.5665      3315.8860      3097.9409       0.289585         1.0000         1.0000      -999.2500
     3781.6536       0.289585       101.9215      3033.1101      2818.2268       0.288165         1.0000         1.0000      -999.2500
     3781.8060       0.288165       101.9639      2653.7300      2445.5020       0.286497         1.0000         1.0000      -999.2500
     3781.9584       0.286497       101.7543      2653.7300      2445.5020       0.286473         1.0000         1.0000      -999.2500
     3782.1108       0.286473       101.5722      2774.5620      2563.8789       0.287343         1.0000         1.0000      -999.2500
     3782.2632       0.287343       101.2874      2901.0171      2688.1052       0.287645         1.0000         1.0000      -999.2500
     3782.4156       0.287645       101.2381      2774.5620      2563.8789       0.287047         1.0000         1.0000      -999.2500
     3782.5680       0.287047       101.2889      2538.0540      2332.4871       0.286225         1.0000         1.0000      -999.2500
     3782.7204       0.286225       101.3140      2321.7070      2121.9792       0.284514         1.0000         1.0000      -999.2500
     3782.8728       0.284514       101.1912      2220.5039      2023.9154       0.283970         1.0000         1.0000      -999.2500
     3783.0252       0.283970       101.0382      2123.8120      1930.4797       0.283662         1.0000         1.0000      -999.2500
     3783.1776       0.283662       100.6825      2123.8120      1930.4797       0.283757         1.0000         1.0000      -999.2500
     3783.3300       0.283757       100.5332      2123.8120      1930.4797       0.284017         1.0000         1.0000      -999.2500
     3783.4824       0.284017       100.3173      2123.8120      1930.4797       0.284012         1.0000         1.0000      -999.2500
     3783.6348       0.284012       100.2351      2031.2350      1841.2655       0.283296         1.0000         1.0000      -999.2500
     3783.7872       0.283296       100.1152      1942.7750      1756.2527       0.282532         1.0000         1.0000      -999.2500
     3783.9396       0.282532       100.0810      1699.7030      1523.9121       0.280834         1.0000         1.0000      -999.2500
     3784.0920       0.280834       100.0460      1625.6140      1453.4879       0.280343         1.0000         1.0000      -999.2500
     3784.2444       0.280343       100.0180      1699.7030      1523.9121       0.280716         1.0000         1.0000      -999.2500
     3784.3968       0.280716        99.8742      1858.0900      1675.0907       0.281615         1.0000         1.0000      -999.2500
     3784.5492       0.281615        99.7582      2321.7070      2121.9792       0.284645         1.0000         1.0000      -999.2500
     3784.7016       0.284645        99.5013      2901.0171      2688.1052       0.288065         1.0000         1.0000      -999.2500
     3784.8540       0.288065        99.2833      3171.3479      2954.7759       0.289041         1.0000         1.0000      -999.2500
     3785.0064       0.289041        99.1931      3033.1101      2818.2268       0.288479         1.0000         1.0000      -999.2500
     3785.1588       0.288479        99.0162      2774.5620      2563.8789       0.287349         1.0000         1.0000      -999.2500
     3785.3112       0.287349        98.9301      2427.4209      2224.6956       0.285219         1.0000         1.0000      -999.2500
     3785.4636       0.285219        98.8471      2220.5039      2023.9154       0.284497         1.0000         1.0000      -999.2500
     3785.6160       0.284497        98.8740      2123.8120      1930.4797       0.283633         1.0000         1.0000      -999.2500
     3785.7684       0.283633        99.0528      2123.8120      1930.4797       0.283579         1.0000         1.0000      -999.2500
     3785.9208       0.283579        99.1708      2321.7070      2121.9792       0.284698         1.0000         1.0000      -999.2500
     3786.0732       0.284698        99.3518      2427.4209      2224.6956       0.285692         1.0000         1.0000      -999.2500
     3786.2256       0.285692        99.3939      2774.5620      2563.8789       0.287035         1.0000         1.0000      -999.2500
     3786.3780       0.287035        99.4060      2774.5620      2563.8789       0.286982         1.0000         1.0000      -999.2500
     3786.5304       0.286982        99.3900      2427.4209      2224.6956       0.285639         1.0000         1.0000      -999.2500
     3786.6828       0.285639        99.3341      2220.5039      2023.9154       0.284491         1.0000         1.0000      -999.2500
     3786.8352       0.284491        99.2960      1777.0959      1597.6791       0.281278         1.0000         1.0000      -999.2500
     3786.9876       0.281278        99.2321      1554.8180      1386.3783       0.279449         1.0000         1.0000      -999.2500
     3787.1400       0.279449        99.2220      1244.3390      1094.4067       0.276716         1.0000         1.0000      -999.2500
     3787.2924       0.276716        99.2470      1190.0990      1043.8312       0.276189         1.0000         1.0000      -999.2500
