~Version Information Block
VERS .                 2.00:  CWLS LOG ASCII STANDARD - VERSION 2.00
WRAP .                   NO:  One line per depth step
~Well Information Block
#MNEM.UNIT        Data Type   Information
#---------- ----------------  -----------
STRT .M           3549.7008:  START DEPTH
STOP .M           4618.3296:  STOP DEPTH
STEP .M              0.0000:  STEP
NULL .              -999.25:  NULL VALUE
COMP .                     :  COMPANY
WELL .        NO_15/9-19_SR:  WELL
FLD  .                     :  FIELD
LOC  .                     :  LOCATION
CTRY .                     :  COUNTRY
STAT .                     :  STATE
CNTY .                     :  COUNTY
SRVC .                     :  SERVICE COMPANY
DATE .                     :  DATE
API  .                     :  API NUMBER
UWI  .                     :  UNIQUE WELL ID
~Curve Information Block
#MNEM.UNIT         API CODE   Curve Description
#---------- ----------------  -----------------
DEPTH.M                    :  
BWV  .                     :  0
DT   .                     :  
KLOGH.MD                   :  KLOGH
KLOGV.MD                   :  Vertical PERMEABILITY calculated from logs
PHIF .V/V                  :  0
SAND_FLAG.UNITLESS                 :  SAND_FLAG
SW   .V/V                  :  SW
VSH  .V/V                  :  VSHGR
~Parameter Information Block
#MNEM.UNIT            Value   Description
#---------- ----------------  -----------
PROJECT.     SLEIPNER_OST@st-vlinapp01:  
SET  .             STAT_CPI:  
~Other Information Block
# 
~A       DEPTH            BWV             DT          KLOGH          KLOGV           PHIF      SAND_FLAG             SW            VSH 
# ...
     4537.2528       0.124988        75.0577         0.0450         0.0211       0.129740         0.0000         0.9614         0.3353
     4537.4052       0.124726        74.4168         0.0460         0.0216       0.130413         0.0000         0.9540         0.3486
     4537.5576       0.124410        71.0854         0.0460         0.0216       0.130232         0.0000         0.9553         0.3632
     4537.7100       0.124410        68.7650         0.0460         0.0216       0.130582         0.0000         0.9565         0.3783
     4537.8624       0.124903        64.3977         0.0480         0.0226       0.131520         0.0000         0.9532         0.4076
     4538.0148       0.125370        62.7392         0.0520         0.0246       0.134940         0.0000         0.9357         0.4114
     4538.1672       0.126260        61.3059         0.0550         0.0261       0.136839         0.0000         0.9247         0.4015
     4538.3196       0.126530        62.0400         0.0580         0.0276       0.138751         0.0000         0.9142         0.3995
     4538.4720       0.126842        67.0454         0.0580         0.0276       0.138698         0.0000         0.9152         0.4184
     4538.6244       0.126939        70.4206         0.0560         0.0266       0.137471         0.0000         0.9236         0.4348
     4538.7768       0.126964        75.2457         0.0550         0.0261       0.136556         0.0000         0.9286         0.4615
     4538.9292       0.126806        76.0370         0.0540         0.0256       0.135696         0.0000         0.9296         0.4684
     4539.0816       0.126147        75.6575         0.0530         0.0251       0.135566         0.0000         0.9265         0.4652
     4539.2340       0.125603        75.3384         0.0490         0.0231       0.132746         0.0000         0.9330         0.4521
     4539.3864       0.123847        75.2391         0.0450         0.0211       0.129701         0.0000         0.9461         0.4027
     4539.5388       0.122706        75.3379         0.0380         0.0176       0.123047         0.0000         0.9796         0.3731
     4539.6912       0.120532        75.5947         0.0360         0.0166       0.121028         0.0000         0.9896         0.3234
     4539.8436       0.119768        75.7508         0.0360         0.0166       0.121396         0.0000         0.9800         0.3059
     4539.9960       0.118963        76.0476         0.0380         0.0176       0.123228         0.0000         0.9635         0.2886
     4540.1484       0.118728        76.1658         0.0430         0.0201       0.127669         0.0000         0.9252         0.2895
     4540.3008       0.118122        76.3418         0.0450         0.0211       0.129130         0.0000         0.9105         0.3060
     4540.4532       0.117577        76.4039         0.0420         0.0196       0.127464         0.0000         0.9071         0.3162
     4540.6056       0.115625        76.3590         0.0320         0.0147       0.117765         0.0000         0.9556         0.3266
     4540.7580       0.112540        75.8047         0.0270         0.0123       0.110659         0.0000         1.0000         0.3229
     4540.9104       0.110659        75.4904         0.0180         0.0080       0.095781         0.0000         1.0000         0.3175
     4541.0628       0.095781        75.9324         0.0150         0.0066       0.089707         0.0000         1.0000         0.3024
     4541.2152       0.089707        76.9547         0.0130         0.0056       0.083658         0.0000         1.0000         0.2983
     4541.3676       0.083658        79.7303         0.0130         0.0056       0.084256         0.0000         1.0000         0.3087
     4541.5200       0.084256        80.5879         0.0160         0.0070       0.091905         0.0000         1.0000         0.3220
     4541.6724       0.091905        79.8939         0.0190         0.0084       0.097831         0.0000         1.0000         0.3480
     4541.8248       0.097831        78.6646         0.0250         0.0113       0.109025         0.0000         1.0000         0.3549
     4541.9772       0.109025        76.3081         0.0280         0.0127       0.112124         0.0000         0.9931         0.3538
     4542.1296       0.111345        75.5650         0.0270         0.0123       0.111078         0.0000         1.0000         0.3453
     4542.2820       0.111078        74.6562         0.0250         0.0113       0.108299         0.0000         1.0000         0.3089
     4542.4344       0.108299        74.2126         0.0230         0.0103       0.105350         0.0000         1.0000         0.2818
     4542.5868       0.105350        73.6587         0.0240         0.0108       0.107392         0.0000         1.0000         0.2289
     4542.7392       0.107392        73.8717         0.0330         0.0152       0.118195         0.0000         0.9755         0.2150
     4542.8916       0.115299        75.4699         0.0400         0.0186       0.125085         0.0000         0.9333         0.2264
     4543.0440       0.116739        76.5666         0.0550         0.0261       0.136570         0.0000         0.8719         0.2463
     4543.1964       0.119070        78.2957         0.0600         0.0286       0.139759         0.0000         0.8570         0.2846
     4543.3488       0.119776        78.6665         0.0610         0.0291       0.140618         0.0000         0.8561         0.2937
     4543.5000       0.120382        78.4323         0.0590         0.0281       0.139136         0.0000         0.8655         0.2962
     4543.6536       0.120422        78.0036         0.0520         0.0246       0.134913         0.0000         0.8925         0.2975
     4543.8060       0.120408        77.0752         0.0470         0.0221       0.131358         0.0000         0.9199         0.3101
     4543.9584       0.120839        76.5387         0.0460         0.0216       0.130190         0.0000         0.9323         0.3372
     4544.1108       0.121370        76.4461         0.0430         0.0201       0.127702         0.0000         0.9631         0.3522
     4544.2632       0.122993        76.3961         0.0400         0.0186       0.125518         0.0000         0.9882         0.3686
     4544.4156       0.124037        76.3201         0.0340         0.0156       0.119329         0.0000         1.0000         0.3675
     4544.5680       0.119329        75.8906         0.0310         0.0142       0.116473         0.0000         1.0000         0.3499
     4544.7204       0.116473        75.5674         0.0290         0.0132       0.113908         0.0000         1.0000         0.3389
     4544.8728       0.113908        74.9967         0.0290         0.0132       0.114105         0.0000         1.0000         0.3221
     4545.0252       0.114105        74.8512         0.0300         0.0137       0.115354         0.0000         1.0000         0.3160
     4545.1776       0.115354        74.8440         0.0310         0.0142       0.115947         0.0000         1.0000         0.3075
     4545.3300       0.115947        74.9219         0.0320         0.0147       0.117036         0.0000         1.0000         0.3057
     4545.4824       0.117036        75.2246         0.0320         0.0147       0.117479         0.0000         1.0000         0.3043
     4545.6348       0.117479        75.4986         0.0320         0.0147       0.117799         0.0000         1.0000         0.3040
     4545.7872       0.117799        76.2870         0.0330         0.0152       0.117867         0.0000         1.0000         0.3031
     4545.9396       0.117867        76.7264         0.0340         0.0156       0.119349         0.0000         1.0000         0.3002
     4546.0920       0.119349        77.3841         0.0360         0.0166       0.121050         0.0000         1.0000         0.2894
     4546.2444       0.121050        77.5028         0.0400         0.0186       0.124826         0.0000         1.0000         0.2832
