~Version Information Block
VERS .                 2.00:  CWLS LOG ASCII STANDARD - VERSION 2.00
WRAP .                   NO:  One line per depth step
~Well Information Block
#MNEM.UNIT        Data Type   Information
#---------- ----------------  -----------
STRT .M           3549.7008:  START DEPTH
STOP .M           4618.3296:  STOP DEPTH
STEP .M              0.0000:  STEP
NULL .              -999.25:  NULL VALUE
COMP .                     :  COMPANY
WELL .        NO_15/9-19_SR:  WELL
FLD  .                     :  FIELD
LOC  .                     :  LOCATION
CTRY .                     :  COUNTRY
STAT .                     :  STATE
CNTY .                     :  COUNTY
SRVC .                     :  SERVICE COMPANY
DATE .                     :  DATE
API  .                     :  API NUMBER
UWI  .                     :  UNIQUE WELL ID
~Curve Information Block
#MNEM.UNIT         API CODE   Curve Description
#---------- ----------------  -----------------
DEPTH.M                    :  
BWV  .                     :  0
DT   .                     :  
KLOGH.MD                   :  KLOGH
KLOGV.MD                   :  Vertical PERMEABILITY calculated from logs
PHIF .V/V                  :  0
SAND_FLAG.UNITLESS                 :  SAND_FLAG
SW   .V/V                  :  SW
VSH  .V/V                  :  VSHGR
~Parameter Information Block
#MNEM.UNIT            Value   Description
#---------- ----------------  -----------
PROJECT.     SLEIPNER_OST@st-vlinapp01:  
SET  .             STAT_CPI:  
~Other Information Block
# 
~A       DEPTH            BWV             DT          KLOGH          KLOGV           PHIF      SAND_FLAG             SW            VSH 
# ...
     3988.6128       0.033535        62.2290         0.0000      -999.2500       0.030963         0.0000         1.0000      -999.2500
     3988.7652       0.030963        62.2090         0.0000      -999.2500       0.030449         0.0000         1.0000      -999.2500
     3988.9176       0.030449        62.1740         0.0000      -999.2500       0.029935         0.0000         1.0000      -999.2500
     3989.0700       0.029935        62.1360         0.0000      -999.2500       0.029935         0.0000         1.0000      -999.2500
     3989.2224       0.029935        62.2349         0.0000      -999.2500       0.029935         0.0000         1.0000      -999.2500
     3989.3748       0.029935        62.8122         0.0000      -999.2500       0.029935         0.0000         1.0000      -999.2500
     3989.5272       0.029935        63.2225         0.0000      -999.2500       0.030449         0.0000         1.0000      -999.2500
     3989.6796       0.030449        63.9151         0.0000      -999.2500       0.030963         0.0000         1.0000      -999.2500
     3989.8320       0.030963        64.1057         0.0000      -999.2500       0.030963         0.0000         1.0000      -999.2500
     3989.9844       0.030963        64.2698         0.0000      -999.2500       0.030449         0.0000         1.0000      -999.2500
     3990.1368       0.030449        64.3419         0.0000      -999.2500       0.028392         0.0000         1.0000      -999.2500
     3990.2892       0.028392        64.5677         0.0000      -999.2500       0.027363         0.0000         1.0000      -999.2500
     3990.4416       0.027363        64.7028         0.0000      -999.2500       0.026334         0.0000         1.0000      -999.2500
     3990.5940       0.026334        64.9217         0.0000      -999.2500       0.026334         0.0000         1.0000      -999.2500
     3990.7464       0.026334        64.9809         0.0000      -999.2500       0.026334         0.0000         1.0000      -999.2500
     3990.8988       0.026334        65.0139         0.0000      -999.2500       0.027877         0.0000         1.0000      -999.2500
     3991.0512       0.027877        65.0400         0.0000      -999.2500       0.029420         0.0000         1.0000      -999.2500
     3991.2036       0.029420        65.1269         0.0000      -999.2500       0.034049         0.0000         1.0000      -999.2500
     3991.3560       0.034049        65.4965         0.0000      -999.2500       0.036106         0.0000         1.0000      -999.2500
     3991.5084       0.036106        65.7027         0.0000      -999.2500       0.038164         0.0000         1.0000      -999.2500
     3991.6608       0.038164        65.8947         0.0000      -999.2500       0.038164         0.0000         1.0000      -999.2500
     3991.8132       0.038164        65.8511         0.0000      -999.2500       0.036620         0.0000         1.0000      -999.2500
     3991.9656       0.036620        65.6463         0.0000      -999.2500       0.035077         0.0000         1.0000      -999.2500
     3992.1180       0.035077        65.5711         0.0000      -999.2500       0.030963         0.0000         1.0000      -999.2500
     3992.2704       0.030963        65.5101         0.0000      -999.2500       0.027877         0.0000         1.0000      -999.2500
     3992.4228       0.027877        65.4950         0.0000      -999.2500       0.022220         0.0000         1.0000      -999.2500
     3992.5752       0.022220        65.4840         0.0000      -999.2500       0.020677         0.0000         1.0000      -999.2500
     3992.7276       0.020677        65.4800         0.0000      -999.2500       0.018620         0.0000         1.0000      -999.2500
     3992.8800       0.018620        65.4630         0.0000      -999.2500       0.017592         0.0000         1.0000      -999.2500
     3993.0324       0.017592        65.4540         0.0000      -999.2500       0.013991         0.0000         1.0000      -999.2500
     3993.1848       0.013991        65.4570         0.0000      -999.2500       0.011934         0.0000         1.0000      -999.2500
     3993.3372       0.011934        65.4690         0.0000      -999.2500       0.010391         0.0000         1.0000      -999.2500
     3993.4896       0.010391        65.4890         0.0000      -999.2500       0.010905         0.0000         1.0000      -999.2500
     3993.6420       0.010905        65.4920         0.0000      -999.2500       0.013991         0.0000         1.0000      -999.2500
     3993.7944       0.013991        65.4870         0.0000      -999.2500       0.015020         0.0000         1.0000      -999.2500
     3993.9468       0.015020        65.4830         0.0000      -999.2500       0.015020         0.0000         1.0000      -999.2500
     3994.0992       0.015020        65.4750         0.0000      -999.2500       0.013477         0.0000         1.0000      -999.2500
     3994.2500       0.013477        65.4670         0.0000      -999.2500       0.013477         0.0000         1.0000      -999.2500
     3994.4040       0.013477        65.4620         0.0000      -999.2500       0.016049         0.0000         1.0000      -999.2500
     3994.5564       0.016049        65.4490         0.0000      -999.2500       0.018106         0.0000         1.0000      -999.2500
     3994.7088       0.018106        65.4440         0.0000      -999.2500       0.025306         0.0000         1.0000      -999.2500
     3994.8612       0.025306        65.4450         0.0000      -999.2500       0.029935         0.0000         1.0000      -999.2500
     3995.0136       0.029935        65.4500         0.0000      -999.2500       0.042278         0.0000         1.0000      -999.2500
     3995.1660       0.042278        65.4660         0.0000      -999.2500       0.047421         0.0000         1.0000      -999.2500
     3995.3184       0.047421        65.4730         0.0000      -999.2500       0.053592         0.0000         1.0000      -999.2500
     3995.4708       0.053592        65.4820         0.0000      -999.2500       0.054621         0.0000         1.0000      -999.2500
     3995.6232       0.054621        65.4850         0.0000      -999.2500       0.054107         0.0000         1.0000      -999.2500
     3995.7756       0.054107        65.4830         0.0000      -999.2500       0.053592         0.0000         1.0000      -999.2500
     3995.9280       0.053592        65.4760         0.0000      -999.2500       0.053592         0.0000         1.0000      -999.2500
     3996.0804       0.053592        65.4530         0.0000      -999.2500       0.054107         0.0000         1.0000      -999.2500
     3996.2328       0.054107        65.4380         0.0000      -999.2500       0.055135         0.0000         1.0000      -999.2500
     3996.3852       0.055135        65.4060         0.0000      -999.2500       0.055649         0.0000         1.0000      -999.2500
     3996.5376       0.055649        65.3910         0.0000      -999.2500       0.056164         0.0000         1.0000      -999.2500
     3996.6900       0.056164        65.3740         0.0000      -999.2500       0.055649         0.0000         1.0000      -999.2500
     3996.8424       0.055649        65.3760         0.0000      -999.2500       0.052564         0.0000         1.0000      -999.2500
     3996.9948       0.052564        65.3970         0.0000      -999.2500       0.051021         0.0000         1.0000      -999.2500
     3997.1472       0.051021        65.4060         0.0000      -999.2500       0.049992         0.0000         1.0000      -999.2500
     3997.2996       0.049992        65.4050         0.0000      -999.2500       0.051535         0.0000         1.0000      -999.2500
     3997.4520       0.051535        65.3810         0.0000      -999.2500       0.052049         0.0000         1.0000      -999.2500
     3997.6044       0.052049        65.3700         0.0000      -999.2500       0.051021         0.0000         1.0000      -999.2500
