~Version Information Block
VERS .                 2.00:  CWLS LOG ASCII STANDARD - VERSION 2.00
WRAP .                   NO:  One line per depth step
~Well Information Block
#MNEM.UNIT        Data Type   Information
#---------- ----------------  -----------
STRT .M           3549.7008:  START DEPTH
STOP .M           4618.3296:  STOP DEPTH
STEP .M              0.0000:  STEP
NULL .              -999.25:  NULL VALUE
COMP .                     :  COMPANY
WELL .        NO_15/9-19_SR:  WELL
FLD  .                     :  FIELD
LOC  .                     :  LOCATION
CTRY .                     :  COUNTRY
STAT .                     :  STATE
CNTY .                     :  COUNTY
SRVC .                     :  SERVICE COMPANY
DATE .                     :  DATE
API  .                     :  API NUMBER
UWI  .                     :  UNIQUE WELL ID
~Curve Information Block
#MNEM.UNIT         API CODE   Curve Description
#---------- ----------------  -----------------
DEPTH.M                    :  
BWV  .                     :  0
DT   .                     :  
KLOGH.MD                   :  KLOGH
KLOGV.MD                   :  Vertical PERMEABILITY calculated from logs
PHIF .V/V                  :  0
SAND_FLAG.UNITLESS                 :  SAND_FLAG
SW   .V/V                  :  SW
VSH  .V/V                  :  VSHGR
~Parameter Information Block
#MNEM.UNIT            Value   Description
#---------- ----------------  -----------
PROJECT.     SLEIPNER_OST@st-vlinapp01:  
SET  .             STAT_CPI:  
~Other Information Block
# 
~A       DEPTH            BWV             DT          KLOGH          KLOGV           PHIF      SAND_FLAG             SW            VSH 
# ...
     3641.1408       0.161243        32.9158         0.2510         0.1307       0.164538         0.0000         0.9673      -999.2500
     3641.2932       0.159153        50.6058         0.1920         0.0983       0.160964         0.0000         0.9814      -999.2500
     3641.4456       0.157977        64.1183         0.1340         0.0671       0.157147         0.0000         0.9843      -999.2500
     3641.5980       0.154675        95.7115         0.1030         0.0508       0.154858         0.0000         0.9831      -999.2500
     3641.7500       0.152239       109.7336         0.0350         0.0161       0.142106         0.0000         1.0000      -999.2500
     3641.9028       0.142106       128.0999         0.0070         0.0029       0.119875         0.0000         1.0000      -999.2500
     3642.0552       0.119875       137.8572         0.0040         0.0016       0.111266         0.0000         1.0000      -999.2500
     3642.2076       0.111266       141.2336         0.0040         0.0016       0.114272         0.0000         1.0000      -999.2500
     3642.3600       0.114272       136.4493         0.0090         0.0038       0.127852         0.0000         1.0000      -999.2500
     3642.5124       0.127852       125.0050         0.1290         0.0645       0.165674         0.0000         0.9506      -999.2500
     3642.6648       0.157488        95.3429         0.5120         0.2785       0.182444         0.0000         0.8919      -999.2500
     3642.8172       0.162718       106.9137         3.3240         2.0291       0.204379         0.0000         0.8418      -999.2500
     3642.9696       0.172055       280.1223         4.5400         2.8252       0.215266         0.0000         0.8214      -999.2500
     3643.1220       0.176810       442.0753         3.9720         2.4515       0.248165         0.0000         0.7559      -999.2500
     3643.2744       0.187587       787.1777         3.3240         2.0291       0.261337         0.0000         0.7366      -999.2500
     3643.4268       0.192488       909.0173         1.4910         0.8663       0.252692         0.0000         0.7824      -999.2500
     3643.5792       0.197706      1005.0880         0.9130         0.5147       0.231745         0.0000         0.8536      -999.2500
     3643.7316       0.197816      1003.4164         0.6990         0.3876       0.194230         0.0000         1.0000      -999.2500
     3643.8840       0.194230       912.3236         1.2470         0.7166       0.193284         0.0000         1.0000      -999.2500
     3644.0364       0.193284       804.5494        11.5720         7.6286       0.225999         0.0000         0.8934      -999.2500
     3644.1888       0.201898       502.3050        32.2410        22.6397       0.242905         0.0000         0.8330      -999.2500
     3644.3412       0.202351       358.3724        71.8900        53.0388       0.252130         0.0000         0.7869      -999.2500
     3644.4936       0.198410       190.8768        57.5340        41.8685       0.246053         0.0000         0.7941      -999.2500
     3644.6460       0.195380       167.2128        18.0670        12.2418       0.224556         0.0000         0.8507      -999.2500
     3644.7984       0.191041       165.1347         7.7490         4.9837       0.212769         0.0000         0.8938      -999.2500
     3644.9508       0.190169       164.5398         1.3040         0.7514       0.189272         0.0000         1.0000      -999.2500
     3645.1032       0.189272       162.1411         0.3920         0.2098       0.170396         1.0000         1.0000      -999.2500
     3645.2556       0.170396       236.4454         0.3280         0.1736       0.166574         1.0000         1.0000      -999.2500
     3645.4080       0.166574       336.2608         0.5590         0.3057       0.170237         1.0000         1.0000      -999.2500
     3645.5604       0.170237       620.0353         0.8730         0.4908       0.175224         1.0000         1.0000      -999.2500
     3645.7128       0.175224       734.4051         2.4330         1.4569       0.189124         0.0000         0.9340      -999.2500
     3645.8652       0.176650       735.6155         4.3430         2.6952       0.197455         0.0000         0.8971      -999.2500
     3646.0176       0.177133       623.1297         9.6830         6.3136       0.210680         0.0000         0.8511      -999.2500
     3646.1700       0.179320       340.9156        10.1240         6.6193       0.212295         0.0000         0.8483      -999.2500
     3646.3224       0.180080       237.8719         4.5400         2.8252       0.202988         0.0000         0.8894      -999.2500
     3646.4748       0.180538       150.2370         2.4330         1.4569       0.194444         0.0000         0.9275      -999.2500
     3646.6272       0.180347       143.5666         0.7640         0.4260       0.179142         0.0000         1.0000      -999.2500
     3646.7796       0.179142       144.0833         0.5590         0.3057       0.174609         0.0000         1.0000      -999.2500
     3646.9320       0.174609       145.6879         0.4280         0.2303       0.170727         0.0000         1.0000      -999.2500
     3647.0844       0.170727       149.4581         0.4100         0.2200       0.169893         0.0000         1.0000      -999.2500
     3647.2368       0.169893       153.1492         0.3750         0.2001       0.168792         0.0000         1.0000      -999.2500
     3647.3892       0.168792       168.3860         0.3750         0.2001       0.168911         0.0000         1.0000      -999.2500
     3647.5416       0.168911       178.1971         0.4890         0.2653       0.172911         0.0000         1.0000      -999.2500
     3647.6940       0.172911       191.6563         0.6990         0.3876       0.178373         0.0000         1.0000      -999.2500
     3647.8464       0.178373       192.5758         3.0410         1.8462       0.198662         0.0000         0.9509      -999.2500
     3647.9988       0.188914       185.6930        18.0670        12.2418       0.222456         0.0000         0.8601      -999.2500
     3648.1512       0.191330       178.7082        29.4920        20.5959       0.229171         0.0000         0.8395      -999.2500
     3648.3036       0.192385       177.6324        22.5740        15.5071       0.225094         0.0000         0.8637      -999.2500
     3648.4560       0.194418       180.0688        12.0990         7.9979       0.216627         0.0000         0.9011      -999.2500
     3648.6084       0.195195       182.2811         3.7990         2.3383       0.200680         0.0000         0.9788      -999.2500
     3648.7608       0.196427       183.3925         3.1790         1.9353       0.197455         0.0000         0.9982      -999.2500
     3648.9132       0.197097       180.3810         4.1530         2.5702       0.200751         0.0000         0.9894      -999.2500
     3649.0656       0.198619       164.0904         5.6730         3.5791       0.204787         0.0000         0.9737      -999.2500
     3649.2180       0.199401       151.6204         9.6830         6.3136       0.211822         0.0000         0.9473      -999.2500
     3649.3704       0.200650       126.2543        11.0680         7.2764       0.213343         0.0000         0.9416      -999.2500
     3649.5228       0.200887       116.9182         9.2610         6.0219       0.210698         0.0000         0.9503      -999.2500
     3649.6752       0.200218       108.2713         6.7800         4.3247       0.206864         0.0000         0.9649      -999.2500
     3649.8276       0.199604       108.6325         3.6340         2.2306       0.198189         0.0000         1.0000      -999.2500
     3649.9800       0.198182       117.0719         3.0410         1.8462       0.195408         0.0000         1.0000      -999.2500
     3650.1324       0.195408       124.9776         3.0410         1.8462       0.194562         0.0000         1.0000      -999.2500
