~Version Information Block
VERS .                 2.00:  CWLS LOG ASCII STANDARD - VERSION 2.00
WRAP .                   NO:  One line per depth step
~Well Information Block
#MNEM.UNIT        Data Type   Information
#---------- ----------------  -----------
STRT .M           3549.7008:  START DEPTH
STOP .M           4618.3296:  STOP DEPTH
STEP .M              0.0000:  STEP
NULL .              -999.25:  NULL VALUE
COMP .                     :  COMPANY
WELL .        NO_15/9-19_SR:  WELL
FLD  .                     :  FIELD
LOC  .                     :  LOCATION
CTRY .                     :  COUNTRY
STAT .                     :  STATE
CNTY .                     :  COUNTY
SRVC .                     :  SERVICE COMPANY
DATE .                     :  DATE
API  .                     :  API NUMBER
UWI  .                     :  UNIQUE WELL ID
~Curve Information Block
#MNEM.UNIT         API CODE   Curve Description
#---------- ----------------  -----------------
DEPTH.M                    :  
BWV  .                     :  0
DT   .                     :  
KLOGH.MD                   :  KLOGH
KLOGV.MD                   :  Vertical PERMEABILITY calculated from logs
PHIF .V/V                  :  0
SAND_FLAG.UNITLESS                 :  SAND_FLAG
SW   .V/V                  :  SW
VSH  .V/V                  :  VSHGR
~Parameter Information Block
#MNEM.UNIT            Value   Description
#---------- ----------------  -----------
PROJECT.     SLEIPNER_OST@st-vlinapp01:  
SET  .             STAT_CPI:  
~Other Information Block
# 
~A       DEPTH            BWV             DT          KLOGH          KLOGV           PHIF      SAND_FLAG             SW            VSH 
# ...
     4473.2448       0.200159        89.4796        11.5190         7.5915       0.234806         1.0000         0.8942         0.3058
     4473.3972       0.209964        91.1039        13.9490         9.3021       0.241649         1.0000         0.8884         0.2996
     4473.5496       0.214674        92.2565        20.0250        13.6549       0.251398         1.0000         0.8863         0.2956
     4473.7020       0.222814        94.2014        24.9470        17.2431       0.252472         1.0000         0.9030         0.2790
     4473.8544       0.227993        94.5865        24.5490        16.9512       0.249581         1.0000         0.9186         0.2554
     4474.0068       0.229274        94.1925        17.6860        11.9680       0.239023         1.0000         0.9633         0.2493
     4474.1592       0.230244        93.0076        13.9280         9.2872       0.232430         1.0000         0.9897         0.2595
     4474.3116       0.230030        92.5246         9.1900         5.9729       0.218270         1.0000         1.0000         0.2699
     4474.4640       0.218270        91.8229         7.8750         5.0697       0.210809         1.0000         1.0000         0.2807
     4474.6164       0.210809        91.3646         6.2930         3.9957       0.195926         1.0000         1.0000         0.2786
     4474.7688       0.195926        89.5734         5.9230         3.7467       0.189767         1.0000         1.0000         0.2643
     4474.9212       0.189767        88.1359         6.1130         3.8745       0.184336         1.0000         1.0000         0.2546
     4475.0736       0.184336        84.7205         6.5240         4.1516       0.185943         1.0000         1.0000         0.2357
     4475.2260       0.185943        83.1880         6.4420         4.0962       0.194449         1.0000         1.0000         0.2323
     4475.3784       0.194449        81.5441         5.6620         3.5717       0.198727         1.0000         0.9903         0.2575
     4475.5308       0.196793        81.5839         3.8050         2.3422       0.202833         1.0000         0.9412         0.2850
     4475.6832       0.190916        82.8144         3.1690         1.9288       0.202880         1.0000         0.9255         0.3443
     4475.8356       0.187775        83.5950         2.7240         1.6426       0.203639         1.0000         0.8976         0.3666
     4475.9880       0.182789        84.9262         2.8760         1.7401       0.206051         1.0000         0.8806         0.3870
     4476.1404       0.181440        85.5472         3.5640         2.1850       0.214290         1.0000         0.8419         0.3871
     4476.2928       0.180402        87.0390         3.8360         2.3624       0.218171         1.0000         0.8267         0.3841
     4476.4452       0.180359        87.8489         3.7870         2.3304       0.221305         1.0000         0.8159         0.3859
     4476.5976       0.180574        88.8217         3.5290         2.1622       0.219461         1.0000         0.8220         0.3962
     4476.7500       0.180404        88.7361         3.0530         1.8540       0.210158         1.0000         0.8544         0.3996
     4476.9024       0.179552        87.5426         2.9410         1.7818       0.200479         1.0000         0.8896         0.3912
     4477.0548       0.178351        85.9281         2.9860         1.8108       0.197381         1.0000         0.9018         0.3688
     4477.2072       0.178001        85.2439         3.2580         1.9864       0.193980         1.0000         0.9137         0.3583
     4477.3596       0.177239        84.2084         3.4550         2.1141       0.192450         1.0000         0.9188         0.3383
     4477.5120       0.176822        83.8355         3.8880         2.3965       0.189413         1.0000         0.9268         0.3270
     4477.6644       0.175544        83.5104         4.3020         2.6682       0.190525         1.0000         0.9179         0.3042
     4477.8168       0.174887        83.6378         5.1990         3.2624       0.195105         1.0000         0.8855         0.2951
     4477.9692       0.172767        84.4759         5.1900         3.2564       0.193859         1.0000         0.8817         0.2851
     4478.1216       0.170930        85.0722         4.7360         2.9549       0.183927         1.0000         0.8987         0.2818
     4478.2740       0.165294        86.0996         4.5630         2.8404       0.176800         1.0000         0.9126         0.2651
     4478.4264       0.161349        86.2907         4.0460         2.5000       0.157853         1.0000         0.9566         0.2497
     4478.5788       0.151000        85.4910         3.7260         2.2906       0.147680         1.0000         0.9811         0.2115
     4478.7312       0.144896        84.4304         3.1470         1.9146       0.130273         0.0000         1.0000         0.1931
     4478.8836       0.130273        81.3021         2.9060         1.7593       0.123456         0.0000         1.0000         0.1652
     4479.0360       0.123456        79.4914         2.3790         1.4226       0.112719         0.0000         1.0000         0.1559
     4479.1884       0.112719        75.9307         0.0250         0.0113       0.108986         0.0000         1.0000         0.1502
     4479.3408       0.108986        74.2113         0.0220         0.0099       0.104109         0.0000         1.0000         0.1551
     4479.4932       0.104109        71.1201         0.0210         0.0094       0.101685         0.0000         1.0000         0.1767
     4479.6456       0.101685        69.9775         0.0170         0.0075       0.095159         0.0000         1.0000         0.1878
     4479.7980       0.095159        69.0362         0.0160         0.0070       0.091599         0.0000         1.0000         0.1976
     4479.9504       0.091599        69.2337         0.0140         0.0061       0.086645         0.0000         1.0000         0.1972
     4480.1028       0.086645        70.3845         0.0130         0.0056       0.085914         0.0000         1.0000         0.1971
     4480.2552       0.085914        71.8601         0.0140         0.0061       0.086335         0.0000         1.0000         0.1975
     4480.4076       0.086335        72.5671         0.0140         0.0061       0.086366         0.0000         1.0000         0.1950
     4480.5600       0.086366        73.1862         0.0130         0.0056       0.085336         0.0000         1.0000         0.1849
     4480.7124       0.085336        72.9014         0.0120         0.0052       0.081613         0.0000         1.0000         0.1803
     4480.8648       0.081613        71.4809         0.0110         0.0047       0.080386         0.0000         1.0000         0.1759
     4481.0172       0.080386        70.7210         0.0140         0.0061       0.086472         0.0000         1.0000         0.1730
     4481.1696       0.086472        70.0589         0.0180         0.0080       0.096776         0.0000         1.0000         0.1677
     4481.3220       0.096776        70.2887         0.0460         0.0216       0.130548         0.0000         0.8208         0.1720
     4481.4744       0.107151        71.6482         2.7870         1.6829       0.148785         0.0000         0.7363         0.2052
     4481.6250       0.109546        72.6796         3.1860         1.9398       0.174612         1.0000         0.6520         0.2316
     4481.7792       0.113848        75.1238         3.1270         1.9017       0.181304         1.0000         0.6390         0.2872
     4481.9316       0.115849        76.2965         3.0970         1.8823       0.189089         1.0000         0.6342         0.3081
     4482.0840       0.119913        77.7381         3.1820         1.9372       0.193082         1.0000         0.6325         0.3311
     4482.2364       0.122131        77.8099         0.3580         0.1905       0.203778         1.0000         0.6262         0.3391
