~Version Information Block
VERS .                 2.00:  CWLS LOG ASCII STANDARD - VERSION 2.00
WRAP .                   NO:  One line per depth step
~Well Information Block
#MNEM.UNIT        Data Type   Information
#---------- ----------------  -----------
STRT .M           3549.7008:  START DEPTH
STOP .M           4618.3296:  STOP DEPTH
STEP .M              0.0000:  STEP
NULL .              -999.25:  NULL VALUE
COMP .                     :  COMPANY
WELL .        NO_15/9-19_SR:  WELL
FLD  .                     :  FIELD
LOC  .                     :  LOCATION
CTRY .                     :  COUNTRY
STAT .                     :  STATE
CNTY .                     :  COUNTY
SRVC .                     :  SERVICE COMPANY
DATE .                     :  DATE
API  .                     :  API NUMBER
UWI  .                     :  UNIQUE WELL ID
~Curve Information Block
#MNEM.UNIT         API CODE   Curve Description
#---------- ----------------  -----------------
DEPTH.M                    :  
BWV  .                     :  0
DT   .                     :  
KLOGH.MD                   :  KLOGH
KLOGV.MD                   :  Vertical PERMEABILITY calculated from logs
PHIF .V/V                  :  0
SAND_FLAG.UNITLESS                 :  SAND_FLAG
SW   .V/V                  :  SW
VSH  .V/V                  :  VSHGR
~Parameter Information Block
#MNEM.UNIT            Value   Description
#---------- ----------------  -----------
PROJECT.     SLEIPNER_OST@st-vlinapp01:  
SET  .             STAT_CPI:  
~Other Information Block
# 
~A       DEPTH            BWV             DT          KLOGH          KLOGV           PHIF      SAND_FLAG             SW            VSH 
# ...
     3705.1488       0.199631       117.4349        40.2840        28.6785       0.230959         0.0000         0.8790      -999.2500
     3705.3012       0.203013       119.7470        65.7620        48.2521       0.237988         1.0000         0.8600      -999.2500
     3705.4536       0.204668       114.5448        78.5890        58.3004       0.240319         1.0000         0.8514      -999.2500
     3705.6060       0.204613       110.3096        89.8270        67.1884       0.242721         1.0000         0.8371      -999.2500
     3705.7584       0.203177       102.7100        85.9120        64.0838       0.241852         1.0000         0.8350      -999.2500
     3705.9108       0.201938       100.1464        36.8500        26.0901       0.231846         1.0000         0.8586      -999.2500
     3706.0632       0.199072        96.8443        16.5270        11.1371       0.221840         1.0000         0.8913      -999.2500
     3706.2156       0.197730        95.4508         2.6600         1.6016       0.197343         1.0000         0.9904      -999.2500
     3706.3680       0.195439        92.8963         1.3640         0.7882       0.188313         0.0000         1.0000      -999.2500
     3706.5204       0.188313        92.3467         1.6300         0.9523       0.190444         0.0000         1.0000      -999.2500
     3706.6728       0.190444        94.4592         3.9720         2.4515       0.203337         0.0000         1.0000      -999.2500
     3706.8252       0.203337        97.1495        71.8900        53.0388       0.243739         0.0000         0.8960      -999.2500
     3706.9776       0.218383       103.8452       357.4350       291.1049       0.264828         0.0000         0.8572      -999.2500
     3707.1300       0.227016       106.7742      4951.3911      4741.6802       0.296935         1.0000         0.8283      -999.2500
     3707.2824       0.245942       110.3393     10559.1133     10595.0400       0.305982         1.0000         0.8370      -999.2500
     3707.4348       0.256118       111.1669     16485.8398     17002.4160       0.311225         1.0000         0.8884      -999.2500
     3707.5872       0.276489       111.9320     14423.8711     14753.8389       0.309704         1.0000         0.9234      -999.2500
     3707.7396       0.285994       112.0479     10099.2617     10105.8535       0.304775         1.0000         0.9890      -999.2500
     3707.8920       0.301421       111.5996      8835.7305      8768.9658       0.302704         1.0000         1.0000      -999.2500
     3708.0444       0.302704       110.9818      6468.5352      6297.4526       0.298952         1.0000         1.0000      -999.2500
     3708.1968       0.298952       109.3521      5412.7852      5212.0732       0.296728         1.0000         1.0000      -999.2500
     3708.3492       0.296728       108.5950      3789.9089      3570.0859       0.291591         1.0000         1.0000      -999.2500
     3708.5000       0.291591       107.2897      2653.7300      2445.5020       0.287000         1.0000         1.0000      -999.2500
     3708.6540       0.287000       105.9548      2427.4209      2224.6956       0.285367         1.0000         1.0000      -999.2500
     3708.8064       0.285367       105.2869      2123.8120      1930.4797       0.283521         1.0000         1.0000      -999.2500
     3708.9588       0.283521       104.2444      2031.2350      1841.2655       0.283065         1.0000         1.0000      -999.2500
     3709.1112       0.283065       103.9324      1858.0900      1675.0907       0.281976         1.0000         1.0000      -999.2500
     3709.2636       0.281976       103.2499      1625.6140      1453.4879       0.280609         1.0000         1.0000      -999.2500
     3709.4160       0.280609       102.4391       995.8540       863.9199       0.274248         1.0000         1.0000      -999.2500
     3709.5684       0.274248        99.9333       697.2780       591.7579       0.269769         1.0000         1.0000      -999.2500
     3709.7208       0.269769        99.0951       488.2380       405.3507       0.265716         1.0000         1.0000      -999.2500
     3709.8732       0.265716       100.6150       637.8410       538.3514       0.269739         1.0000         0.9758      -999.2500
     3710.0256       0.263217       103.0128      2901.0171      2688.1052       0.290142         1.0000         0.8846      -999.2500
     3710.1780       0.256670       108.6426      7393.5898      7257.5815       0.302526         1.0000         0.8410      -999.2500
     3710.3304       0.254411       110.7772     33626.0156     36237.0977       0.321272         1.0000         0.7829      -999.2500
     3710.4828       0.251518       112.8193     52499.9727     58151.5742       0.326438         1.0000         0.7698      -999.2500
     3710.6352       0.251308       112.9718     78394.6875     89006.2500       0.331556         1.0000         0.7659      -999.2500
     3710.7876       0.253949       112.1481     85703.4375     97840.3359       0.332911         1.0000         0.7729      -999.2500
     3710.9400       0.257317       111.4000     93689.6875    107546.4688       0.334284         1.0000         0.8014      -999.2500
     3711.0924       0.267899       109.9529     97955.6875    112752.4062       0.334372         1.0000         0.8226      -999.2500
     3711.2448       0.275046       109.4796     89605.8125    102576.4453       0.333644         1.0000         0.8738      -999.2500
     3711.3972       0.291525       109.1514     85703.4375     97840.3359       0.332751         1.0000         0.9027      -999.2500
     3711.5496       0.300368       109.0851     62742.8398     70264.6797       0.328994         1.0000         0.9676      -999.2500
     3711.7020       0.318342       108.3839     36760.9688     39833.7070       0.321816         1.0000         1.0000      -999.2500
     3711.8544       0.321816       106.6553     26912.4141     28606.8242       0.317378         1.0000         1.0000      -999.2500
     3712.0068       0.317378       105.6883     14423.8711     14753.8389       0.309100         1.0000         1.0000      -999.2500
     3712.1592       0.309100       104.4336     11543.5391     11646.6201       0.306242         1.0000         1.0000      -999.2500
     3712.3116       0.306242       104.3351     10099.2617     10105.8535       0.304372         1.0000         1.0000      -999.2500
     3712.4640       0.304372       105.0461     10559.1133     10595.0400       0.305100         1.0000         1.0000      -999.2500
     3712.6164       0.305100       105.6372     13193.8115     13421.7051       0.307680         1.0000         1.0000      -999.2500
     3712.7688       0.307680       106.6047     13795.1406     14072.0205       0.308627         1.0000         1.0000      -999.2500
     3712.9212       0.308627       106.6090     13193.8115     13421.7051       0.308295         1.0000         1.0000      -999.2500
     3713.0736       0.308295       104.7035     12069.1523     12210.3896       0.306787         1.0000         0.9976      -999.2500
     3713.2260       0.306053       102.7815      8450.9336      8364.0928       0.302248         1.0000         0.9916      -999.2500
     3713.3784       0.299719        98.4797      7071.3052      6922.1855       0.300218         1.0000         0.9883      -999.2500
     3713.5308       0.296712        97.1218      5412.7852      5212.0732       0.296745         1.0000         0.9795      -999.2500
     3713.6832       0.290669        97.3936      4143.0698      3924.2515       0.293384         1.0000         0.9794      -999.2500
     3713.8356       0.287330        98.5355      1422.2820      1261.2559       0.279130         1.0000         1.0000      -999.2500
     3713.9880       0.279130       100.4365       762.2850       650.4910       0.269887         1.0000         1.0000      -999.2500
     3714.1404       0.269887       100.6947       446.6220       368.7694       0.260070         1.0000         1.0000      -999.2500
