~Version Information Block
VERS .                 2.00:  CWLS LOG ASCII STANDARD - VERSION 2.00
WRAP .                   NO:  One line per depth step
~Well Information Block
#MNEM.UNIT        Data Type   Information
#---------- ----------------  -----------
STRT .M           3549.7008:  START DEPTH
STOP .M           4618.3296:  STOP DEPTH
STEP .M              0.0000:  STEP
NULL .              -999.25:  NULL VALUE
COMP .                     :  COMPANY
WELL .        NO_15/9-19_SR:  WELL
FLD  .                     :  FIELD
LOC  .                     :  LOCATION
CTRY .                     :  COUNTRY
STAT .                     :  STATE
CNTY .                     :  COUNTY
SRVC .                     :  SERVICE COMPANY
DATE .                     :  DATE
API  .                     :  API NUMBER
UWI  .                     :  UNIQUE WELL ID
~Curve Information Block
#MNEM.UNIT         API CODE   Curve Description
#---------- ----------------  -----------------
DEPTH.M                    :  
BWV  .                     :  0
DT   .                     :  
KLOGH.MD                   :  KLOGH
KLOGV.MD                   :  Vertical PERMEABILITY calculated from logs
PHIF .V/V                  :  0
SAND_FLAG.UNITLESS                 :  SAND_FLAG
SW   .V/V                  :  SW
VSH  .V/V                  :  VSHGR
~Parameter Information Block
#MNEM.UNIT            Value   Description
#---------- ----------------  -----------
PROJECT.     SLEIPNER_OST@st-vlinapp01:  
SET  .             STAT_CPI:  
~Other Information Block
# 
~A       DEPTH            BWV             DT          KLOGH          KLOGV           PHIF      SAND_FLAG             SW            VSH 
# ...
     3915.4608       0.033020        67.9413         0.0000      -999.2500       0.033535         0.0000         1.0000      -999.2500
     3915.6132       0.033535        70.3448         0.0000      -999.2500       0.033020         0.0000         1.0000      -999.2500
     3915.7656       0.033020        75.1067         0.0000      -999.2500       0.032506         0.0000         1.0000      -999.2500
     3915.9180       0.032506        76.2056         0.0000      -999.2500       0.031477         0.0000         1.0000      -999.2500
     3916.0704       0.031477        74.5701         0.0000      -999.2500       0.030449         0.0000         1.0000      -999.2500
     3916.2228       0.030449        72.6046         0.0000      -999.2500       0.027363         0.0000         1.0000      -999.2500
     3916.3750       0.027363        69.2734         0.0000      -999.2500       0.024792         0.0000         1.0000      -999.2500
     3916.5276       0.024792        68.3352         0.0000      -999.2500       0.020163         0.0000         1.0000      -999.2500
     3916.6800       0.020163        66.9508         0.0000      -999.2500       0.017592         0.0000         1.0000      -999.2500
     3916.8324       0.017592        65.9074         0.0000      -999.2500       0.014505         0.0000         1.0000      -999.2500
     3916.9848       0.014505        63.3214         0.0000      -999.2500       0.014505         0.0000         1.0000      -999.2500
     3917.1372       0.014505        62.3163         0.0000      -999.2500       0.015534         0.0000         1.0000      -999.2500
     3917.2896       0.015534        61.6059         0.0000      -999.2500       0.016563         0.0000         1.0000      -999.2500
     3917.4420       0.016563        61.7049         0.0000      -999.2500       0.017592         0.0000         1.0000      -999.2500
     3917.5944       0.017592        61.7649         0.0000      -999.2500       0.017592         0.0000         1.0000      -999.2500
     3917.7468       0.017592        61.4554         0.0000      -999.2500       0.016049         0.0000         1.0000      -999.2500
     3917.8992       0.016049        60.3185         0.0000      -999.2500       0.013991         0.0000         1.0000      -999.2500
     3918.0516       0.013991        59.2624         0.0000      -999.2500       0.013991         0.0000         1.0000      -999.2500
     3918.2040       0.013991        58.6118         0.0000      -999.2500       0.015534         0.0000         1.0000      -999.2500
     3918.3564       0.015534        55.5380         0.0000      -999.2500       0.017592         0.0000         1.0000      -999.2500
     3918.5088       0.017592        52.9424         0.0000      -999.2500       0.022734         0.0000         1.0000      -999.2500
     3918.6612       0.022734        47.6969         0.0000      -999.2500       0.025306         0.0000         1.0000      -999.2500
     3918.8136       0.025306        46.5076         0.0000      -999.2500       0.029935         0.0000         1.0000      -999.2500
     3918.9660       0.029935        49.1945         0.0000      -999.2500       0.031992         0.0000         1.0000      -999.2500
     3919.1184       0.031992        52.3718         0.0000      -999.2500       0.036620         0.0000         1.0000      -999.2500
     3919.2708       0.036620        58.1574         0.0000      -999.2500       0.039192         0.0000         1.0000      -999.2500
     3919.4232       0.039192        59.5292         0.0000      -999.2500       0.042278         0.0000         1.0000      -999.2500
     3919.5756       0.042278        59.1225         0.0000      -999.2500       0.042792         0.0000         1.0000      -999.2500
     3919.7280       0.042792        58.2601         0.0000      -999.2500       0.038164         0.0000         1.0000      -999.2500
     3919.8804       0.038164        57.0985         0.0000      -999.2500       0.034049         0.0000         1.0000      -999.2500
     3920.0328       0.034049        56.8254         0.0000      -999.2500       0.022734         0.0000         1.0000      -999.2500
     3920.1852       0.022734        56.4165         0.0000      -999.2500       0.018106         0.0000         1.0000      -999.2500
     3920.3376       0.018106        56.2502         0.0000      -999.2500       0.015020         0.0000         1.0000      -999.2500
     3920.4900       0.015020        56.7723         0.0000      -999.2500       0.017077         0.0000         1.0000      -999.2500
     3920.6424       0.017077        57.8865         0.0000      -999.2500       0.025306         0.0000         1.0000      -999.2500
     3920.7948       0.025306        61.7779         0.0000      -999.2500       0.029935         0.0000         1.0000      -999.2500
     3920.9472       0.029935        63.9651         0.0000      -999.2500       0.036620         0.0000         1.0000      -999.2500
     3921.0996       0.036620        66.9111         0.0000      -999.2500       0.040221         0.0000         1.0000      -999.2500
     3921.2520       0.040221        67.2196         0.0000      -999.2500       0.040221         0.0000         1.0000      -999.2500
     3921.4044       0.040221        66.8075         0.0000      -999.2500       0.040221         0.0000         1.0000      -999.2500
     3921.5568       0.040221        65.8962         0.0000      -999.2500       0.040221         0.0000         1.0000      -999.2500
     3921.7092       0.040221        65.5834         0.0000      -999.2500       0.039192         0.0000         1.0000      -999.2500
     3921.8616       0.039192        65.3273         0.0000      -999.2500       0.038164         0.0000         1.0000      -999.2500
     3922.0140       0.038164        65.2861         0.0000      -999.2500       0.035077         0.0000         1.0000      -999.2500
     3922.1664       0.035077        65.1562         0.0000      -999.2500       0.033535         0.0000         1.0000      -999.2500
     3922.3188       0.033535        65.0391         0.0000      -999.2500       0.028906         0.0000         1.0000      -999.2500
     3922.4712       0.028906        64.7504         0.0000      -999.2500       0.027363         0.0000         1.0000      -999.2500
     3922.6236       0.027363        64.6411         0.0000      -999.2500       0.027363         0.0000         1.0000      -999.2500
     3922.7760       0.027363        64.6011         0.0000      -999.2500       0.029420         0.0000         1.0000      -999.2500
     3922.9284       0.029420        64.6579         0.0000      -999.2500       0.035592         0.0000         1.0000      -999.2500
     3923.0808       0.035592        64.8078         0.0000      -999.2500       0.037135         0.0000         1.0000      -999.2500
     3923.2332       0.037135        64.8609         0.0000      -999.2500       0.038164         0.0000         1.0000      -999.2500
     3923.3856       0.038164        64.8900         0.0000      -999.2500       0.038164         0.0000         1.0000      -999.2500
     3923.5380       0.038164        64.8830         0.0000      -999.2500       0.040221         0.0000         1.0000      -999.2500
     3923.6904       0.040221        64.8690         0.0000      -999.2500       0.041249         0.0000         1.0000      -999.2500
     3923.8428       0.041249        64.8630         0.0000      -999.2500       0.042792         0.0000         1.0000      -999.2500
     3923.9952       0.042792        64.8510         0.0000      -999.2500       0.042792         0.0000         1.0000      -999.2500
     3924.1476       0.042792        64.8450         0.0000      -999.2500       0.041764         0.0000         1.0000      -999.2500
     3924.3000       0.041764        64.8350         0.0000      -999.2500       0.038678         0.0000         1.0000      -999.2500
     3924.4524       0.038678        64.8250         0.0000      -999.2500       0.035592         0.0000         1.0000      -999.2500
