~Version Information Block
VERS .                 2.00:  CWLS LOG ASCII STANDARD - VERSION 2.00
WRAP .                   NO:  One line per depth step
~Well Information Block
#MNEM.UNIT        Data Type   Information
#---------- ----------------  -----------
STRT .M           3549.7008:  START DEPTH
STOP .M           4618.3296:  STOP DEPTH
STEP .M              0.0000:  STEP
NULL .              -999.25:  NULL VALUE
COMP .                     :  COMPANY
WELL .        NO_15/9-19_SR:  WELL
FLD  .                     :  FIELD
LOC  .                     :  LOCATION
CTRY .                     :  COUNTRY
STAT .                     :  STATE
CNTY .                     :  COUNTY
SRVC .                     :  SERVICE COMPANY
DATE .                     :  DATE
API  .                     :  API NUMBER
UWI  .                     :  UNIQUE WELL ID
~Curve Information Block
#MNEM.UNIT         API CODE   Curve Description
#---------- ----------------  -----------------
DEPTH.M                    :  
BWV  .                     :  0
DT   .                     :  
KLOGH.MD                   :  KLOGH
KLOGV.MD                   :  Vertical PERMEABILITY calculated from logs
PHIF .V/V                  :  0
SAND_FLAG.UNITLESS                 :  SAND_FLAG
SW   .V/V                  :  SW
VSH  .V/V                  :  VSHGR
~Parameter Information Block
#MNEM.UNIT            Value   Description
#---------- ----------------  -----------
PROJECT.     SLEIPNER_OST@st-vlinapp01:  
SET  .             STAT_CPI:  
~Other Information Block
# 
~A       DEPTH            BWV             DT          KLOGH          KLOGV           PHIF      SAND_FLAG             SW            VSH 
# ...
     4125.7728       0.022220       165.1231         0.0000      -999.2500       0.021192         0.0000         1.0000      -999.2500
     4125.9252       0.021192        96.8253         0.0000      -999.2500       0.021192         0.0000         1.0000      -999.2500
     4126.0776       0.021192        63.7473         0.0000      -999.2500       0.022734         0.0000         1.0000      -999.2500
     4126.2300       0.022734        63.7479         0.0000      -999.2500       0.025820         0.0000         1.0000      -999.2500
     4126.3824       0.025820        63.7490         0.0000      -999.2500       0.025820         0.0000         1.0000      -999.2500
     4126.5348       0.025820        63.7370         0.0000      -999.2500       0.023249         0.0000         1.0000      -999.2500
     4126.6872       0.023249        63.7250         0.0000      -999.2500       0.021706         0.0000         1.0000      -999.2500
     4126.8396       0.021706        63.7250         0.0000      -999.2500       0.020677         0.0000         1.0000      -999.2500
     4126.9920       0.020677        63.7240         0.0000      -999.2500       0.021192         0.0000         1.0000      -999.2500
     4127.1444       0.021192        63.7250         0.0000      -999.2500       0.024277         0.0000         1.0000      -999.2500
     4127.2968       0.024277        63.7589         0.0000      -999.2500       0.025820         0.0000         1.0000      -999.2500
     4127.4492       0.025820        63.7970         0.0000      -999.2500       0.027877         0.0000         1.0000      -999.2500
     4127.6016       0.027877        63.9029         0.0000      -999.2500       0.028392         0.0000         1.0000      -999.2500
     4127.7540       0.028392        63.9449         0.0000      -999.2500       0.027363         0.0000         1.0000      -999.2500
     4127.9064       0.027363        63.8981         0.0000      -999.2500       0.024792         0.0000         1.0000      -999.2500
     4128.0588       0.024792        63.6034         0.0000      -999.2500       0.023249         0.0000         1.0000      -999.2500
     4128.2112       0.023249        63.3973         0.0000      -999.2500       0.020163         0.0000         1.0000      -999.2500
     4128.3636       0.020163        63.0235         0.0000      -999.2500       0.019134         0.0000         1.0000      -999.2500
     4128.5160       0.019134        62.9111         0.0000      -999.2500       0.017592         0.0000         1.0000      -999.2500
     4128.6684       0.017592        62.9110         0.0000      -999.2500       0.017077         0.0000         1.0000      -999.2500
     4128.8208       0.017077        62.8870         0.0000      -999.2500       0.017077         0.0000         1.0000      -999.2500
     4128.9732       0.017077        62.3847         0.0000      -999.2500       0.018106         0.0000         1.0000      -999.2500
     4129.1250       0.018106        61.8946         0.0000      -999.2500       0.018620         0.0000         1.0000      -999.2500
     4129.2780       0.018620        60.8943         0.0000      -999.2500       0.018106         0.0000         1.0000      -999.2500
     4129.4304       0.018106        60.5844         0.0000      -999.2500       0.014505         0.0000         1.0000      -999.2500
     4129.5828       0.014505        60.4222         0.0000      -999.2500       0.011934         0.0000         1.0000      -999.2500
     4129.7352       0.011934        60.4290         0.0000      -999.2500       0.007305         0.0000         1.0000      -999.2500
     4129.8876       0.007305        60.4190         0.0000      -999.2500       0.005762         0.0000         1.0000      -999.2500
     4130.0400       0.005762        60.4080         0.0000      -999.2500       0.006791         0.0000         1.0000      -999.2500
     4130.1924       0.006791        60.4040         0.0000      -999.2500       0.009877         0.0000         1.0000      -999.2500
     4130.3448       0.009877        60.4160         0.0000      -999.2500       0.016563         0.0000         1.0000      -999.2500
     4130.4972       0.016563        60.4679         0.0000      -999.2500       0.019134         0.0000         1.0000      -999.2500
     4130.6496       0.019134        60.4990         0.0000      -999.2500       0.019649         0.0000         1.0000      -999.2500
     4130.8020       0.019649        60.5379         0.0000      -999.2500       0.018106         0.0000         1.0000      -999.2500
     4130.9544       0.018106        60.5220         0.0000      -999.2500       0.017592         0.0000         1.0000      -999.2500
     4131.1068       0.017592        60.4930         0.0000      -999.2500       0.017077         0.0000         1.0000      -999.2500
     4131.2592       0.017077        60.4381         0.0000      -999.2500       0.017077         0.0000         1.0000      -999.2500
     4131.4116       0.017077        60.4240         0.0000      -999.2500       0.016049         0.0000         1.0000      -999.2500
     4131.5640       0.016049        60.4709         0.0000      -999.2500       0.016049         0.0000         1.0000      -999.2500
     4131.7164       0.016049        60.6368         0.0000      -999.2500       0.019134         0.0000         1.0000      -999.2500
     4131.8688       0.019134        61.7425         0.0000      -999.2500       0.023763         0.0000         1.0000      -999.2500
     4132.0212       0.023763        62.8855         0.0000      -999.2500       0.033020         0.0000         1.0000      -999.2500
     4132.1736       0.033020        66.3824         0.0000      -999.2500       0.036106         0.0000         1.0000      -999.2500
     4132.3260       0.036106        68.3993         0.0000      -999.2500       0.036106         0.0000         1.0000      -999.2500
     4132.4784       0.036106        71.4979         0.0000      -999.2500       0.034049         0.0000         1.0000      -999.2500
     4132.6308       0.034049        72.0453         0.0000      -999.2500       0.030963         0.0000         1.0000      -999.2500
     4132.7832       0.030963        70.5370         0.0000      -999.2500       0.030449         0.0000         1.0000      -999.2500
     4132.9356       0.030449        68.7843         0.0000      -999.2500       0.030449         0.0000         1.0000      -999.2500
     4133.0880       0.030449        64.9231         0.0000      -999.2500       0.030963         0.0000         1.0000      -999.2500
     4133.2404       0.030963        63.4210         0.0000      -999.2500       0.031477         0.0000         1.0000      -999.2500
     4133.3928       0.031477        61.9240         0.0000      -999.2500       0.030963         0.0000         1.0000      -999.2500
     4133.5452       0.030963        61.7782         0.0000      -999.2500       0.028392         0.0000         1.0000      -999.2500
     4133.6976       0.028392        61.9857         0.0000      -999.2500       0.027363         0.0000         1.0000      -999.2500
     4133.8500       0.027363        62.1757         0.0000      -999.2500       0.026334         0.0000         1.0000      -999.2500
     4134.0024       0.026334        62.4287         0.0000      -999.2500       0.027363         0.0000         1.0000      -999.2500
     4134.1548       0.027363        62.1044         0.0000      -999.2500       0.027363         0.0000         1.0000      -999.2500
     4134.3072       0.027363        61.3550         0.0000      -999.2500       0.027877         0.0000         1.0000      -999.2500
     4134.4596       0.027877        57.6169         0.0000      -999.2500       0.028392         0.0000         1.0000      -999.2500
     4134.6120       0.028392        54.7458         0.0000      -999.2500       0.027877         0.0000         1.0000      -999.2500
     4134.7644       0.027877        49.2232         0.0000      -999.2500       0.026849         0.0000         1.0000      -999.2500
