~Version Information Block
VERS .                 2.00:  CWLS LOG ASCII STANDARD - VERSION 2.00
WRAP .                   NO:  One line per depth step
~Well Information Block
#MNEM.UNIT        Data Type   Information
#---------- ----------------  -----------
STRT .M           3549.7008:  START DEPTH
STOP .M           4618.3296:  STOP DEPTH
STEP .M              0.0000:  STEP
NULL .              -999.25:  NULL VALUE
COMP .                     :  COMPANY
WELL .        NO_15/9-19_SR:  WELL
FLD  .                     :  FIELD
LOC  .                     :  LOCATION
CTRY .                     :  COUNTRY
STAT .                     :  STATE
CNTY .                     :  COUNTY
SRVC .                     :  SERVICE COMPANY
DATE .                     :  DATE
API  .                     :  API NUMBER
UWI  .                     :  UNIQUE WELL ID
~Curve Information Block
#MNEM.UNIT         API CODE   Curve Description
#---------- ----------------  -----------------
DEPTH.M                    :  
BWV  .                     :  0
DT   .                     :  
KLOGH.MD                   :  KLOGH
KLOGV.MD                   :  Vertical PERMEABILITY calculated from logs
PHIF .V/V                  :  0
SAND_FLAG.UNITLESS                 :  SAND_FLAG
SW   .V/V                  :  SW
VSH  .V/V                  :  VSHGR
~Parameter Information Block
#MNEM.UNIT            Value   Description
#---------- ----------------  -----------
PROJECT.     SLEIPNER_OST@st-vlinapp01:  
SET  .             STAT_CPI:  
~Other Information Block
# 
~A       DEPTH            BWV             DT          KLOGH          KLOGV           PHIF      SAND_FLAG             SW            VSH 
# ...
     3567.9888       0.003443        93.5518      -999.2500      -999.2500    -999.250000      -999.2500      -999.2500      -999.2500
     3568.1412       0.003780        97.7015      -999.2500      -999.2500    -999.250000      -999.2500      -999.2500      -999.2500
     3568.2936       0.006410       110.6420      -999.2500      -999.2500    -999.250000      -999.2500      -999.2500      -999.2500
     3568.4460       0.010891       117.9784      -999.2500      -999.2500    -999.250000      -999.2500      -999.2500      -999.2500
     3568.5984       0.170499       129.0295      -999.2500      -999.2500    -999.250000      -999.2500      -999.2500      -999.2500
     3568.7500       0.170615       131.2721      -999.2500      -999.2500    -999.250000      -999.2500      -999.2500      -999.2500
     3568.9032       0.181933       129.2137         6.7800         4.3247       0.185253         1.0000         1.0000      -999.2500
     3569.0556       0.185253       123.8840         5.9320         3.7528       0.183710         1.0000         1.0000      -999.2500
     3569.2080       0.183710       122.1513         2.7810         1.6791       0.174967         1.0000         1.0000      -999.2500
     3569.3604       0.174967       121.1014         1.4260         0.8263       0.167252         1.0000         1.0000      -999.2500
     3569.5128       0.167252       120.9082         0.3430         0.1820       0.150795         1.0000         1.0000      -999.2500
     3569.6652       0.150795       118.9586         0.2400         0.1246       0.146681         1.0000         1.0000      -999.2500
     3569.8176       0.146681       117.0555         0.2740         0.1434       0.148224         1.0000         1.0000      -999.2500
     3569.9700       0.148224       112.4600         0.4280         0.2303       0.153367         1.0000         1.0000      -999.2500
     3570.1224       0.153367       110.0332         1.0910         0.6218       0.164167         1.0000         1.0000      -999.2500
     3570.2748       0.164167       105.2952         1.4260         0.8263       0.167252         1.0000         1.0000      -999.2500
     3570.4272       0.167252       103.2127         1.5590         0.9083       0.168281         1.0000         1.0000      -999.2500
     3570.5796       0.168281       100.1550         1.4260         0.8263       0.167252         1.0000         1.0000      -999.2500
     3570.7320       0.167252        99.2232         1.1410         0.6521       0.164681         1.0000         1.0000      -999.2500
     3570.8844       0.164681        98.3242         1.0440         0.5934       0.163652         1.0000         1.0000      -999.2500
     3571.0368       0.163652        98.1412         0.9550         0.5398       0.162624         1.0000         1.0000      -999.2500
     3571.1892       0.162624        98.1080         0.9980         0.5657       0.163138         1.0000         1.0000      -999.2500
     3571.3416       0.163138        98.4426         1.4260         0.8263       0.167252         0.0000         1.0000      -999.2500
     3571.4940       0.167252       100.9537         1.9470         1.1500       0.170853         0.0000         1.0000      -999.2500
     3571.6464       0.170853       103.6375         4.1530         2.5702       0.179596         0.0000         1.0000      -999.2500
     3571.7988       0.179596       112.1278         6.4850         4.1252       0.184739         0.0000         1.0000      -999.2500
     3571.9512       0.184739       122.0530         6.2020         3.9344       0.184224         1.0000         1.0000      -999.2500
     3572.1036       0.184224       125.8021         2.4330         1.4569       0.173424         1.0000         1.0000      -999.2500
     3572.2560       0.173424       128.5274         1.1930         0.6837       0.165195         0.0000         1.0000      -999.2500
     3572.4084       0.165195       127.6262         0.3430         0.1820       0.150795         1.0000         1.0000      -999.2500
     3572.5608       0.150795       123.2308         0.2620         0.1368       0.147709         1.0000         1.0000      -999.2500
     3572.7132       0.147709       120.6953         0.2400         0.1246       0.146681         1.0000         1.0000      -999.2500
     3572.8656       0.146681       116.6713         0.2620         0.1368       0.147709         1.0000         1.0000      -999.2500
     3573.0180       0.147709       115.3837         0.4480         0.2417       0.153881         1.0000         1.0000      -999.2500
     3573.1704       0.153881       113.8021         0.7640         0.4260       0.160052         1.0000         1.0000      -999.2500
     3573.3228       0.160052       113.0690         2.0360         1.2059       0.171367         1.0000         1.0000      -999.2500
     3573.4752       0.171367       110.5183         2.2260         1.3257       0.172396         1.0000         1.0000      -999.2500
     3573.6276       0.172396       108.5975         0.9980         0.5657       0.163138         1.0000         1.0000      -999.2500
     3573.7800       0.163138       104.4435         0.5590         0.3057       0.156452         1.0000         1.0000      -999.2500
     3573.9324       0.156452       102.7452         0.2620         0.1368       0.147709         1.0000         1.0000      -999.2500
     3574.0848       0.147709       101.0742         0.2100         0.1081       0.145138         1.0000         1.0000      -999.2500
     3574.2372       0.145138       101.1589         0.1470         0.0740       0.141023         1.0000         1.0000      -999.2500
     3574.3896       0.141023       102.7939         0.1340         0.0671       0.139995         1.0000         1.0000      -999.2500
     3574.5420       0.139995       104.1203         0.2100         0.1081       0.145138         1.0000         1.0000      -999.2500
     3574.6944       0.145138       106.4729         0.3580         0.1905       0.151309         1.0000         1.0000      -999.2500
     3574.8468       0.151309       106.7217         1.0440         0.5934       0.163652         1.0000         1.0000      -999.2500
     3574.9992       0.163652       104.3871         1.4910         0.8663       0.167767         1.0000         1.0000      -999.2500
     3575.1516       0.167767        99.7960         1.3640         0.7882       0.166739         1.0000         1.0000      -999.2500
     3575.3040       0.166739        97.6268         1.1930         0.6837       0.165195         1.0000         1.0000      -999.2500
     3575.4564       0.165195        95.0044         1.1930         0.6837       0.165195         1.0000         1.0000      -999.2500
     3575.6088       0.165195        94.7304         1.3640         0.7882       0.166739         1.0000         1.0000      -999.2500
     3575.7612       0.166739        96.0223         1.5590         0.9083       0.168281         1.0000         1.0000      -999.2500
     3575.9136       0.168281        97.2214         2.1290         1.2644       0.171881         1.0000         1.0000      -999.2500
     3576.0660       0.171881        99.6778         2.5440         1.5276       0.173939         1.0000         1.0000      -999.2500
     3576.2184       0.173939       100.6617         3.4750         2.1271       0.177539         1.0000         1.0000      -999.2500
     3576.3708       0.177539       102.0412         3.7990         2.3383       0.178567         1.0000         1.0000      -999.2500
     3576.5232       0.178567       102.5344         4.5400         2.8252       0.180624         1.0000         1.0000      -999.2500
     3576.6756       0.180624       103.2451         4.9630         3.1054       0.181653         1.0000         1.0000      -999.2500
     3576.8280       0.181653       103.3948         7.0890         4.5343       0.185767         1.0000         1.0000      -999.2500
     3576.9804       0.185767       103.3221         9.2610         6.0219       0.188853         1.0000         1.0000      -999.2500
