~Version Information Block
VERS .                 2.00:  CWLS LOG ASCII STANDARD - VERSION 2.00
WRAP .                   NO:  One line per depth step
~Well Information Block
#MNEM.UNIT        Data Type   Information
#---------- ----------------  -----------
STRT .M           3549.7008:  START DEPTH
STOP .M           4618.3296:  STOP DEPTH
STEP .M              0.0000:  STEP
NULL .              -999.25:  NULL VALUE
COMP .                     :  COMPANY
WELL .        NO_15/9-19_SR:  WELL
FLD  .                     :  FIELD
LOC  .                     :  LOCATION
CTRY .                     :  COUNTRY
STAT .                     :  STATE
CNTY .                     :  COUNTY
SRVC .                     :  SERVICE COMPANY
DATE .                     :  DATE
API  .                     :  API NUMBER
UWI  .                     :  UNIQUE WELL ID
~Curve Information Block
#MNEM.UNIT         API CODE   Curve Description
#---------- ----------------  -----------------
DEPTH.M                    :  
BWV  .                     :  0
DT   .                     :  
KLOGH.MD                   :  KLOGH
KLOGV.MD                   :  Vertical PERMEABILITY calculated from logs
PHIF .V/V                  :  0
SAND_FLAG.UNITLESS                 :  SAND_FLAG
SW   .V/V                  :  SW
VSH  .V/V                  :  VSHGR
~Parameter Information Block
#MNEM.UNIT            Value   Description
#---------- ----------------  -----------
PROJECT.     SLEIPNER_OST@st-vlinapp01:  
SET  .             STAT_CPI:  
~Other Information Block
# 
~A       DEPTH            BWV             DT          KLOGH          KLOGV           PHIF      SAND_FLAG             SW            VSH 
# ...
     3842.3088       0.121994        79.7332         0.0070         0.0029       0.105537         0.0000         1.0000      -999.2500
     3842.4612       0.105537        79.3146         0.0030         0.0012       0.095765         0.0000         1.0000      -999.2500
     3842.6136       0.095765        78.9914         0.0010         0.0004       0.080336         0.0000         1.0000      -999.2500
     3842.7660       0.080336        78.2010         0.0010         0.0004       0.075707         0.0000         1.0000      -999.2500
     3842.9184       0.075707        77.8664         0.0000      -999.2500       0.072621         0.0000         1.0000      -999.2500
     3843.0708       0.072621        77.5244         0.0000      -999.2500       0.073136         0.0000         1.0000      -999.2500
     3843.2232       0.073136        77.4601         0.0000      -999.2500       0.074679         0.0000         1.0000      -999.2500
     3843.3750       0.074679        77.1734         0.0000      -999.2500       0.075193         0.0000         1.0000      -999.2500
     3843.5280       0.075193        76.8494         0.0010         0.0004       0.076221         0.0000         1.0000      -999.2500
     3843.6804       0.076221        75.9412         0.0010         0.0004       0.077250         0.0000         1.0000      -999.2500
     3843.8328       0.077250        75.4776         0.0010         0.0004       0.079307         0.0000         1.0000      -999.2500
     3843.9852       0.079307        74.7849         0.0010         0.0004       0.080850         0.0000         1.0000      -999.2500
     3844.1376       0.080850        74.5912         0.0010         0.0004       0.083936         0.0000         1.0000      -999.2500
     3844.2900       0.083936        74.4691         0.0010         0.0004       0.085479         0.0000         1.0000      -999.2500
     3844.4424       0.085479        74.5029         0.0010         0.0004       0.088051         0.0000         1.0000      -999.2500
     3844.5948       0.088051        74.5499         0.0020         0.0008       0.088565         0.0000         1.0000      -999.2500
     3844.7472       0.088565        74.1006         0.0020         0.0008       0.088565         0.0000         1.0000      -999.2500
     3844.8996       0.088565        70.7464         0.0010         0.0004       0.088051         0.0000         1.0000      -999.2500
     3845.0520       0.088051        65.0734         0.0020         0.0008       0.088565         0.0000         1.0000      -999.2500
     3845.2044       0.088565        63.1106         0.0020         0.0008       0.090622         0.0000         1.0000      -999.2500
     3845.3568       0.090622        64.1596         0.0020         0.0008       0.090622         0.0000         1.0000      -999.2500
     3845.5092       0.090622        66.8664         0.0010         0.0004       0.083936         0.0000         1.0000      -999.2500
     3845.6616       0.083936        72.7223         0.0010         0.0004       0.075707         0.0000         1.0000      -999.2500
     3845.8140       0.075707        74.5985         0.0000      -999.2500       0.054621         0.0000         1.0000      -999.2500
     3845.9664       0.054621        75.9762         0.0000      -999.2500       0.046392         0.0000         1.0000      -999.2500
     3846.1188       0.046392        76.0589         0.0000      -999.2500       0.039706         0.0000         1.0000      -999.2500
     3846.2712       0.039706        76.0760         0.0000      -999.2500       0.041249         0.0000         1.0000      -999.2500
     3846.4236       0.041249        76.0800         0.0000      -999.2500       0.046392         0.0000         1.0000      -999.2500
     3846.5760       0.046392        76.0730         0.0000      -999.2500       0.047421         0.0000         1.0000      -999.2500
     3846.7284       0.047421        76.0700         0.0000      -999.2500       0.046907         0.0000         1.0000      -999.2500
     3846.8808       0.046907        76.0710         0.0000      -999.2500       0.045364         0.0000         1.0000      -999.2500
     3847.0332       0.045364        76.0640         0.0000      -999.2500       0.041249         0.0000         1.0000      -999.2500
     3847.1856       0.041249        76.0300         0.0000      -999.2500       0.039192         0.0000         1.0000      -999.2500
     3847.3380       0.039192        76.0310         0.0000      -999.2500       0.034563         0.0000         1.0000      -999.2500
     3847.4904       0.034563        76.1378         0.0000      -999.2500       0.030449         0.0000         1.0000      -999.2500
     3847.6428       0.030449        76.1630         0.0000      -999.2500       0.020677         0.0000         1.0000      -999.2500
     3847.7952       0.020677        75.2072         0.0000      -999.2500       0.016049         0.0000         1.0000      -999.2500
     3847.9476       0.016049        73.9007         0.0000      -999.2500       0.009877         0.0000         1.0000      -999.2500
     3848.1000       0.009877        70.1719         0.0000      -999.2500       0.003191         0.0000         1.0000      -999.2500
     3848.2524       0.003191        67.1559         0.0000      -999.2500       0.000000         0.0000         1.0000      -999.2500
     3848.4048       0.000000        66.4579         0.0000      -999.2500       0.000000         0.0000         1.0000      -999.2500
     3848.5572       0.000000        66.2483         0.0000      -999.2500       0.000000         0.0000         1.0000      -999.2500
     3848.7096       0.000000        66.3289         0.0000      -999.2500       0.011934         0.0000         1.0000      -999.2500
     3848.8620       0.011934        66.4648         0.0000      -999.2500       0.024277         0.0000         1.0000      -999.2500
     3849.0144       0.024277        66.5149         0.0000      -999.2500       0.040735         0.0000         1.0000      -999.2500
     3849.1668       0.040735        66.5899         0.0000      -999.2500       0.043821         0.0000         1.0000      -999.2500
     3849.3192       0.043821        66.6209         0.0000      -999.2500       0.044849         0.0000         1.0000      -999.2500
     3849.4716       0.044849        66.6879         0.0000      -999.2500       0.046392         0.0000         1.0000      -999.2500
     3849.6240       0.046392        66.7229         0.0000      -999.2500       0.053592         0.0000         1.0000      -999.2500
     3849.7764       0.053592        66.7939         0.0000      -999.2500       0.057707         0.0000         1.0000      -999.2500
     3849.9288       0.057707        66.8449         0.0000      -999.2500       0.064393         0.0000         1.0000      -999.2500
     3850.0812       0.064393        67.0338         0.0000      -999.2500       0.067479         0.0000         1.0000      -999.2500
     3850.2336       0.067479        67.1728         0.0000      -999.2500       0.070564         0.0000         1.0000      -999.2500
     3850.3860       0.070564        67.4037         0.0000      -999.2500       0.071593         0.0000         1.0000      -999.2500
     3850.5384       0.071593        67.4000         0.0000      -999.2500       0.072621         0.0000         1.0000      -999.2500
     3850.6908       0.072621        67.1493         0.0000      -999.2500       0.074164         0.0000         1.0000      -999.2500
     3850.8432       0.074164        66.9782         0.0010         0.0004       0.078279         0.0000         1.0000      -999.2500
     3850.9956       0.078279        66.6814         0.0010         0.0004       0.078279         0.0000         1.0000      -999.2500
     3851.1480       0.078279        66.5432         0.0000      -999.2500       0.066450         0.0000         1.0000      -999.2500
     3851.3004       0.066450        66.2144         0.0000      -999.2500       0.042278         0.0000         1.0000      -999.2500
