~Version Information Block
VERS .                 2.00:  CWLS LOG ASCII STANDARD - VERSION 2.00
WRAP .                   NO:  One line per depth step
~Well Information Block
#MNEM.UNIT        Data Type   Information
#---------- ----------------  -----------
STRT .M           3549.7008:  START DEPTH
STOP .M           4618.3296:  STOP DEPTH
STEP .M              0.0000:  STEP
NULL .              -999.25:  NULL VALUE
COMP .                     :  COMPANY
WELL .        NO_15/9-19_SR:  WELL
FLD  .                     :  FIELD
LOC  .                     :  LOCATION
CTRY .                     :  COUNTRY
STAT .                     :  STATE
CNTY .                     :  COUNTY
SRVC .                     :  SERVICE COMPANY
DATE .                     :  DATE
API  .                     :  API NUMBER
UWI  .                     :  UNIQUE WELL ID
~Curve Information Block
#MNEM.UNIT         API CODE   Curve Description
#---------- ----------------  -----------------
DEPTH.M                    :  
BWV  .                     :  0
DT   .                     :  
KLOGH.MD                   :  KLOGH
KLOGV.MD                   :  Vertical PERMEABILITY calculated from logs
PHIF .V/V                  :  0
SAND_FLAG.UNITLESS                 :  SAND_FLAG
SW   .V/V                  :  SW
VSH  .V/V                  :  VSHGR
~Parameter Information Block
#MNEM.UNIT            Value   Description
#---------- ----------------  -----------
PROJECT.     SLEIPNER_OST@st-vlinapp01:  
SET  .             STAT_CPI:  
~Other Information Block
# 
~A       DEPTH            BWV             DT          KLOGH          KLOGV           PHIF      SAND_FLAG             SW            VSH 
# ...
     4052.6208       0.067479        69.1687         0.0000      -999.2500       0.066450         0.0000         1.0000      -999.2500
     4052.7732       0.066450        69.5515         0.0000      -999.2500       0.065936         0.0000         1.0000      -999.2500
     4052.9256       0.065936        69.7278         0.0000      -999.2500       0.067479         0.0000         1.0000      -999.2500
     4053.0780       0.067479        69.9487         0.0000      -999.2500       0.069536         0.0000         1.0000      -999.2500
     4053.2304       0.069536        69.9809         0.0000      -999.2500       0.073650         0.0000         1.0000      -999.2500
     4053.3828       0.073650        70.0139         0.0010         0.0004       0.075707         0.0000         1.0000      -999.2500
     4053.5352       0.075707        70.0929         0.0010         0.0004       0.077250         0.0000         1.0000      -999.2500
     4053.6876       0.077250        70.3986         0.0010         0.0004       0.076221         0.0000         1.0000      -999.2500
     4053.8400       0.076221        70.5398         0.0000      -999.2500       0.071593         0.0000         1.0000      -999.2500
     4053.9924       0.071593        70.6319         0.0000      -999.2500       0.069021         0.0000         1.0000      -999.2500
     4054.1448       0.069021        70.5921         0.0000      -999.2500       0.068507         0.0000         1.0000      -999.2500
     4054.2972       0.068507        70.4462         0.0000      -999.2500       0.070050         0.0000         1.0000      -999.2500
     4054.4496       0.070050        70.3551         0.0000      -999.2500       0.074164         0.0000         1.0000      -999.2500
     4054.6020       0.074164        70.0634         0.0000      -999.2500       0.072621         0.0000         1.0000      -999.2500
     4054.7544       0.072621        69.4508         0.0000      -999.2500       0.070564         0.0000         1.0000      -999.2500
     4054.9068       0.070564        69.0545         0.0000      -999.2500       0.065936         0.0000         1.0000      -999.2500
     4055.0592       0.065936        68.3469         0.0000      -999.2500       0.064907         0.0000         1.0000      -999.2500
     4055.2116       0.064907        68.1333         0.0000      -999.2500       0.063879         0.0000         1.0000      -999.2500
     4055.3640       0.063879        68.0082         0.0000      -999.2500       0.063879         0.0000         1.0000      -999.2500
     4055.5164       0.063879        68.0230         0.0000      -999.2500       0.062336         0.0000         1.0000      -999.2500
     4055.6688       0.062336        68.0709         0.0000      -999.2500       0.062336         0.0000         1.0000      -999.2500
     4055.8212       0.062336        68.1289         0.0000      -999.2500       0.063879         0.0000         1.0000      -999.2500
     4055.9736       0.063879        68.4436         0.0000      -999.2500       0.065421         0.0000         1.0000      -999.2500
     4056.1250       0.065421        68.7246         0.0000      -999.2500       0.068507         0.0000         1.0000      -999.2500
     4056.2784       0.068507        69.4261         0.0000      -999.2500       0.070050         0.0000         1.0000      -999.2500
     4056.4308       0.070050        69.7606         0.0000      -999.2500       0.072107         0.0000         1.0000      -999.2500
     4056.5832       0.072107        70.1715         0.0000      -999.2500       0.071593         0.0000         1.0000      -999.2500
     4056.7356       0.071593        70.2099         0.0000      -999.2500       0.069536         0.0000         1.0000      -999.2500
     4056.8880       0.069536        70.0502         0.0000      -999.2500       0.068507         0.0000         1.0000      -999.2500
     4057.0404       0.068507        69.9341         0.0000      -999.2500       0.065421         0.0000         1.0000      -999.2500
     4057.1928       0.065421        69.7892         0.0000      -999.2500       0.064393         0.0000         1.0000      -999.2500
     4057.3452       0.064393        69.7710         0.0000      -999.2500       0.063879         0.0000         1.0000      -999.2500
     4057.4976       0.063879        69.7740         0.0000      -999.2500       0.064393         0.0000         1.0000      -999.2500
     4057.6500       0.064393        69.7890         0.0000      -999.2500       0.068507         0.0000         1.0000      -999.2500
     4057.8024       0.068507        69.8899         0.0000      -999.2500       0.073136         0.0000         1.0000      -999.2500
     4057.9548       0.073136        70.1007         0.0000      -999.2500       0.074679         0.0000         1.0000      -999.2500
     4058.1072       0.074679        70.2149         0.0010         0.0004       0.075707         0.0000         1.0000      -999.2500
     4058.2596       0.075707        70.3298         0.0010         0.0004       0.075707         0.0000         1.0000      -999.2500
     4058.4120       0.075707        70.2910         0.0000      -999.2500       0.074679         0.0000         1.0000      -999.2500
     4058.5644       0.074679        70.0343         0.0000      -999.2500       0.074164         0.0000         1.0000      -999.2500
     4058.7168       0.074164        69.8752         0.0000      -999.2500       0.072621         0.0000         1.0000      -999.2500
     4058.8692       0.072621        69.6463         0.0000      -999.2500       0.072107         0.0000         1.0000      -999.2500
     4059.0216       0.072107        69.5981         0.0000      -999.2500       0.071593         0.0000         1.0000      -999.2500
     4059.1740       0.071593        69.5860         0.0000      -999.2500       0.071079         0.0000         1.0000      -999.2500
     4059.3264       0.071079        69.5910         0.0000      -999.2500       0.070050         0.0000         1.0000      -999.2500
     4059.4788       0.070050        69.5930         0.0000      -999.2500       0.070050         0.0000         1.0000      -999.2500
     4059.6312       0.070050        69.5940         0.0000      -999.2500       0.070564         0.0000         1.0000      -999.2500
     4059.7836       0.070564        69.5970         0.0000      -999.2500       0.070564         0.0000         1.0000      -999.2500
     4059.9360       0.070564        69.6000         0.0000      -999.2500       0.070564         0.0000         1.0000      -999.2500
     4060.0884       0.070564        69.6090         0.0000      -999.2500       0.070564         0.0000         1.0000      -999.2500
     4060.2408       0.070564        69.6260         0.0000      -999.2500       0.072107         0.0000         1.0000      -999.2500
     4060.3932       0.072107        69.7328         0.0000      -999.2500       0.073136         0.0000         1.0000      -999.2500
     4060.5456       0.073136        69.8289         0.0000      -999.2500       0.075193         0.0000         1.0000      -999.2500
     4060.6980       0.075193        70.0647         0.0010         0.0004       0.076221         0.0000         1.0000      -999.2500
     4060.8504       0.076221        70.2048         0.0010         0.0004       0.078279         0.0000         1.0000      -999.2500
     4061.0028       0.078279        70.5915         0.0010         0.0004       0.079821         0.0000         1.0000      -999.2500
     4061.1552       0.079821        71.1053         0.0010         0.0004       0.080336         0.0000         1.0000      -999.2500
     4061.3076       0.080336        71.3287         0.0010         0.0004       0.080850         0.0000         1.0000      -999.2500
     4061.4600       0.080850        71.4818         0.0010         0.0004       0.081879         0.0000         1.0000      -999.2500
     4061.6124       0.081879        71.3861         0.0010         0.0004       0.085993         0.0000         1.0000      -999.2500
