~Version Information Block
VERS .                 2.00:  CWLS LOG ASCII STANDARD - VERSION 2.00
WRAP .                   NO:  One line per depth step
~Well Information Block
#MNEM.UNIT        Data Type   Information
#---------- ----------------  -----------
STRT .M           3549.7008:  START DEPTH
STOP .M           4618.3296:  STOP DEPTH
STEP .M              0.0000:  STEP
NULL .              -999.25:  NULL VALUE
COMP .                     :  COMPANY
WELL .        NO_15/9-19_SR:  WELL
FLD  .                     :  FIELD
LOC  .                     :  LOCATION
CTRY .                     :  COUNTRY
STAT .                     :  STATE
CNTY .                     :  COUNTY
SRVC .                     :  SERVICE COMPANY
DATE .                     :  DATE
API  .                     :  API NUMBER
UWI  .                     :  UNIQUE WELL ID
~Curve Information Block
#MNEM.UNIT         API CODE   Curve Description
#---------- ----------------  -----------------
DEPTH.M                    :  
BWV  .                     :  0
DT   .                     :  
KLOGH.MD                   :  KLOGH
KLOGV.MD                   :  Vertical PERMEABILITY calculated from logs
PHIF .V/V                  :  0
SAND_FLAG.UNITLESS                 :  SAND_FLAG
SW   .V/V                  :  SW
VSH  .V/V                  :  VSHGR
~Parameter Information Block
#MNEM.UNIT            Value   Description
#---------- ----------------  -----------
PROJECT.     SLEIPNER_OST@st-vlinapp01:  
SET  .             STAT_CPI:  
~Other Information Block
# 
~A       DEPTH            BWV             DT          KLOGH          KLOGV           PHIF      SAND_FLAG             SW            VSH 
# ...
     4400.0928       0.188734        99.3909        16.9340        11.4284       0.238243         1.0000         0.8011         0.2703
     4400.2452       0.190851       100.3158        20.6170        14.0838       0.240777         1.0000         0.8155         0.2626
     4400.3976       0.196361       101.5204        21.8280        14.9636       0.241399         1.0000         0.8265         0.2459
     4400.5500       0.199509       101.3982        21.4980        14.7236       0.242192         1.0000         0.8486         0.2407
     4400.7024       0.205514        99.4186        19.6540        13.3864       0.244016         1.0000         0.8616         0.2448
     4400.8548       0.210246        96.3470        19.4960        13.2722       0.245653         1.0000         0.8639         0.2607
     4401.0072       0.212208        95.1096        21.2250        14.5251       0.248546         1.0000         0.8634         0.2662
     4401.1596       0.214585        94.1263        22.0590        15.1318       0.248330         1.0000         0.8659         0.2640
     4401.3120       0.215020        94.3507        19.6400        13.3763       0.241687         1.0000         0.8844         0.2587
     4401.4644       0.213747        95.4186        16.4470        11.0798       0.235147         1.0000         0.9015         0.2542
     4401.6168       0.211987        95.7765         9.5020         6.1884       0.217504         1.0000         0.9459         0.2573
     4401.7692       0.205736        94.8952         6.9400         4.4331       0.207975         1.0000         0.9707         0.2745
     4401.9216       0.201891        93.4050         4.4700         2.7790       0.193393         1.0000         1.0000         0.2859
     4402.0740       0.193393        88.8180         4.4030         2.7348       0.190514         1.0000         1.0000         0.2986
     4402.2264       0.190514        86.2913         6.5630         4.1779       0.194292         1.0000         0.9878         0.2924
     4402.3788       0.191926        82.4441         8.9160         5.7840       0.199222         1.0000         0.9675         0.2548
     4402.5312       0.192757        81.5542        15.0650        10.0941       0.210115         1.0000         0.9366         0.2316
     4402.6836       0.196785        82.0354        17.6120        11.9148       0.214490         1.0000         0.9291         0.1985
     4402.8360       0.199293        83.1475        18.6570        12.6667       0.218267         1.0000         0.9323         0.1918
     4402.9884       0.203485        85.8614        16.7850        11.3217       0.217022         1.0000         0.9426         0.1952
     4403.1408       0.204569        86.9046        10.8140         7.0992       0.208672         1.0000         0.9731         0.2044
     4403.2932       0.203051        87.5392         8.1020         5.2250       0.202785         1.0000         0.9903         0.2342
     4403.4456       0.200814        87.1595         4.4140         2.7420       0.190405         1.0000         1.0000         0.2527
     4403.5980       0.190405        85.8727         3.2530         1.9831       0.183692         1.0000         1.0000         0.2916
     4403.7500       0.183692        85.3117         1.7000         0.9958       0.164948         1.0000         1.0000         0.3098
     4403.9028       0.164948        83.8889         0.0540         0.0256       0.136376         0.0000         1.0000         0.3360
     4404.0552       0.136376        80.0870         0.0360         0.0166       0.121850         0.0000         1.0000         0.3298
     4404.2076       0.121850        77.2028         0.0220         0.0099       0.104414         0.0000         1.0000         0.3119
     4404.3600       0.104414        71.7781         0.0220         0.0099       0.103638         0.0000         1.0000         0.2599
     4404.5124       0.103638        70.2680         0.0270         0.0123       0.110736         0.0000         1.0000         0.2352
     4404.6648       0.110736        70.1541         0.0290         0.0132       0.114011         0.0000         1.0000         0.2062
     4404.8172       0.114011        70.9080         0.0320         0.0147       0.116762         0.0000         1.0000         0.2017
     4404.9696       0.116762        72.2103         0.0330         0.0152       0.118510         0.0000         1.0000         0.1982
     4405.1220       0.118510        72.4387         0.0430         0.0201       0.128189         0.0000         0.9665         0.1949
     4405.2744       0.123891        72.3062         3.2610         1.9883       0.135741         0.0000         0.9240         0.1832
     4405.4268       0.125425        72.3290         5.0890         3.1892       0.151121         0.0000         0.8623         0.1764
     4405.5792       0.130308        73.3237         6.1050         3.8691       0.157548         0.0000         0.8482         0.1655
     4405.7316       0.133635        74.2827         8.1580         5.2634       0.169051         1.0000         0.8432         0.1614
     4405.8840       0.142548        76.4711         9.1580         5.9508       0.175399         1.0000         0.8443         0.1584
     4406.0364       0.148093        77.5136        10.1830         6.6602       0.188090         1.0000         0.8546         0.1621
     4406.1888       0.160734        79.6262         9.5410         6.2153       0.191609         1.0000         0.8703         0.1846
     4406.3412       0.166750        80.8294         6.0940         3.8617       0.186652         1.0000         0.9426         0.2022
     4406.4936       0.175948        83.1370         4.3540         2.7025       0.178380         1.0000         0.9992         0.2423
     4406.6460       0.178234        83.7162         2.3800         1.4233       0.157371         1.0000         1.0000         0.2599
     4406.7984       0.157371        82.3388         1.9980         1.1820       0.147422         0.0000         1.0000         0.2743
     4406.9508       0.147422        80.3156         1.9090         1.1262       0.132445         0.0000         1.0000         0.2679
     4407.1032       0.132445        75.4014         2.8310         1.7112       0.134984         0.0000         1.0000         0.2318
     4407.2556       0.134984        73.2089         3.8080         2.3441       0.144020         0.0000         1.0000         0.1913
     4407.4080       0.144020        74.0309         6.5600         4.1759       0.169634         1.0000         1.0000         0.1806
     4407.5604       0.169634        78.3873         7.3020         4.6790       0.178090         1.0000         0.9900         0.1862
     4407.7128       0.176315        80.7309         6.4830         4.1239       0.179856         1.0000         0.9490         0.1967
     4407.8652       0.170684        83.2277         5.6340         3.5529       0.175671         1.0000         0.9457         0.2159
     4408.0176       0.166135        83.1561         3.6490         2.2404       0.158308         1.0000         0.9738         0.2212
     4408.1700       0.154167        81.3174         2.8080         1.6964       0.147058         0.0000         1.0000         0.2253
     4408.3224       0.147058        79.9638         0.0420         0.0196       0.127145         0.0000         1.0000         0.2257
     4408.4748       0.127145        76.8001         0.0360         0.0166       0.121844         0.0000         1.0000         0.2235
     4408.6250       0.121844        75.2101         0.0420         0.0196       0.126738         0.0000         0.9958         0.2231
     4408.7796       0.126202        73.2216         0.0540         0.0256       0.135821         0.0000         0.9322         0.2302
     4408.9320       0.126606        73.2190         3.0240         1.8353       0.154432         0.0000         0.8458         0.2357
     4409.0844       0.130620        74.8588         3.3140         2.0227       0.157180         1.0000         0.8420         0.2373
