~Version Information Block
VERS .                 2.00:  CWLS LOG ASCII STANDARD - VERSION 2.00
WRAP .                   NO:  One line per depth step
~Well Information Block
#MNEM.UNIT        Data Type   Information
#---------- ----------------  -----------
STRT .M           3549.7008:  START DEPTH
STOP .M           4618.3296:  STOP DEPTH
STEP .M              0.0000:  STEP
NULL .              -999.25:  NULL VALUE
COMP .                     :  COMPANY
WELL .        NO_15/9-19_SR:  WELL
FLD  .                     :  FIELD
LOC  .                     :  LOCATION
CTRY .                     :  COUNTRY
STAT .                     :  STATE
CNTY .                     :  COUNTY
SRVC .                     :  SERVICE COMPANY
DATE .                     :  DATE
API  .                     :  API NUMBER
UWI  .                     :  UNIQUE WELL ID
~Curve Information Block
#MNEM.UNIT         API CODE   Curve Description
#---------- ----------------  -----------------
DEPTH.M                    :  
BWV  .                     :  0
DT   .                     :  
KLOGH.MD                   :  KLOGH
KLOGV.MD                   :  Vertical PERMEABILITY calculated from logs
PHIF .V/V                  :  0
SAND_FLAG.UNITLESS                 :  SAND_FLAG
SW   .V/V                  :  SW
VSH  .V/V                  :  VSHGR
~Parameter Information Block
#MNEM.UNIT            Value   Description
#---------- ----------------  -----------
PROJECT.     SLEIPNER_OST@st-vlinapp01:  
SET  .             STAT_CPI:  
~Other Information Block
# 
~A       DEPTH            BWV             DT          KLOGH          KLOGV           PHIF      SAND_FLAG             SW            VSH 
# ...
     4610.4048       0.000000        40.0000         0.0000      -999.2500       0.000000         0.0000         1.0000      -999.2500
     4610.5572       0.000000        40.0000         0.0000      -999.2500       0.000000         0.0000         1.0000      -999.2500
     4610.7096       0.000000        40.0000         0.0000      -999.2500       0.000000         0.0000         1.0000      -999.2500
     4610.8620       0.000000        40.0000         0.0000      -999.2500       0.000000         0.0000         1.0000      -999.2500
     4611.0144       0.000000        40.0000         0.0000      -999.2500       0.000000         0.0000         1.0000      -999.2500
     4611.1668       0.000000        40.0000         0.0000      -999.2500       0.000000         0.0000         1.0000      -999.2500
     4611.3192       0.000000        40.0000         0.0000      -999.2500       0.000000         0.0000         1.0000      -999.2500
     4611.4716       0.000000        40.0000         0.0000      -999.2500       0.000000         0.0000         1.0000      -999.2500
     4611.6240       0.000000        40.0000         0.0000      -999.2500       0.000000         0.0000         1.0000      -999.2500
     4611.7764       0.000000        40.0000         0.0000      -999.2500       0.000000         0.0000         1.0000      -999.2500
     4611.9288       0.000000        40.0000         0.0000      -999.2500       0.000000         0.0000         1.0000      -999.2500
     4612.0812       0.000000        40.0000         0.0000      -999.2500       0.000000         0.0000         1.0000      -999.2500
     4612.2336       0.000000        40.0000         0.0000      -999.2500       0.000000         0.0000         1.0000      -999.2500
     4612.3860       0.000000        40.0000         0.0000      -999.2500       0.000000         0.0000         1.0000      -999.2500
     4612.5384       0.000000        40.0000         0.0000      -999.2500       0.000000         0.0000         1.0000      -999.2500
     4612.6908       0.000000        40.0000         0.0000      -999.2500       0.000000         0.0000         1.0000      -999.2500
     4612.8432       0.000000        40.0000         0.0000      -999.2500       0.000000         0.0000         1.0000      -999.2500
     4612.9956       0.000000        40.0000         0.0000      -999.2500       0.000000         0.0000         1.0000      -999.2500
     4613.1480       0.000000        40.0000         0.0000      -999.2500       0.000000         0.0000         1.0000      -999.2500
     4613.3004       0.000000        40.0000         0.0000      -999.2500       0.000000         0.0000         1.0000      -999.2500
     4613.4528       0.000000        40.0000         0.0000      -999.2500       0.000000         0.0000         1.0000      -999.2500
     4613.6052       0.000000        40.0000         0.0000      -999.2500       0.000000         0.0000         1.0000      -999.2500
     4613.7576       0.000000        40.0000         0.0000      -999.2500       0.000000         0.0000         1.0000      -999.2500
     4613.9100       0.000000        40.0000         0.0000      -999.2500       0.000000         0.0000         1.0000      -999.2500
     4614.0624       0.000000        40.0000         0.0000      -999.2500       0.000000         0.0000         1.0000      -999.2500
     4614.2148       0.000000        40.0000         0.0000      -999.2500       0.000000         0.0000         1.0000      -999.2500
     4614.3672       0.000000        40.0000         0.0000      -999.2500       0.000000         0.0000         1.0000      -999.2500
     4614.5196       0.000000        40.0000         0.0000      -999.2500       0.000000         0.0000         1.0000      -999.2500
     4614.6720       0.000000        40.0000         0.0000      -999.2500       0.000000         0.0000         1.0000      -999.2500
     4614.8244       0.000000        40.0000         0.0000      -999.2500       0.000000         0.0000         1.0000      -999.2500
     4614.9768       0.000000        40.0000         0.0000      -999.2500       0.000000         0.0000         1.0000      -999.2500
     4615.1292       0.000000        40.0000         0.0000      -999.2500       0.000000         0.0000         1.0000      -999.2500
     4615.2816       0.000000        40.0000         0.0000      -999.2500       0.000000         0.0000         1.0000      -999.2500
     4615.4340       0.000000        40.0000         0.0000      -999.2500       0.000000         0.0000         1.0000      -999.2500
     4615.5864       0.000000        40.0000         0.0000      -999.2500       0.000000         0.0000         1.0000      -999.2500
     4615.7388       0.000000        40.0000         0.0000      -999.2500       0.000000         0.0000         1.0000      -999.2500
     4615.8912       0.000000        40.0000         0.0000      -999.2500       0.000000         0.0000         1.0000      -999.2500
     4616.0436       0.000000        40.0000         0.0000      -999.2500       0.000000         0.0000         1.0000      -999.2500
     4616.1960       0.000000        40.0000         0.0000      -999.2500       0.000000         0.0000         1.0000      -999.2500
     4616.3484       0.000000        40.0000         0.0000      -999.2500       0.000000         0.0000         1.0000      -999.2500
     4616.5000       0.000000        40.0000         0.0000      -999.2500       0.000000         0.0000         1.0000      -999.2500
     4616.6532       0.000000        40.0000         0.0000      -999.2500       0.000000         0.0000         1.0000      -999.2500
     4616.8056       0.000000        40.0000         0.0000      -999.2500       0.000000         0.0000         1.0000      -999.2500
     4616.9580       0.000000        40.0000         0.0000      -999.2500       0.000000         0.0000         1.0000      -999.2500
     4617.1104       0.000000        40.0000         0.0000      -999.2500       0.000000         0.0000         1.0000      -999.2500
     4617.2628       0.000000        40.0000         0.0000      -999.2500       0.000000         0.0000         1.0000      -999.2500
     4617.4152       0.000000        40.0000         0.0000      -999.2500       0.000000         0.0000         1.0000      -999.2500
     4617.5676       0.000000        40.0000         0.0000      -999.2500       0.000000         0.0000         1.0000      -999.2500
     4617.7200       0.000000        40.0000         0.0000      -999.2500       0.000000         0.0000         1.0000      -999.2500
     4617.8724       0.000000        40.0000         0.0000      -999.2500       0.000000         0.0000         1.0000      -999.2500
     4618.0248       0.000000        40.0000         0.0000      -999.2500       0.000000         0.0000         1.0000      -999.2500
     4618.1772       0.000000        40.0000         0.0000      -999.2500       0.000000         0.0000         1.0000      -999.2500
     4618.3296    -999.250000        40.0000      -999.2500      -999.2500    -999.250000      -999.2500      -999.2500      -999.2500
