~Version Information Block
VERS .                 2.00:  CWLS LOG ASCII STANDARD - VERSION 2.00
WRAP .                   NO:  One line per depth step
~Well Information Block
#MNEM.UNIT        Data Type   Information
#---------- ----------------  -----------
STRT .M           3549.7008:  START DEPTH
STOP .M           4618.3296:  STOP DEPTH
STEP .M              0.0000:  STEP
NULL .              -999.25:  NULL VALUE
COMP .                     :  COMPANY
WELL .        NO_15/9-19_SR:  WELL
FLD  .                     :  FIELD
LOC  .                     :  LOCATION
CTRY .                     :  COUNTRY
STAT .                     :  STATE
CNTY .                     :  COUNTY
SRVC .                     :  SERVICE COMPANY
DATE .                     :  DATE
API  .                     :  API NUMBER
UWI  .                     :  UNIQUE WELL ID
~Curve Information Block
#MNEM.UNIT         API CODE   Curve Description
#---------- ----------------  -----------------
DEPTH.M                    :  
BWV  .                     :  0
DT   .                     :  
KLOGH.MD                   :  KLOGH
KLOGV.MD                   :  Vertical PERMEABILITY calculated from logs
PHIF .V/V                  :  0
SAND_FLAG.UNITLESS                 :  SAND_FLAG
SW   .V/V                  :  SW
VSH  .V/V                  :  VSHGR
~Parameter Information Block
#MNEM.UNIT            Value   Description
#---------- ----------------  -----------
PROJECT.     SLEIPNER_OST@st-vlinapp01:  
SET  .             STAT_CPI:  
~Other Information Block
# 
~A       DEPTH            BWV             DT          KLOGH          KLOGV           PHIF      SAND_FLAG             SW            VSH 
# ...
     4336.0848       0.037900        80.5846       202.7726       159.4738       0.240571         1.0000         0.1580         0.1797
     4336.2372       0.040417        80.7208       255.2375       203.6027       0.250374         1.0000         0.1610         0.1773
     4336.3896       0.040622        82.1371       377.2197       308.2399       0.269006         1.0000         0.1506         0.1751
     4336.5420       0.040651        83.3394       366.8622       299.2625       0.269735         1.0000         0.1499         0.1770
     4336.6944       0.036290        85.7898       318.7913       257.8081       0.268403         1.0000         0.1353         0.1826
     4336.8468       0.036406        86.6059       315.1360       254.6709       0.267262         1.0000         0.1354         0.1822
     4336.9992       0.036301        86.9555       388.2036       317.7769       0.264406         1.0000         0.1374         0.1696
     4337.1516       0.036226        86.6654       468.5838       388.0493       0.262409         1.0000         0.1381         0.1587
     4337.3040       0.035549        86.1447       673.1743       570.0645       0.256554         1.0000         0.1376         0.1360
     4337.4564       0.034807        86.6324       742.5865       632.6598       0.246408         1.0000         0.1404         0.1223
     4337.6088       0.034500        87.2512       678.8762       575.1920       0.238440         1.0000         0.1440         0.1195
     4337.7612       0.033191        88.3146       425.0966       349.9293       0.213952         1.0000         0.1547         0.1203
     4337.9136       0.032655        88.0553        25.4210        17.5911       0.197190         1.0000         0.1658         0.1217
     4338.0660       0.030831        84.1711         4.4180         2.7447       0.158856         1.0000         0.1962         0.1193
     4338.2184       0.030760        80.3860         2.7930         1.6868       0.157502         1.0000         0.2033         0.1155
     4338.3708       0.028607        70.5978         1.2650         0.7276       0.130303         1.0000         0.2303         0.1111
     4338.5232       0.027216        65.6265         0.5770         0.3162       0.109883         1.0000         0.2625         0.1135
     4338.6756       0.026562        57.8132         0.5680         0.3110       0.100406         1.0000         0.2859         0.1261
     4338.8280       0.026999        55.3762         0.5590         0.3057       0.099582         1.0000         0.2934         0.1348
     4338.9804       0.028517        53.5943         7.9860         5.1456       0.098627         1.0000         0.3071         0.1600
     4339.1328       0.028446        54.0823         2.9110         1.7625       0.097704         1.0000         0.3041         0.1809
     4339.2852       0.032389        56.7924         1.0610         0.6037       0.094985         1.0000         0.3578         0.2450
     4339.4376       0.057007        58.4808         0.8950         0.5039       0.092939         0.0000         0.6553         0.2835
     4339.5900       0.056263        61.3902         0.7540         0.4201       0.088388         0.0000         0.6980         0.3571
     4339.7424       0.076013        62.3308         0.6360         0.3506       0.087973         0.0000         0.9579         0.3899
     4339.8948       0.106776        63.0650         0.5370         0.2930       0.160430         0.0000         0.7039         0.6008
     4340.0472       0.112932        62.9871         0.5050         0.2745       0.173580         0.0000         0.6575         0.5828
     4340.1996       0.114123        62.6035         0.4760         0.2578       0.175767         0.0000         0.7059         0.6400
     4340.3520       0.124065        62.8077         0.3120         0.1646       0.170723         0.0000         0.8041         0.6605
     4340.5044       0.137272        65.5254         0.1150         0.0571       0.159130         0.0000         0.8572         0.6933
     4340.6568       0.136399        71.7219         0.0420         0.0196       0.153520         0.0000         0.8867         0.7155
     4340.8092       0.136131        75.2134         0.0160         0.0070       0.144934         0.0000         0.9030         0.7212
     4340.9616       0.130880        79.9927         0.0110         0.0047       0.141691         0.0000         0.9223         0.7297
     4341.1140       0.130681        80.7161         0.0550         0.0261       0.136716         0.0000         0.9514         0.7362
     4341.2664       0.130070        79.7892         0.0530         0.0251       0.135372         0.0000         0.9280         0.7473
     4341.4188       0.125621        78.9910         0.0530         0.0251       0.135230         0.0000         0.9146         0.7428
     4341.5712       0.123684        78.1401         0.0540         0.0256       0.135575         0.0000         0.9117         0.7031
     4341.7236       0.123605        78.1859         0.0530         0.0251       0.135121         0.0000         0.8897         0.6741
     4341.8750       0.120216        79.0329         0.0520         0.0246       0.134653         0.0000         0.8744         0.6258
     4342.0284       0.117744        79.6732         0.0530         0.0251       0.135485         0.0000         0.8704         0.6132
     4342.1808       0.117926        80.7456         0.0560         0.0266       0.137094         0.0000         0.8528         0.6054
     4342.3332       0.116908        80.9567         0.0630         0.0301       0.141623         0.0000         0.8332         0.6046
     4342.4856       0.118003        80.5076         0.0680         0.0327       0.144079         0.0000         0.8202         0.6081
     4342.6380       0.118172        79.9158         0.0780         0.0378       0.149282         0.0000         0.8163         0.6146
     4342.7904       0.121860        78.5538         0.0850         0.0414       0.152274         0.0000         0.8245         0.6415
     4342.9428       0.125549        78.0906         0.1050         0.0518       0.159658         0.0000         0.7911         0.6556
     4343.0952       0.126299        78.3476         0.1190         0.0592       0.164124         0.0000         0.7915         0.6682
     4343.2476       0.129909        79.2198         0.1530         0.0773       0.173180         0.0000         0.7641         0.6678
     4343.4000       0.132319        82.1322         0.1740         0.0886       0.177875         0.0000         0.7542         0.6677
     4343.5524       0.134155        85.3128         0.1690         0.0859       0.176828         0.0000         0.7592         0.6791
     4343.7048       0.134256        86.4705         0.1300         0.0650       0.167321         0.0000         0.7985         0.6893
     4343.8572       0.133599        87.3508         0.1070         0.0529       0.160348         0.0000         0.8263         0.7191
     4344.0096       0.132504        87.1802         0.0760         0.0368       0.148268         0.0000         0.8832         0.7417
     4344.1620       0.130955        86.3171         0.0670         0.0322       0.143595         0.0000         0.9087         0.7851
     4344.3144       0.130490        85.8306         0.0510         0.0241       0.133825         0.0000         0.9587         0.7900
     4344.4668       0.128297        84.6056         0.0450         0.0211       0.128922         0.0000         0.9489         0.7347
     4344.6192       0.122328        83.6393         0.0370         0.0171       0.121861         0.0000         0.9900         0.6767
     4344.7716       0.120639        80.8337         0.0350         0.0161       0.119993         0.0000         0.9661         0.5434
     4344.9240       0.115920        79.2251         0.0330         0.0152       0.118604         0.0000         0.9749         0.4869
     4345.0764       0.115628        76.4976         0.0330         0.0152       0.118626         0.0000         0.9770         0.4158
