~Version Information Block
VERS .                 2.00:  CWLS LOG ASCII STANDARD - VERSION 2.00
WRAP .                   NO:  One line per depth step
~Well Information Block
#MNEM.UNIT        Data Type   Information
#---------- ----------------  -----------
STRT .M           3549.7008:  START DEPTH
STOP .M           4618.3296:  STOP DEPTH
STEP .M              0.0000:  STEP
NULL .              -999.25:  NULL VALUE
COMP .                     :  COMPANY
WELL .        NO_15/9-19_SR:  WELL
FLD  .                     :  FIELD
LOC  .                     :  LOCATION
CTRY .                     :  COUNTRY
STAT .                     :  STATE
CNTY .                     :  COUNTY
SRVC .                     :  SERVICE COMPANY
DATE .                     :  DATE
API  .                     :  API NUMBER
UWI  .                     :  UNIQUE WELL ID
~Curve Information Block
#MNEM.UNIT         API CODE   Curve Description
#---------- ----------------  -----------------
DEPTH.M                    :  
BWV  .                     :  0
DT   .                     :  
KLOGH.MD                   :  KLOGH
KLOGV.MD                   :  Vertical PERMEABILITY calculated from logs
PHIF .V/V                  :  0
SAND_FLAG.UNITLESS                 :  SAND_FLAG
SW   .V/V                  :  SW
VSH  .V/V                  :  VSHGR
~Parameter Information Block
#MNEM.UNIT            Value   Description
#---------- ----------------  -----------
PROJECT.     SLEIPNER_OST@st-vlinapp01:  
SET  .             STAT_CPI:  
~Other Information Block
# 
~A       DEPTH            BWV             DT          KLOGH          KLOGV           PHIF      SAND_FLAG             SW            VSH 
# ...
     4262.9328       0.000000        75.8207         0.0000      -999.2500       0.000000         0.0000         1.0000      -999.2500
     4263.0852       0.000000        74.6655         0.0000      -999.2500       0.000000         0.0000         1.0000      -999.2500
     4263.2376       0.000000        73.5025         0.0000      -999.2500       0.000000         0.0000         1.0000      -999.2500
     4263.3900       0.000000        71.3778         0.0000      -999.2500       0.000000         0.0000         1.0000      -999.2500
     4263.5424       0.000000        70.4562         0.0000      -999.2500       0.000000         0.0000         1.0000      -999.2500
     4263.6948       0.000000        68.0551         0.0000      -999.2500       0.000000         0.0000         1.0000      -999.2500
     4263.8472       0.000000        66.4121         0.0000      -999.2500       0.000000         0.0000         1.0000      -999.2500
     4263.9996       0.000000        63.1263         0.0000      -999.2500       0.000000         0.0000         1.0000      -999.2500
     4264.1520       0.000000        61.9256         0.0000      -999.2500       0.000000         0.0000         1.0000      -999.2500
     4264.3044       0.000000        60.5228         0.0000      -999.2500       0.000000         0.0000         1.0000      -999.2500
     4264.4568       0.000000        59.8958         0.0000      -999.2500       0.000000         0.0000         1.0000      -999.2500
     4264.6092       0.000000        59.8201         0.0000      -999.2500       0.000000         0.0000         1.0000      -999.2500
     4264.7616       0.000000        59.8889         0.0000      -999.2500       0.000000         0.0000         1.0000      -999.2500
     4264.9140       0.000000        59.9459         0.0000      -999.2500       0.000000         0.0000         1.0000      -999.2500
     4265.0664       0.000000        60.0668         0.0000      -999.2500       0.000000         0.0000         1.0000      -999.2500
     4265.2188       0.000000        60.1599         0.0000      -999.2500       0.000000         0.0000         1.0000      -999.2500
     4265.3712       0.000000        60.8301         0.0000      -999.2500       0.000000         0.0000         1.0000      -999.2500
     4265.5236       0.000000        61.6579         0.0000      -999.2500       0.000000         0.0000         1.0000      -999.2500
     4265.6760       0.000000        64.3544         0.0000      -999.2500       0.000000         0.0000         1.0000      -999.2500
     4265.8284       0.000000        65.8940         0.0000      -999.2500       0.000000         0.0000         1.0000      -999.2500
     4265.9808       0.000000        67.9303         0.0000      -999.2500       0.000000         0.0000         1.0000      -999.2500
     4266.1332       0.000000        68.0239         0.0000      -999.2500       0.000000         0.0000         1.0000      -999.2500
     4266.2856       0.000000        66.5799         0.0000      -999.2500       0.000000         0.0000         1.0000      -999.2500
     4266.4380       0.000000        65.4764         0.0000      -999.2500       0.000000         0.0000         1.0000      -999.2500
     4266.5904       0.000000        63.4956         0.0000      -999.2500       0.000000         0.0000         1.0000      -999.2500
     4266.7428       0.000000        62.8279         0.0000      -999.2500       0.000000         0.0000         1.0000      -999.2500
     4266.8952       0.000000        62.1978         0.0000      -999.2500       0.000000         0.0000         1.0000      -999.2500
     4267.0476       0.000000        62.1730         0.0000      -999.2500       0.000000         0.0000         1.0000      -999.2500
     4267.2000       0.000000        62.5705         0.0000      -999.2500       0.000000         0.0000         1.0000      -999.2500
     4267.3524       0.000000        62.8956         0.0000      -999.2500       0.000000         0.0000         1.0000      -999.2500
     4267.5048       0.000000        63.7099         0.0000      -999.2500       0.000000         0.0000         1.0000      -999.2500
     4267.6572       0.000000        64.8954         0.0000      -999.2500       0.000000         0.0000         1.0000      -999.2500
     4267.8096       0.000000        65.5232         0.0000      -999.2500       0.000000         0.0000         1.0000      -999.2500
     4267.9620       0.000000        66.1631         0.0000      -999.2500       0.000000         0.0000         1.0000      -999.2500
     4268.1144       0.000000        65.9483         0.0000      -999.2500       0.000000         0.0000         1.0000      -999.2500
     4268.2668       0.000000        64.5348         0.0000      -999.2500       0.000000         0.0000         1.0000      -999.2500
     4268.4192       0.000000        63.6691         0.0000      -999.2500       0.000000         0.0000         1.0000      -999.2500
     4268.5716       0.000000        62.5784         0.0000      -999.2500       0.000000         0.0000         1.0000      -999.2500
     4268.7240       0.000000        62.5420         0.0000      -999.2500       0.000000         0.0000         1.0000      -999.2500
     4268.8750       0.000000        63.4748         0.0000      -999.2500       0.000000         0.0000         1.0000      -999.2500
     4269.0288       0.000000        64.2879         0.0000      -999.2500       0.000000         0.0000         1.0000      -999.2500
     4269.1812       0.000000        65.6862         0.0000      -999.2500       0.000000         0.0000         1.0000      -999.2500
     4269.3336       0.000000        65.8288         0.0000      -999.2500       0.000000         0.0000         1.0000      -999.2500
     4269.4860       0.000000        64.6226         0.0000      -999.2500       0.000000         0.0000         1.0000      -999.2500
     4269.6384       0.000000        63.5744         0.0000      -999.2500       0.000000         0.0000         1.0000      -999.2500
     4269.7908       0.000000        62.0400         0.0000      -999.2500       0.000000         0.0000         1.0000      -999.2500
     4269.9432       0.000000        62.0070         0.0000      -999.2500       0.000000         0.0000         1.0000      -999.2500
     4270.0956       0.000000        63.5350         0.0000      -999.2500       0.000000         0.0000         1.0000      -999.2500
     4270.2480       0.000000        64.9262         0.0000      -999.2500       0.000000         0.0000         1.0000      -999.2500
     4270.4004       0.000000        68.3185         0.0000      -999.2500       0.000000         0.0000         1.0000      -999.2500
     4270.5528       0.000000        71.4249         0.0000      -999.2500       0.000000         0.0000         1.0000      -999.2500
     4270.7052       0.000000        72.5925         0.0000      -999.2500       0.000000         0.0000         1.0000      -999.2500
     4270.8576       0.000000        74.1090         0.0000      -999.2500       0.000000         0.0000         1.0000      -999.2500
     4271.0100       0.000000        74.5474         0.0000      -999.2500       0.000000         0.0000         1.0000      -999.2500
     4271.1624       0.000000        74.9734         0.0000      -999.2500       0.000000         0.0000         1.0000      -999.2500
     4271.3148       0.000000        74.9810         0.0000      -999.2500       0.000000         0.0000         1.0000      -999.2500
     4271.4672       0.000000        74.7074         0.0000      -999.2500       0.000000         0.0000         1.0000      -999.2500
     4271.6196       0.000000        74.5262         0.0000      -999.2500       0.000000         0.0000         1.0000      -999.2500
     4271.7720       0.000000        74.3692         0.0000      -999.2500       0.000000         0.0000         1.0000      -999.2500
     4271.9244       0.000000        74.4279         0.0000      -999.2500       0.000000         0.0000         1.0000      -999.2500
