#------------------------------------------------------------------------------
#
#   Created by  : [OpenWorks] Log Export Utility (LEXP)
#   Created on  : 2007-05-07 11:58:04
#   Project     : NORNE
#   User        : JSE
#   Interpreter : JSE
#
#------------------------------------------------------------------------------
~VERSION INFORMATION
VERS. 2.0 : CWLS Log ASCII Standard - version 2.0
WRAP.  NO : One line per depth step
~WELL INFORMATION
#MNEMONIC   .UNIT                                           VALUE :DESCRIPTION
#------------------------------------------------------------------------------
STRT        .M                                           461.1250 :START DEPTH
STOP        .M                                          3010.0000 :STOP DEPTH
STEP        .M                                             0.1250 :STEP
NULL        .                                           -999.2500 :NULL VALUE
COMP        .                                             STATOIL :COMPANY
WELL        .                                       6608/10-E-3 H :WELL
FLD         .                                               NORNE :FIELD
LOC         .                                             UNKNOWN :LOCATION
CNTY        .                                             UNKNOWN :COUNTY
STAT        .                                             UNKNOWN :STATE
CTRY        .                                              Norway :COUNTRY
SRVC        .                                             UNKNOWN :SERVICE COMPANY
DATE        .                                             UNKNOWN :LOG DATE
UWI         .                                    NO 6608/10-E-3 H :UNIQUE WELL ID
XCOORD      .                                       459189.815835 :SURFACE X
YCOORD      .                                      7325451.234448 :SURFACE Y
LAT         .                                           66.045417 :LATITUDE
LON         .                                            8.099250 :LONGITUDE
ELEV        .M                                            22.0000 :SURFACE ELEV
ELEV_TYPE   .                                                  KB :ELEV TYPE
~CURVE INFORMATION
#MNEMONIC.UNIT        API CODE       : CURVE DESCRIPTION
#------------------------------------------------------------------------------
DEPTH    .M                          : Measured Depth
TVD      .M                          : True Vertical Depth (TVD)
TVDSS    .M                          : True Vertical Depth (TVDSS)
DT       .us/ft       UNKNOWN        : DT:DT:rC:NONE:v1 
DTS      .us/ft       UNKNOWN        : DTS:DTS:rC:NONE:v1 
GR       .API         UNKNOWN        : GR:GR:rC:NONE:v1 
KLOGH    .mD          UNKNOWN        : KLOGH:UNKNOWN:rC::v0 (auto-composite)
NPHI     .v/v_decimal UNKNOWN        : NPHI:NPHI:rC:NONE:v1 
PHIF     .v/v_decimal UNKNOWN        : PHIF:UNKNOWN:rC::v0 (auto-composite)
RHOB     .g/cm3       UNKNOWN        : RHOB:RHOB:rC:NONE:v1 
SW       .v/v_decimal UNKNOWN        : SW:UNKNOWN:rC::v0 (auto-composite)
VSH      .v/v_decimal UNKNOWN        : VSH:UNKNOWN:rC::v0 (auto-composite)
~A     DEPTH         TVD       TVDSS           DT          DTS           GR        KLOGH         NPHI         PHIF         RHOB           SW          VSH
# ...
   2781.6250   2691.4338  -2669.4338      93.0222     156.1339      75.0061     178.1392       0.2578       0.2675       2.2266       0.3327       0.1943
   2781.7500   2691.5537  -2669.5537      93.0919     156.1708      72.8541     143.1580       0.2588       0.2615       2.2364       0.3507       0.1676
   2781.8750   2691.6733  -2669.6733      93.1076     156.1444      72.1124      55.9339       0.2504       0.2360       2.2787       0.3918       0.1584
   2782.0000   2691.7932  -2669.7932      93.1323     156.0269      75.7905      34.9676       0.2537       0.2232       2.2999       0.4148       0.2040
   2782.1250   2691.9131  -2669.9131      93.1421     155.7955      77.8008      31.9720       0.2675       0.2208       2.3039       0.4168       0.2289
   2782.2500   2692.0327  -2670.0327      93.1685     155.4424      75.1951      35.0201       0.2857       0.2233       2.2998       0.4078       0.1967
   2782.3750   2692.1526  -2670.1526      93.2794     154.9761      69.7410      39.1016       0.2987       0.2263       2.2949       0.3994       0.1290
   2782.5000   2692.2725  -2670.2725      93.2860     154.4346      71.3671      57.0168       0.2847       0.2365       2.2777       0.3851       0.1492
   2782.6250   2692.3923  -2670.3923      93.2509     153.8889      74.0210      28.9939       0.2504       0.2182       2.3083       0.4190       0.1821
   2782.7500   2692.5122  -2670.5122      93.2612     153.3666      74.5563      18.6718       0.2429       0.2062       2.3281       0.4436       0.1887
   2782.8750   2692.6318  -2670.6318      93.3445     152.8954      73.1453      17.9237       0.2568       0.2051       2.3300       0.4414       0.1712
   2783.0000   2692.7517  -2670.7517      93.4542     152.5114      70.6814      19.3748       0.2703       0.2072       2.3265       0.4243       0.1407
   2783.1250   2692.8716  -2670.8716      93.4181     152.2734      67.2735      14.4762       0.2629       0.1993       2.3396       0.4208       0.0984
   2783.2500   2692.9912  -2670.9912      93.8756     152.2970      64.4628      16.2380       0.2488       0.2024       2.3344       0.4026       0.0636
   2783.3750   2693.1111  -2671.1111      94.3085     152.5068      65.7219      25.2080       0.2558       0.2144       2.3139       0.3774       0.0792
   2783.5000   2693.2310  -2671.2310      94.4963     152.8214      68.8734      36.9891       0.2653       0.2248       2.2963       0.3645       0.1183
   2783.6250   2693.3508  -2671.3508      94.5013     153.1570      72.5653      40.6605       0.2700       0.2273       2.2931       0.3713       0.1640
   2783.7500   2693.4707  -2671.4707      94.5400     153.4397      75.8336      32.0730       0.2740       0.2209       2.3038       0.3956       0.2045
   2783.8750   2693.5903  -2671.5903      94.4424     153.6219      73.5632      42.9245       0.2823       0.2288       2.2907       0.3973       0.1764
   2784.0000   2693.7102  -2671.7102      93.9830     153.7417      69.7563      47.4587       0.2656       0.2315       2.2861       0.4074       0.1292
   2784.1250   2693.8301  -2671.8301      93.7149     153.8181      73.4916      59.6037       0.2511       0.2377       2.2759       0.4113       0.1755
   2784.2500   2693.9497  -2671.9497      93.6058     153.8489      80.2807      89.3473       0.2398       0.2487       2.2576       0.4048       0.2596
   2784.3750   2694.0696  -2672.0696      93.4771     153.8349      84.1977     126.9147       0.2302       0.2583       2.2418       0.3938       0.3082
   2784.5000   2694.1895  -2672.1895      93.1320     153.7880      82.6450      94.7443       0.2255       0.2503       2.2550       0.3957       0.2890
   2784.6250   2694.3093  -2672.3093      93.2039     153.7847      75.4331     194.1688       0.2240       0.2698       2.2150       0.3094       0.1996
   2784.7500   2694.4292  -2672.4292      93.8157     153.8714      67.7585     533.1215       0.2294       0.2972       2.1588       0.2125       0.1045
   2784.8750   2694.5488  -2672.5488      94.4551     154.0478      63.4035    1142.5686       0.2326       0.3179       2.1173       0.1530       0.0505
   2785.0000   2694.6687  -2672.6687      94.9207     154.2925      61.6081    2000.0000       0.2280       0.3202       2.0989       0.1229       0.0282
   2785.1250   2694.7886  -2672.7886      95.2727     154.5691      59.4083    2000.0000       0.2182       0.3228       2.0958       0.1044       0.0010
   2785.2500   2694.9082  -2672.9082      95.8495     154.8218      56.5406    2000.0000       0.2304       0.3238       2.0942       0.0957       0.0010
   2785.3750   2695.0281  -2673.0281      96.2646     155.0191      56.3015    2000.0000       0.2446       0.3190       2.1066       0.0989       0.0010
   2785.5000   2695.1479  -2673.1479      96.7260     155.1671      56.8253    2000.0000       0.2391       0.3147       2.1199       0.1072       0.0010
   2785.6250   2695.2678  -2673.2678      96.8269     155.2738      58.3402    2000.0000       0.2352       0.3138       2.1274       0.1159       0.0010
   2785.7500   2695.3877  -2673.3877      96.4884     155.3469      59.9502    2000.0000       0.2471       0.3154       2.1286       0.1195       0.0076
   2785.8750   2695.5073  -2673.5073      96.2054     155.3914      59.0827    2000.0000       0.2680       0.3168       2.1311       0.1222       0.0010
   2786.0000   2695.6272  -2673.6272      95.9248     155.4061      59.1967    2000.0000       0.2629       0.3153       2.1335       0.1247       0.0010
   2786.1250   2695.7471  -2673.7471      95.7935     155.3998      59.7901    2000.0000       0.2655       0.3078       2.1459       0.1291       0.0057
   2786.2500   2695.8667  -2673.8667      95.4320     155.3710      61.2152    1642.2664       0.2713       0.3026       2.1544       0.1329       0.0233
   2786.3750   2695.9866  -2673.9866      95.0619     155.3177      60.8416    1498.5446       0.2732       0.3010       2.1570       0.1363       0.0187
   2786.5000   2696.1064  -2674.1064      94.9404     155.2362      56.3322    1537.2928       0.2653       0.3014       2.1563       0.1410       0.0010
   2786.6250   2696.2263  -2674.2263      94.4308     155.1148      50.8651    1828.3535       0.2499       0.3044       2.1514       0.1479       0.0010
   2786.7500   2696.3462  -2674.3462      94.3955     154.9408      54.0553    2000.0000       0.2366       0.3084       2.1449       0.1541       0.0010
   2786.8750   2696.4658  -2674.4658      94.2136     154.7374      58.1561    2000.0000       0.2404       0.3141       2.1354       0.1557       0.0010
   2787.0000   2696.5857  -2674.5857      94.0944     154.5383      58.8217    2000.0000       0.2441       0.3236       2.1187       0.1497       0.0010
   2787.1250   2696.7056  -2674.7056      94.1006     154.3735      56.2106    2000.0000       0.2514       0.3325       2.0993       0.1371       0.0010
   2787.2500   2696.8252  -2674.8252      94.0591     154.2619      54.8145    2000.0000       0.2872       0.3377       2.0902       0.1227       0.0010
   2787.3750   2696.9451  -2674.9451      94.1001     154.1806      56.0658    2000.0000       0.3048       0.3366       2.0943       0.1115       0.0010
   2787.5000   2697.0649  -2675.0649      94.0934     154.0900      56.8297    2000.0000       0.2745       0.3328       2.1011       0.1064       0.0010
   2787.6250   2697.1848  -2675.1848      94.0765     153.9858      57.0533    2000.0000       0.2390       0.3297       2.1075       0.1049       0.0010
   2787.7500   2697.3047  -2675.3047      94.0969     153.8764      55.7943    2000.0000       0.2187       0.3298       2.1097       0.1053       0.0010
   2787.8750   2697.4243  -2675.4243      94.1724     153.7760      53.1450    2000.0000       0.2196       0.3276       2.1134       0.1087       0.0010
   2788.0000   2697.5442  -2675.5442      94.2323     153.7014      52.7421    1893.0250       0.2293       0.3050       2.1503       0.1230       0.0010
