#------------------------------------------------------------------------------
#
#   Created by  : [OpenWorks] Log Export Utility (LEXP)
#   Created on  : 2007-05-07 11:58:04
#   Project     : NORNE
#   User        : JSE
#   Interpreter : JSE
#
#------------------------------------------------------------------------------
~VERSION INFORMATION
VERS. 2.0 : CWLS Log ASCII Standard - version 2.0
WRAP.  NO : One line per depth step
~WELL INFORMATION
#MNEMONIC   .UNIT                                           VALUE :DESCRIPTION
#------------------------------------------------------------------------------
STRT        .M                                           461.1250 :START DEPTH
STOP        .M                                          3010.0000 :STOP DEPTH
STEP        .M                                             0.1250 :STEP
NULL        .                                           -999.2500 :NULL VALUE
COMP        .                                             STATOIL :COMPANY
WELL        .                                       6608/10-E-3 H :WELL
FLD         .                                               NORNE :FIELD
LOC         .                                             UNKNOWN :LOCATION
CNTY        .                                             UNKNOWN :COUNTY
STAT        .                                             UNKNOWN :STATE
CTRY        .                                              Norway :COUNTRY
SRVC        .                                             UNKNOWN :SERVICE COMPANY
DATE        .                                             UNKNOWN :LOG DATE
UWI         .                                    NO 6608/10-E-3 H :UNIQUE WELL ID
XCOORD      .                                       459189.815835 :SURFACE X
YCOORD      .                                      7325451.234448 :SURFACE Y
LAT         .                                           66.045417 :LATITUDE
LON         .                                            8.099250 :LONGITUDE
ELEV        .M                                            22.0000 :SURFACE ELEV
ELEV_TYPE   .                                                  KB :ELEV TYPE
~CURVE INFORMATION
#MNEMONIC.UNIT        API CODE       : CURVE DESCRIPTION
#------------------------------------------------------------------------------
DEPTH    .M                          : Measured Depth
TVD      .M                          : True Vertical Depth (TVD)
TVDSS    .M                          : True Vertical Depth (TVDSS)
DT       .us/ft       UNKNOWN        : DT:DT:rC:NONE:v1 
DTS      .us/ft       UNKNOWN        : DTS:DTS:rC:NONE:v1 
GR       .API         UNKNOWN        : GR:GR:rC:NONE:v1 
KLOGH    .mD          UNKNOWN        : KLOGH:UNKNOWN:rC::v0 (auto-composite)
NPHI     .v/v_decimal UNKNOWN        : NPHI:NPHI:rC:NONE:v1 
PHIF     .v/v_decimal UNKNOWN        : PHIF:UNKNOWN:rC::v0 (auto-composite)
RHOB     .g/cm3       UNKNOWN        : RHOB:RHOB:rC:NONE:v1 
SW       .v/v_decimal UNKNOWN        : SW:UNKNOWN:rC::v0 (auto-composite)
VSH      .v/v_decimal UNKNOWN        : VSH:UNKNOWN:rC::v0 (auto-composite)
~A     DEPTH         TVD       TVDSS           DT          DTS           GR        KLOGH         NPHI         PHIF         RHOB           SW          VSH
# ...
   2963.6250   2864.3508  -2842.3508      89.5130     153.3373      93.9366       0.0490       0.2499       0.1724       2.3942       1.0000       0.4290
   2963.7500   2864.4688  -2842.4688      89.2090     152.8080      95.9353       0.0317       0.2418       0.1627       2.4097       1.0000       0.4538
   2963.8750   2864.5869  -2842.5869      89.2090     152.4290      98.9870       0.0225       0.2388       0.1550       2.4220       1.0000       0.4916
   2964.0000   2864.7048  -2842.7048      89.1820     152.2177      99.8231       0.0289       0.2394       0.1607       2.4130       1.0000       0.5019
   2964.1250   2864.8230  -2842.8230      88.9896     152.1059      98.5719       0.0407       0.2472       0.1683       2.4008       1.0000       0.4864
   2964.2500   2864.9412  -2842.9412      88.8895     152.0832      96.1943       0.0581       0.2542       0.1762       2.3881       0.9926       0.4570
   2964.3750   2865.0591  -2843.0591      88.9869     152.1349      94.2814       0.0590       0.2514       0.1766       2.3876       0.9834       0.4332
   2964.5000   2865.1772  -2843.1772      89.2215     152.2423      94.7092       0.0320       0.2359       0.1629       2.4094       1.0000       0.4386
   2964.6250   2865.2954  -2843.2954      89.2174     152.3851      99.6659       0.0184       0.2386       0.1506       2.4291       1.0000       0.5000
   2964.7500   2865.4133  -2843.4133      89.4853     152.5476     101.5197       0.0319       0.2523       0.1628       2.4095       1.0000       0.5230
   2964.8750   2865.5315  -2843.5315      89.5755     152.7309     103.8268       0.0261       0.2555       0.1584       2.4166       1.0000       0.5515
   2965.0000   2865.6497  -2843.6497      89.5857     152.9464     105.4744       0.0141       0.2558       0.1446       2.4387       1.0000       0.5720
   2965.1250   2865.7676  -2843.7676      89.6795     153.1977     105.2988       0.0100       0.2592       0.1370       2.4508       1.0000       0.5698
   2965.2500   2865.8857  -2843.8857      89.9662     153.4739     103.1715       0.0180       0.2628       0.1501       2.4299       1.0000       0.5434
   2965.3750   2866.0037  -2844.0037      90.0155     153.7069     102.5987       0.0202       0.2613       0.1526       2.4258       1.0000       0.5363
   2965.5000   2866.1218  -2844.1218      90.0409     153.8432     102.8269       0.0258       0.2809       0.1581       2.4171       1.0000       0.5392
   2965.6250   2866.2400  -2844.2400      89.8875     153.8818     101.0876       0.0313       0.2875       0.1624       2.4101       0.9802       0.5176
   2965.7500   2866.3579  -2844.3579      89.5949     153.8257      98.1743       0.0284       0.2752       0.1602       2.4137       0.9891       0.4815
   2965.8750   2866.4761  -2844.4761      89.2700     153.6764      96.6481       0.0187       0.2552       0.1509       2.4285       1.0000       0.4626
   2966.0000   2866.5942  -2844.5942      88.9262     153.4098      99.7209       0.0205       0.2507       0.1530       2.4252       1.0000       0.5007
   2966.1250   2866.7122  -2844.7122      88.8411     152.9912      99.6097       0.0340       0.2449       0.1643       2.4052       0.9441       0.4993
   2966.2500   2866.8303  -2844.8303      88.7563     152.4902      97.7474       0.0477       0.2483       0.1718       2.3914       0.9194       0.4762
   2966.3750   2866.9485  -2844.9485      88.7034     151.9927      94.8274       0.0746       0.2505       0.1818       2.3767       0.9194       0.4400
   2966.5000   2867.0664  -2845.0664      88.7754     151.5826      90.5026       0.1259       0.2485       0.1934       2.3605       0.9429       0.3864
   2966.6250   2867.1846  -2845.1846      89.0743     151.3269      83.6970       0.1671       0.2494       0.1997       2.3504       1.0000       0.3020
   2966.7500   2867.3025  -2845.3025      89.4217     151.2688      77.8000       0.3826       0.2470       0.2182       2.3209       1.0000       0.2290
   2966.8750   2867.4207  -2845.4207      89.6261     151.3266      73.2120       0.3766       0.2548       0.2178       2.3215       1.0000       0.1721
   2967.0000   2867.5388  -2845.5388      89.8953     151.4773      73.1941       0.3177       0.2548       0.2141       2.3275       1.0000       0.1718
   2967.1250   2867.6567  -2845.6567      90.0377     151.7167      76.6304       0.4110       0.2565       0.2198       2.3184       1.0000       0.2145
   2967.2500   2867.7749  -2845.7749      89.9646     152.0417      80.2365       0.8783       0.2668       0.2367       2.2913       1.0000       0.2591
   2967.3750   2867.8931  -2845.8931      90.2181     152.4437      79.1756       0.9854       0.2616       0.2393       2.2872       1.0000       0.2460
   2967.5000   2868.0110  -2846.0110      90.2384     152.8608      83.1167       0.5968       0.2596       0.2281       2.3051       1.0000       0.2948
   2967.6250   2868.1292  -2846.1292      90.2495     153.2108      83.1262       0.6368       0.2792       0.2296       2.3027       1.0000       0.2950
   2967.7500   2868.2473  -2846.2473      90.2529     153.4644      80.4503       0.9344       0.2969       0.2381       2.2891       1.0000       0.2618
   2967.8750   2868.3652  -2846.3652      90.2488     153.6058      78.9832       1.3290       0.2999       0.2459       2.2765       1.0000       0.2436
   2968.0000   2868.4834  -2846.4834      90.2474     153.6299      82.8279       1.3890       0.2900       0.2469       2.2749       1.0000       0.2913
   2968.1250   2868.6013  -2846.6013      90.2777     153.5160      84.6617       1.4213       0.2879       0.2474       2.2741       1.0000       0.3140
   2968.2500   2868.7195  -2846.7195      90.2742     153.3040      83.6621       1.1021       0.2931       0.2418       2.2832       1.0000       0.3016
   2968.3750   2868.8376  -2846.8376      90.2689     153.0449      82.6833       1.1142       0.3075       0.2420       2.2828       1.0000       0.2895
   2968.5000   2868.9556  -2846.9556      90.2711     152.8172      82.1910       1.0710       0.3255       0.2411       2.2842       1.0000       0.2834
   2968.6250   2869.0737  -2847.0737      90.2782     152.7424      81.8978       0.7237       0.3367       0.2324       2.2982       1.0000       0.2797
   2968.7500   2869.1919  -2847.1919      90.2741     153.0054      81.1970       0.4072       0.3249       0.2196       2.3190       1.0000       0.2712
   2968.8750   2869.3098  -2847.3098      90.4255     153.9999      86.6223       0.3603       0.3555       0.2169       2.3230       1.0000       0.3382
   2969.0000   2869.4280  -2847.4280      90.6801     155.6811      91.4972       0.3253       0.3594       0.2146       2.3259       1.0000       0.3987
   2969.1250   2869.5461  -2847.5461      91.0796     157.9194      95.9113       1.0456       0.3554       0.2406       2.2684       0.9261       0.4535
   2969.2500   2869.6641  -2847.6641      91.5583     160.4847      99.5367       4.4140       0.3536       0.2727       2.1995       0.7595       0.4984
   2969.3750   2869.7822  -2847.7822      91.9742     163.0737     101.8716       2.4489       0.3536       0.2596       2.2183       0.7022       0.5273
   2969.5000   2869.9001  -2847.9001      92.1438     165.2495     103.2082       0.2942       0.3381       0.2123       2.3053       0.7365       0.5439
   2969.6250   2870.0183  -2848.0183      92.4344     166.6456     108.3263       0.1835       0.3574       0.2018       2.3281       0.7277       0.6074
   2969.7500   2870.1365  -2848.1365      92.5941     167.2256     108.5371       0.1636       0.3750       0.1993       2.3423       0.7423       0.6099
   2969.8750   2870.2544  -2848.2544      92.5259     166.9745     102.9117       0.2639       0.3889       0.2099       2.3342       0.7536       0.5402
   2970.0000   2870.3726  -2848.3726      92.3461     165.9492      93.3818       0.7522       0.4008       0.2333       2.2968       0.7654       0.4221
