#------------------------------------------------------------------------------
#
#   Created by  : [OpenWorks] Log Export Utility (LEXP)
#   Created on  : 2007-05-07 11:58:04
#   Project     : NORNE
#   User        : JSE
#   Interpreter : JSE
#
#------------------------------------------------------------------------------
~VERSION INFORMATION
VERS. 2.0 : CWLS Log ASCII Standard - version 2.0
WRAP.  NO : One line per depth step
~WELL INFORMATION
#MNEMONIC   .UNIT                                           VALUE :DESCRIPTION
#------------------------------------------------------------------------------
STRT        .M                                           461.1250 :START DEPTH
STOP        .M                                          3010.0000 :STOP DEPTH
STEP        .M                                             0.1250 :STEP
NULL        .                                           -999.2500 :NULL VALUE
COMP        .                                             STATOIL :COMPANY
WELL        .                                       6608/10-E-3 H :WELL
FLD         .                                               NORNE :FIELD
LOC         .                                             UNKNOWN :LOCATION
CNTY        .                                             UNKNOWN :COUNTY
STAT        .                                             UNKNOWN :STATE
CTRY        .                                              Norway :COUNTRY
SRVC        .                                             UNKNOWN :SERVICE COMPANY
DATE        .                                             UNKNOWN :LOG DATE
UWI         .                                    NO 6608/10-E-3 H :UNIQUE WELL ID
XCOORD      .                                       459189.815835 :SURFACE X
YCOORD      .                                      7325451.234448 :SURFACE Y
LAT         .                                           66.045417 :LATITUDE
LON         .                                            8.099250 :LONGITUDE
ELEV        .M                                            22.0000 :SURFACE ELEV
ELEV_TYPE   .                                                  KB :ELEV TYPE
~CURVE INFORMATION
#MNEMONIC.UNIT        API CODE       : CURVE DESCRIPTION
#------------------------------------------------------------------------------
DEPTH    .M                          : Measured Depth
TVD      .M                          : True Vertical Depth (TVD)
TVDSS    .M                          : True Vertical Depth (TVDSS)
DT       .us/ft       UNKNOWN        : DT:DT:rC:NONE:v1 
DTS      .us/ft       UNKNOWN        : DTS:DTS:rC:NONE:v1 
GR       .API         UNKNOWN        : GR:GR:rC:NONE:v1 
KLOGH    .mD          UNKNOWN        : KLOGH:UNKNOWN:rC::v0 (auto-composite)
NPHI     .v/v_decimal UNKNOWN        : NPHI:NPHI:rC:NONE:v1 
PHIF     .v/v_decimal UNKNOWN        : PHIF:UNKNOWN:rC::v0 (auto-composite)
RHOB     .g/cm3       UNKNOWN        : RHOB:RHOB:rC:NONE:v1 
SW       .v/v_decimal UNKNOWN        : SW:UNKNOWN:rC::v0 (auto-composite)
VSH      .v/v_decimal UNKNOWN        : VSH:UNKNOWN:rC::v0 (auto-composite)
~A     DEPTH         TVD       TVDSS           DT          DTS           GR        KLOGH         NPHI         PHIF         RHOB           SW          VSH
# ...
   2554.1250   2472.7354  -2450.7354     109.2672     184.7066     113.9576    -999.2500       0.3699    -999.2500       2.3881    -999.2500    -999.2500
   2554.2500   2472.8555  -2450.8555     109.6289     184.5838     102.1623    -999.2500       0.3698    -999.2500       2.4059    -999.2500    -999.2500
   2554.3750   2472.9756  -2450.9756     109.8290     184.4510     104.8710    -999.2500       0.3750    -999.2500       2.4200    -999.2500    -999.2500
   2554.5000   2473.0955  -2451.0955     109.8290     184.6367     105.2602    -999.2500       0.3740    -999.2500       2.4200    -999.2500    -999.2500
   2554.6250   2473.2156  -2451.2156     109.7124     185.2341     109.5556    -999.2500       0.3588    -999.2500       2.4244    -999.2500    -999.2500
   2554.7500   2473.3357  -2451.3357     109.5161     186.1994     111.5612    -999.2500       0.3671    -999.2500       2.4261    -999.2500    -999.2500
   2554.8750   2473.4558  -2451.4558     109.2787     187.3366     110.8992    -999.2500       0.3904    -999.2500       2.4209    -999.2500    -999.2500
   2555.0000   2473.5759  -2451.5759     109.0278     188.3277     110.0494    -999.2500       0.3978    -999.2500       2.4097    -999.2500    -999.2500
   2555.1250   2473.6960  -2451.6960     108.7381     188.6305     105.2478    -999.2500       0.4035    -999.2500       2.4073    -999.2500    -999.2500
   2555.2500   2473.8162  -2451.8162     108.3364     188.0105     102.8930    -999.2500       0.4138    -999.2500       2.4077    -999.2500    -999.2500
   2555.3750   2473.9360  -2451.9360     107.8361     186.8750     102.2348    -999.2500       0.4055    -999.2500       2.4146    -999.2500    -999.2500
   2555.5000   2474.0562  -2452.0562     107.2920     185.5956     103.1068    -999.2500       0.3940    -999.2500       2.4327    -999.2500    -999.2500
   2555.6250   2474.1763  -2452.1763     106.7818     184.6640     104.6852    -999.2500       0.3885    -999.2500       2.4464    -999.2500    -999.2500
   2555.7500   2474.2964  -2452.2964     106.3990    -999.2500     105.2320    -999.2500       0.3784    -999.2500       2.4150    -999.2500    -999.2500
   2555.8750   2474.4165  -2452.4165     106.3115    -999.2500     107.3262    -999.2500       0.3674    -999.2500       2.4017    -999.2500    -999.2500
   2556.0000   2474.5366  -2452.5366     106.5075    -999.2500     109.9766    -999.2500       0.3484    -999.2500       2.4088    -999.2500    -999.2500
   2556.1250   2474.6565  -2452.6565     106.9751    -999.2500     109.9697    -999.2500       0.3455    -999.2500       2.4259    -999.2500    -999.2500
   2556.2500   2474.7766  -2452.7766     107.6838    -999.2500     107.1070    -999.2500       0.3557    -999.2500       2.4319    -999.2500    -999.2500
   2556.3750   2474.8967  -2452.8967     108.5653    -999.2500     102.8720    -999.2500       0.3675    -999.2500       2.4167    -999.2500    -999.2500
   2556.5000   2475.0168  -2453.0168     109.4687    -999.2500      99.1297    -999.2500       0.3918    -999.2500       2.4290    -999.2500    -999.2500
   2556.6250   2475.1370  -2453.1370     109.9766    -999.2500     102.4455    -999.2500       0.4019    -999.2500       2.4300    -999.2500    -999.2500
   2556.7500   2475.2571  -2453.2571     110.0484    -999.2500     102.8456    -999.2500       0.4021    -999.2500       2.4237    -999.2500    -999.2500
   2556.8750   2475.3772  -2453.3772     109.7721    -999.2500     104.6578    -999.2500       0.3919    -999.2500       2.4131    -999.2500    -999.2500
   2557.0000   2475.4971  -2453.4971     109.2382    -999.2500     107.0725    -999.2500       0.3776    -999.2500       2.4049    -999.2500    -999.2500
   2557.1250   2475.6172  -2453.6172     108.5020    -999.2500     103.1945    -999.2500       0.3705    -999.2500       2.4072    -999.2500    -999.2500
   2557.2500   2475.7373  -2453.7373     107.5256    -999.2500     117.9145    -999.2500       0.3305    -999.2500       2.3875    -999.2500    -999.2500
   2557.3750   2475.8574  -2453.8574     106.5282    -999.2500     130.7558    -999.2500       0.3181    -999.2500       2.3887    -999.2500    -999.2500
   2557.5000   2475.9775  -2453.9775     105.7992    -999.2500     125.4166    -999.2500       0.3352    -999.2500       2.3920    -999.2500    -999.2500
   2557.6250   2476.0977  -2454.0977     105.5358    -999.2500     116.7034    -999.2500       0.3721    -999.2500       2.3927    -999.2500    -999.2500
   2557.7500   2476.2175  -2454.2175     105.8424    -999.2500     118.4588    -999.2500       0.4060    -999.2500       2.3940    -999.2500    -999.2500
   2557.8750   2476.3376  -2454.3376     106.7121    -999.2500     106.8445    -999.2500       0.3894    -999.2500       2.4064    -999.2500    -999.2500
   2558.0000   2476.4578  -2454.4578     107.7497    -999.2500     106.1442    -999.2500       0.3921    -999.2500       2.4093    -999.2500    -999.2500
   2558.1250   2476.5779  -2454.5779     108.6894    -999.2500     106.4926    -999.2500       0.3860    -999.2500       2.4148    -999.2500    -999.2500
   2558.2500   2476.6980  -2454.6980     109.5637    -999.2500     106.8900    -999.2500       0.3856    -999.2500       2.4147    -999.2500    -999.2500
   2558.3750   2476.8181  -2454.8181     110.3952    -999.2500     107.4222    -999.2500       0.3896    -999.2500       2.4100    -999.2500    -999.2500
   2558.5000   2476.9382  -2454.9382     111.1596    -999.2500     108.6726    -999.2500       0.3818    -999.2500       2.4096    -999.2500    -999.2500
   2558.6250   2477.0581  -2455.0581     111.6381    -999.2500     111.3975    -999.2500       0.3613    -999.2500       2.4039    -999.2500    -999.2500
   2558.7500   2477.1782  -2455.1782     111.8473    -999.2500     109.9057    -999.2500       0.3658    -999.2500       2.3939    -999.2500    -999.2500
   2558.8750   2477.2983  -2455.2983     111.9174    -999.2500     106.9755    -999.2500       0.3652    -999.2500       2.3910    -999.2500    -999.2500
   2559.0000   2477.4185  -2455.4185     111.8641    -999.2500     104.2938    -999.2500       0.3680    -999.2500       2.3981    -999.2500    -999.2500
   2559.1250   2477.5386  -2455.5386     111.6687    -999.2500     102.2152    -999.2500       0.3790    -999.2500       2.4052    -999.2500    -999.2500
   2559.2500   2477.6587  -2455.6587     111.2945    -999.2500      98.7461    -999.2500       0.3718    -999.2500       2.3806    -999.2500    -999.2500
   2559.3750   2477.7786  -2455.7786     110.7070    -999.2500     101.5712    -999.2500       0.4050    -999.2500       2.3944    -999.2500    -999.2500
   2559.5000   2477.8987  -2455.8987     110.0723    -999.2500     105.0515    -999.2500       0.3996    -999.2500       2.4916    -999.2500    -999.2500
   2559.6250   2478.0188  -2456.0188     109.5396    -999.2500     104.3802    -999.2500       0.3865    -999.2500       2.5050    -999.2500    -999.2500
   2559.7500   2478.1389  -2456.1389     109.2201    -999.2500     105.3512    -999.2500       0.3754    -999.2500       2.4311    -999.2500    -999.2500
   2559.8750   2478.2590  -2456.2590     109.1682    -999.2500     116.7200    -999.2500       0.3616    -999.2500       2.3792    -999.2500    -999.2500
   2560.0000   2478.3792  -2456.3792     109.3336    -999.2500     116.6379    -999.2500       0.3668    -999.2500       2.3710    -999.2500    -999.2500
   2560.1250   2478.4993  -2456.4993     109.4929    -999.2500     111.6946    -999.2500       0.3802    -999.2500       2.3657    -999.2500    -999.2500
   2560.2500   2478.6191  -2456.6191     109.4536    -999.2500     108.4950    -999.2500       0.3963    -999.2500       2.3689    -999.2500    -999.2500
   2560.3750   2478.7393  -2456.7393     109.1252    -999.2500     110.1588    -999.2500       0.4051    -999.2500       2.3849    -999.2500    -999.2500
   2560.5000   2478.8594  -2456.8594     108.5457    -999.2500     115.8484    -999.2500       0.4050    -999.2500       2.4067    -999.2500    -999.2500
