#------------------------------------------------------------------------------
#
#   Created by  : [OpenWorks] Log Export Utility (LEXP)
#   Created on  : 2007-05-07 11:57:13
#   Project     : NORNE
#   User        : JSE
#   Interpreter : JSE
#
#------------------------------------------------------------------------------
~VERSION INFORMATION
VERS. 2.0 : CWLS Log ASCII Standard - version 2.0
WRAP.  NO : One line per depth step
~WELL INFORMATION
#MNEMONIC   .UNIT                                           VALUE :DESCRIPTION
#------------------------------------------------------------------------------
STRT        .M                                          1325.1250 :START DEPTH
STOP        .M                                          3789.8750 :STOP DEPTH
STEP        .M                                             0.1250 :STEP
NULL        .                                           -999.2500 :NULL VALUE
COMP        .                                             STATOIL :COMPANY
WELL        .                                       6608/10-C-3 H :WELL
FLD         .                                               NORNE :FIELD
LOC         .                                             UNKNOWN :LOCATION
CNTY        .                                             UNKNOWN :COUNTY
STAT        .                                             UNKNOWN :STATE
CTRY        .                                              Norway :COUNTRY
SRVC        .                                             UNKNOWN :SERVICE COMPANY
DATE        .                                             UNKNOWN :LOG DATE
UWI         .                                    NO 6608/10-C-3 H :UNIQUE WELL ID
XCOORD      .                                       457175.596094 :SURFACE X
YCOORD      .                                      7322029.604515 :SURFACE Y
LAT         .                                           66.014460 :LATITUDE
LON         .                                            8.055937 :LONGITUDE
ELEV        .M                                            22.0000 :SURFACE ELEV
ELEV_TYPE   .                                                  KB :ELEV TYPE
~CURVE INFORMATION
#MNEMONIC.UNIT        API CODE       : CURVE DESCRIPTION
#------------------------------------------------------------------------------
DEPTH    .M                          : Measured Depth
TVD      .M                          : True Vertical Depth (TVD)
TVDSS    .M                          : True Vertical Depth (TVDSS)
DT       .us/ft       UNKNOWN        : DT:UNKNOWN:rC:NONE:v1 
DTS      .us/ft       UNKNOWN        : DTS:UNKNOWN:rC:NONE:v1 
GR       .API         UNKNOWN        : GR:UNKNOWN:rC:NONE:v1 
KLOGH    .mD          UNKNOWN        : KLOGH:UNKNOWN:rC::v0 (auto-composite)
NPHI     .v/v_decimal UNKNOWN        : NPHI:UNKNOWN:rC:NONE:v1 
PHIF     .v/v_decimal UNKNOWN        : PHIF:UNKNOWN:rC::v0 (auto-composite)
RHOB     .g/cm3       UNKNOWN        : RHOB:UNKNOWN:rC:NONE:v1 
SW       .v/v_decimal UNKNOWN        : SW:UNKNOWN:rC::v0 (auto-composite)
VSH      .v/v_decimal UNKNOWN        : VSH:UNKNOWN:rC::v0 (auto-composite)
~A     DEPTH         TVD       TVDSS           DT          DTS           GR        KLOGH         NPHI         PHIF         RHOB           SW          VSH
# ...
   3541.6250   2772.2712  -2750.2712      91.0840     163.7540      62.6170     229.0559       0.2448       0.2619       2.2200       1.0000       0.0408
   3541.7500   2772.3928  -2750.3928      91.3330     163.8021      63.2419     107.4292       0.2395       0.2419       2.2532       1.0000       0.0485
   3541.8750   2772.5146  -2750.5146      91.6527     164.0254      56.8151     209.2070       0.2597       0.2595       2.2243       1.0000       0.0010
   3542.0000   2772.6362  -2750.6362      91.9993     164.3893      52.4797     179.8832       0.2861       0.2555       2.2308       1.0000       0.0010
   3542.1250   2772.7581  -2750.7581      92.3221     164.8232      53.7114      93.6105       0.2953       0.2383       2.2591       1.0000       0.0010
   3542.2500   2772.8799  -2750.8799      92.5711     165.2427      58.6022      96.8396       0.2746       0.2392       2.2577       1.0000       0.0010
   3542.3750   2773.0015  -2751.0015      92.6909     165.5742      56.3109      86.4413       0.2595       0.2362       2.2626       1.0000       0.0010
   3542.5000   2773.1233  -2751.1233      92.6461     165.7493      60.3095     107.2228       0.2626       0.2419       2.2533       1.0000       0.0121
   3542.6250   2773.2449  -2751.2449      92.4589     165.6255      57.8713     101.2989       0.2549       0.2404       2.2557       1.0000       0.0010
   3542.7500   2773.3667  -2751.3667      92.1427     165.0686      54.6279     206.5854       0.2286       0.2592       2.2248       1.0000       0.0010
   3542.8750   2773.4883  -2751.4883      91.7158     164.0246      53.3878     791.3565       0.2112       0.2947       2.1666       1.0000       0.0010
   3543.0000   2773.6101  -2751.6101      91.2006     162.5546      51.0144     995.9349       0.2574       0.3007       2.1567       1.0000       0.0010
   3543.1250   2773.7317  -2751.7317      90.6279     161.0333      56.2263     199.3032       0.2154       0.2582       2.2264       1.0000       0.0010
   3543.2500   2773.8535  -2751.8535      90.0781     159.8360      54.1178     173.9012       0.2573       0.2546       2.2323       1.0000       0.0010
   3543.3750   2773.9753  -2751.9753      89.6219     159.0564      52.3249      28.8264       0.2580       0.2072       2.3102       1.0000       0.0010
   3543.5000   2774.0974  -2752.0974      89.3288     158.8167      52.5717      12.0056       0.2308       0.1840       2.3481       1.0000       0.0010
   3543.6250   2774.2192  -2752.2192      89.2539     159.2387      53.2741      60.7870       0.2396       0.2269       2.2779       1.0000       0.0010
   3543.7500   2774.3411  -2752.3411      89.4319     160.4892      50.0792       0.7388       0.3340       0.1104       2.4688       1.0000       0.0010
   3543.8750   2774.4631  -2752.4631      89.8213     162.3047      51.9088       1.8904       0.2993       0.1352       2.4282       1.0000       0.0010
   3544.0000   2774.5850  -2752.5850      90.2727     164.0582      53.5620       2.0432       0.3073       0.1372       2.4249       1.0000       0.0010
   3544.1250   2774.7070  -2752.7070      90.7053     165.3665      57.9874      11.1824       0.3134       0.1821       2.3511       1.0000       0.0010
   3544.2500   2774.8289  -2752.8289      91.0505     165.9600      61.4888     213.7643       0.2870       0.2601       2.2233       1.0000       0.0267
   3544.3750   2774.9507  -2752.9507      91.2545     165.7224      55.5009     503.1753       0.2364       0.2827       2.1862       1.0000       0.0010
   3544.5000   2775.0728  -2753.0728      91.2463     164.8091      51.4344     325.5771       0.2541       0.2712       2.2051       1.0000       0.0010
   3544.6250   2775.1946  -2753.1946      91.0804     163.6534      54.5257      33.9406       0.2574       0.2115       2.3031       1.0000       0.0010
   3544.7500   2775.3164  -2753.3164      90.8398     162.4951      61.7290      37.9772       0.2235       0.2144       2.2982       1.0000       0.0297
   3544.8750   2775.4385  -2753.4385      90.6030     161.5303      66.6429      62.8051       0.1955       0.2277       2.2764       1.0000       0.0906
   3545.0000   2775.5603  -2753.5603      90.4556     160.9465      65.4762      22.4432       0.2128       0.2006       2.3210       1.0000       0.0761
   3545.1250   2775.6821  -2753.6821      90.4958     160.9441      62.8316      22.4428       0.2593       0.2006       2.3210       1.0000       0.0434
   3545.2500   2775.8042  -2753.8042      90.8206     161.6303      64.2306      14.4494       0.2484       0.1889       2.3401       1.0000       0.0607
   3545.3750   2775.9260  -2753.9260      91.3268     162.8236      66.3465      15.9601       0.2247       0.1915       2.3358       1.0000       0.0869
   3545.5000   2776.0481  -2754.0481      91.9380     164.4319      68.5603      45.4976       0.2180       0.2192       2.2903       1.0000       0.1144
   3545.6250   2776.1699  -2754.1699      92.5775     166.2428      66.3517     172.5279       0.2316       0.2544       2.2326       1.0000       0.0871
   3545.7500   2776.2917  -2754.2917      93.1759     167.9705      55.7651     256.3769       0.2514       0.2649       2.2154       1.0000       0.0010
   3545.8750   2776.4138  -2754.4138      93.6658     169.3300      56.6701     178.9351       0.2914       0.2554       2.2310       1.0000       0.0010
   3546.0000   2776.5356  -2754.5356      94.0238     170.2347      58.4620     315.1384       0.2669       0.2703       2.2065       1.0000       0.0010
   3546.1250   2776.6575  -2754.6575      94.2725     170.7612      57.2357     276.9388       0.2519       0.2669       2.2121       1.0000       0.0010
   3546.2500   2776.7795  -2754.7795      94.4250     170.9614      58.1618     286.2545       0.2428       0.2678       2.2107       1.0000       0.0010
   3546.3750   2776.9014  -2754.9014      94.4984     170.8876      61.5599     413.9143       0.2400       0.2775       2.1946       1.0000       0.0276
   3546.5000   2777.0232  -2755.0232      94.5140     170.5760      55.9010     118.1743       0.2803       0.2444       2.2490       1.0000       0.0010
   3546.6250   2777.1453  -2755.1453      94.4887     170.0650      64.6928      69.6899       0.3215       0.2305       2.2719       1.0000       0.0664
   3546.7500   2777.2671  -2755.2671      94.4658     169.5441      60.7849      80.7078       0.2655       0.2344       2.2655       1.0000       0.0180
   3546.8750   2777.3892  -2755.3892      94.4656     169.1223      57.3594     192.4116       0.2608       0.2573       2.2278       1.0000       0.0010
   3547.0000   2777.5110  -2755.5110      94.4895     168.8655      57.8320     355.3363       0.2887       0.2735       2.2013       1.0000       0.0010
   3547.1250   2777.6328  -2755.6328      94.5173     168.7890      58.3701     157.8675       0.2649       0.2521       2.2364       1.0000       0.0010
   3547.2500   2777.7549  -2755.7549      94.4788     168.8299      50.1953      31.0037       0.2888       0.2091       2.3070       1.0000       0.0010
   3547.3750   2777.8767  -2755.8767      94.2947     168.8081      57.0496      15.8137       0.2342       0.1913       2.3362       1.0000       0.0010
   3547.5000   2777.9985  -2755.9985      94.0285     168.6765      58.1776      12.8602       0.2381       0.1858       2.3451       1.0000       0.0010
   3547.6250   2778.1206  -2756.1206      93.7638     168.4923      57.9208      14.1181       0.2650       0.1883       2.3411       1.0000       0.0010
   3547.7500   2778.2424  -2756.2424      93.5740     168.3292      59.2521      18.6465       0.2806       0.1957       2.3290       1.0000       0.0010
   3547.8750   2778.3643  -2756.3643      93.5024     168.2486      58.2407      27.8185       0.2906       0.2062       2.3117       1.0000       0.0010
   3548.0000   2778.4863  -2756.4863      93.5188     168.1946      65.1379     100.7491       0.2451       0.2402       2.2559       1.0000       0.0719
