#------------------------------------------------------------------------------
#
#   Created by  : [OpenWorks] Log Export Utility (LEXP)
#   Created on  : 2007-05-07 11:57:13
#   Project     : NORNE
#   User        : JSE
#   Interpreter : JSE
#
#------------------------------------------------------------------------------
~VERSION INFORMATION
VERS. 2.0 : CWLS Log ASCII Standard - version 2.0
WRAP.  NO : One line per depth step
~WELL INFORMATION
#MNEMONIC   .UNIT                                           VALUE :DESCRIPTION
#------------------------------------------------------------------------------
STRT        .M                                          1325.1250 :START DEPTH
STOP        .M                                          3789.8750 :STOP DEPTH
STEP        .M                                             0.1250 :STEP
NULL        .                                           -999.2500 :NULL VALUE
COMP        .                                             STATOIL :COMPANY
WELL        .                                       6608/10-C-3 H :WELL
FLD         .                                               NORNE :FIELD
LOC         .                                             UNKNOWN :LOCATION
CNTY        .                                             UNKNOWN :COUNTY
STAT        .                                             UNKNOWN :STATE
CTRY        .                                              Norway :COUNTRY
SRVC        .                                             UNKNOWN :SERVICE COMPANY
DATE        .                                             UNKNOWN :LOG DATE
UWI         .                                    NO 6608/10-C-3 H :UNIQUE WELL ID
XCOORD      .                                       457175.596094 :SURFACE X
YCOORD      .                                      7322029.604515 :SURFACE Y
LAT         .                                           66.014460 :LATITUDE
LON         .                                            8.055937 :LONGITUDE
ELEV        .M                                            22.0000 :SURFACE ELEV
ELEV_TYPE   .                                                  KB :ELEV TYPE
~CURVE INFORMATION
#MNEMONIC.UNIT        API CODE       : CURVE DESCRIPTION
#------------------------------------------------------------------------------
DEPTH    .M                          : Measured Depth
TVD      .M                          : True Vertical Depth (TVD)
TVDSS    .M                          : True Vertical Depth (TVDSS)
DT       .us/ft       UNKNOWN        : DT:UNKNOWN:rC:NONE:v1 
DTS      .us/ft       UNKNOWN        : DTS:UNKNOWN:rC:NONE:v1 
GR       .API         UNKNOWN        : GR:UNKNOWN:rC:NONE:v1 
KLOGH    .mD          UNKNOWN        : KLOGH:UNKNOWN:rC::v0 (auto-composite)
NPHI     .v/v_decimal UNKNOWN        : NPHI:UNKNOWN:rC:NONE:v1 
PHIF     .v/v_decimal UNKNOWN        : PHIF:UNKNOWN:rC::v0 (auto-composite)
RHOB     .g/cm3       UNKNOWN        : RHOB:UNKNOWN:rC:NONE:v1 
SW       .v/v_decimal UNKNOWN        : SW:UNKNOWN:rC::v0 (auto-composite)
VSH      .v/v_decimal UNKNOWN        : VSH:UNKNOWN:rC::v0 (auto-composite)
~A     DEPTH         TVD       TVDSS           DT          DTS           GR        KLOGH         NPHI         PHIF         RHOB           SW          VSH
# ...
   3392.1250   2627.1770  -2605.1770      87.2566     143.7890      48.8665       1.9010       0.2240       0.1751       2.3801       0.3618       0.0010
   3392.2500   2627.2979  -2605.2979      88.0796     145.5383      62.1031      23.7084       0.2284       0.2256       2.2965       0.3068       0.0344
   3392.3750   2627.4185  -2605.4185      88.9623     147.3006      64.4623      22.0016       0.2457       0.2241       2.2989       0.3217       0.0636
   3392.5000   2627.5391  -2605.5391      89.7298     149.1716      64.1845      47.2661       0.2477       0.2394       2.2736       0.3045       0.0601
   3392.6250   2627.6599  -2605.6599      90.2756     151.0235      63.7654      98.1013       0.2361       0.2540       2.2492       0.2821       0.0549
   3392.7500   2627.7805  -2605.7805      90.5130     152.4996      64.5819      52.7337       0.2243       0.2416       2.2700       0.2856       0.0650
   3392.8750   2627.9014  -2605.9014      90.3185     152.8089      70.7898      44.3475       0.2274       0.2381       2.2757       0.2805       0.1421
   3393.0000   2628.0220  -2606.0220      89.4770     150.6887      77.1979      40.9714       0.2031       0.2365       2.2783       0.2731       0.2215
   3393.1250   2628.1426  -2606.1426      88.1114     146.5378      72.9404      32.9163       0.2125       0.2322       2.2856       0.2776       0.1687
   3393.2500   2628.2634  -2606.2634      86.3598     141.0131      69.8957      30.1812       0.2223       0.2304       2.2854       0.2800       0.1309
   3393.3750   2628.3840  -2606.3840      84.4178     135.1204      71.8950       8.9153       0.2224       0.2060       2.3264       0.3106       0.1557
   3393.5000   2628.5049  -2606.5049      82.5223     130.1215      73.4155       0.1114       0.2264       0.1183       2.4742       0.5170       0.1747
   3393.6250   2628.6255  -2606.6255      81.0044     127.8913      65.1219       0.2340       0.2059       0.1331       2.4496       0.4219       0.0717
   3393.7500   2628.7463  -2606.7463      80.0569     128.2635      57.6580       0.0198       0.1963       0.0837       2.5314       0.5951       0.0010
   3393.8750   2628.8669  -2606.8669      79.8220     130.2011      51.9673       0.0353       0.1976       0.0953       2.5123       0.4929       0.0010
   3394.0000   2628.9875  -2606.9875      80.4381     133.1532      52.6560       0.0558       0.1993       0.1044       2.4972       0.4583       0.0010
   3394.1250   2629.1084  -2607.1084      81.9345     136.6945      59.9095       0.0151       0.1934       0.0783       2.5403       0.6672       0.0071
   3394.2500   2629.2290  -2607.2290      84.1778     140.5394      62.7963       0.8960       0.1839       0.1600       2.4052       0.3494       0.0430
   3394.3750   2629.3499  -2607.3499      86.6804     144.5987      67.6316       6.1735       0.2118       0.1986       2.3411       0.2927       0.1029
   3394.5000   2629.4705  -2607.4705      88.8645     148.4573      65.3021      10.6842       0.2176       0.2096       2.3229       0.2777       0.0740
   3394.6250   2629.5911  -2607.5911      90.5538     151.6815      64.6606      41.2232       0.2021       0.2367       2.2781       0.2401       0.0660
   3394.7500   2629.7119  -2607.7119      91.6971     153.9654      65.7510     166.3529       0.1922       0.2646       2.2319       0.2121       0.0796
   3394.8750   2629.8325  -2607.8325      92.3452     155.1857      64.1940      90.1285       0.2194       0.2523       2.2522       0.2300       0.0603
   3395.0000   2629.9534  -2607.9534      92.5643     155.5073      70.9706     146.3908       0.2445       0.2620       2.2342       0.2239       0.1443
   3395.1250   2630.0740  -2608.0740      92.4215     155.3750      69.1450     122.9672       0.2108       0.2585       2.2327       0.2209       0.1216
   3395.2500   2630.1946  -2608.1946      92.0397     155.0840      67.7759      23.8261       0.2176       0.2257       2.2895       0.2435       0.1047
   3395.3750   2630.3154  -2608.3154      91.5660     154.8409      64.7224       9.4815       0.2421       0.2072       2.3243       0.2611       0.0669
   3395.5000   2630.4360  -2608.4360      91.1601     154.7871      59.0934      32.1851       0.2637       0.2317       2.2818       0.2213       0.0010
   3395.6250   2630.5569  -2608.5569      90.9660     154.9600      55.4720     427.8882       0.3049       0.2835       2.1920       0.1702       0.0010
   3395.7500   2630.6775  -2608.6775      91.1563     155.3621      59.8295      12.0541       0.2440       0.2120       2.3189       0.2445       0.0062
   3395.8750   2630.7983  -2608.7983      91.5964     155.6922      63.2610      77.6719       0.2318       0.2493       2.2571       0.2133       0.0487
   3396.0000   2630.9189  -2608.9189      92.1916     155.8242      64.1065     153.7587       0.2222       0.2630       2.2345       0.2027       0.0592
   3396.1250   2631.0396  -2609.0396      92.8629     155.8412      63.1589      98.1493       0.2216       0.2540       2.2493       0.2108       0.0474
   3396.2500   2631.1604  -2609.1604      93.5504     155.9532      61.9377     299.9907       0.2507       0.2764       2.2123       0.1986       0.0323
   3396.3750   2631.2810  -2609.2810      94.2208     156.4283      58.8870     174.0763       0.2623       0.2655       2.2303       0.2053       0.0010
   3396.5000   2631.4019  -2609.4019      94.8327     157.1599      62.9992     341.4262       0.2335       0.2790       2.2074       0.1937       0.0454
   3396.6250   2631.5225  -2609.5225      95.3763     157.8691      62.0345     287.6014       0.2254       0.2756       2.2137       0.1967       0.0335
   3396.7500   2631.6431  -2609.6431      95.8510     158.4188      60.5655     133.0121       0.2373       0.2601       2.2393       0.2115       0.0153
   3396.8750   2631.7639  -2609.7639      96.2516     158.7874      60.0010      74.4634       0.2524       0.2485       2.2585       0.2254       0.0082
   3397.0000   2631.8845  -2609.8845      96.5623     159.0838      55.3380     113.1221       0.2467       0.2569       2.2446       0.2170       0.0010
   3397.1250   2632.0054  -2610.0054      96.7212     159.5294      60.0108     159.9341       0.2236       0.2638       2.2332       0.2132       0.0084
   3397.2500   2632.1260  -2610.1260      96.7617     160.0017      69.3170     299.5993       0.2301       0.2764       2.2123       0.2055       0.1237
   3397.3750   2632.2468  -2610.2468      96.7261     160.3558      67.4749     347.9307       0.2262       0.2794       2.2074       0.2016       0.1010
   3397.5000   2632.3674  -2610.3674      96.6495     160.5523      60.7337     308.3206       0.2209       0.2769       2.2114       0.2011       0.0174
   3397.6250   2632.4880  -2610.4880      96.5489     160.6052      60.6572     285.4628       0.2298       0.2754       2.2139       0.2041       0.0164
   3397.7500   2632.6089  -2610.6089      96.3883     160.5364      65.4999     132.5860       0.2205       0.2601       2.2394       0.2220       0.0765
   3397.8750   2632.7295  -2610.7295      96.1040     160.3501      58.7015      64.4989       0.2219       0.2456       2.2633       0.2409       0.0010
   3398.0000   2632.8503  -2610.8503      95.7475     160.1009      59.7761      45.6709       0.2161       0.2387       2.2747       0.2546       0.0055
   3398.1250   2632.9709  -2610.9709      95.3762     159.8334      66.3029      19.7632       0.2272       0.2219       2.3025       0.2810       0.0864
   3398.2500   2633.0916  -2611.0916      95.0429     159.5910      71.5114       9.4178       0.2409       0.2071       2.3271       0.3097       0.1509
   3398.3750   2633.2126  -2611.2126      94.7877     159.4088      68.1089      28.5798       0.2098       0.2293       2.2902       0.2904       0.1088
   3398.5000   2633.3335  -2611.3335      94.6345     159.2900      66.9634      25.2541       0.2004       0.2268       2.2943       0.2998       0.0946
