#------------------------------------------------------------------------------
#
#   Created by  : [OpenWorks] Log Export Utility (LEXP)
#   Created on  : 2007-05-07 11:58:04
#   Project     : NORNE
#   User        : JSE
#   Interpreter : JSE
#
#------------------------------------------------------------------------------
~VERSION INFORMATION
VERS. 2.0 : CWLS Log ASCII Standard - version 2.0
WRAP.  NO : One line per depth step
~WELL INFORMATION
#MNEMONIC   .UNIT                                           VALUE :DESCRIPTION
#------------------------------------------------------------------------------
STRT        .M                                           461.1250 :START DEPTH
STOP        .M                                          3010.0000 :STOP DEPTH
STEP        .M                                             0.1250 :STEP
NULL        .                                           -999.2500 :NULL VALUE
COMP        .                                             STATOIL :COMPANY
WELL        .                                       6608/10-E-3 H :WELL
FLD         .                                               NORNE :FIELD
LOC         .                                             UNKNOWN :LOCATION
CNTY        .                                             UNKNOWN :COUNTY
STAT        .                                             UNKNOWN :STATE
CTRY        .                                              Norway :COUNTRY
SRVC        .                                             UNKNOWN :SERVICE COMPANY
DATE        .                                             UNKNOWN :LOG DATE
UWI         .                                    NO 6608/10-E-3 H :UNIQUE WELL ID
XCOORD      .                                       459189.815835 :SURFACE X
YCOORD      .                                      7325451.234448 :SURFACE Y
LAT         .                                           66.045417 :LATITUDE
LON         .                                            8.099250 :LONGITUDE
ELEV        .M                                            22.0000 :SURFACE ELEV
ELEV_TYPE   .                                                  KB :ELEV TYPE
~CURVE INFORMATION
#MNEMONIC.UNIT        API CODE       : CURVE DESCRIPTION
#------------------------------------------------------------------------------
DEPTH    .M                          : Measured Depth
TVD      .M                          : True Vertical Depth (TVD)
TVDSS    .M                          : True Vertical Depth (TVDSS)
DT       .us/ft       UNKNOWN        : DT:DT:rC:NONE:v1 
DTS      .us/ft       UNKNOWN        : DTS:DTS:rC:NONE:v1 
GR       .API         UNKNOWN        : GR:GR:rC:NONE:v1 
KLOGH    .mD          UNKNOWN        : KLOGH:UNKNOWN:rC::v0 (auto-composite)
NPHI     .v/v_decimal UNKNOWN        : NPHI:NPHI:rC:NONE:v1 
PHIF     .v/v_decimal UNKNOWN        : PHIF:UNKNOWN:rC::v0 (auto-composite)
RHOB     .g/cm3       UNKNOWN        : RHOB:RHOB:rC:NONE:v1 
SW       .v/v_decimal UNKNOWN        : SW:UNKNOWN:rC::v0 (auto-composite)
VSH      .v/v_decimal UNKNOWN        : VSH:UNKNOWN:rC::v0 (auto-composite)
~A     DEPTH         TVD       TVDSS           DT          DTS           GR        KLOGH         NPHI         PHIF         RHOB           SW          VSH
# ...
   2853.1250   2759.6636  -2737.6636      90.2432     158.4540      62.7654     187.7738       0.2542       0.2567       2.2291       1.0000       0.0425
   2853.2500   2759.7822  -2737.7822      90.2646     158.1791      64.4664     206.5650       0.2528       0.2592       2.2250       1.0000       0.0637
   2853.3750   2759.9009  -2737.9009      90.2400     157.7483      67.0076     126.2605       0.2497       0.2462       2.2463       1.0000       0.0951
   2853.5000   2760.0195  -2738.0195      90.2885     157.2332      66.8658      70.7481       0.2582       0.2309       2.2713       1.0000       0.0934
   2853.6250   2760.1382  -2738.1382      90.3102     156.6687      69.6781      59.3050       0.2825       0.2262       2.2790       1.0000       0.1282
   2853.7500   2760.2568  -2738.2568      90.3007     156.0521      75.2950      42.3633       0.2987       0.2173       2.2936       1.0000       0.1979
   2853.8750   2760.3757  -2738.3757      90.2823     155.3779      80.8423      17.5128       0.2910       0.1940       2.3319       1.0000       0.2666
   2854.0000   2760.4944  -2738.4944      90.2904     154.6440      81.5736       3.5633       0.2611       0.1584       2.3902       1.0000       0.2757
   2854.1250   2760.6130  -2738.6130      90.2765     153.8637      77.4185       3.1850       0.2448       0.1559       2.3943       1.0000       0.2242
   2854.2500   2760.7317  -2738.7317      90.1689     153.0942      78.9584       6.6292       0.2506       0.1723       2.3667       1.0000       0.2433
   2854.3750   2760.8503  -2738.8503      89.9038     152.3940      83.0182       6.4751       0.2550       0.1717       2.3684       1.0000       0.2936
   2854.5000   2760.9690  -2738.9690      89.5405     151.7767      85.1308       2.9116       0.2498       0.1539       2.3976       1.0000       0.3198
   2854.6250   2761.0876  -2739.0876      89.1228     151.2196      83.8063       1.4535       0.2353       0.1385       2.4230       1.0000       0.3034
   2854.7500   2761.2063  -2739.2063      88.4877     150.6501      87.7332       2.8498       0.2196       0.1535       2.3983       1.0000       0.3521
   2854.8750   2761.3250  -2739.3250      87.7844     150.0466      89.4737       0.3319       0.2330       0.1055       2.4769       1.0000       0.3736
   2855.0000   2761.4436  -2739.4436      87.1785     149.5179      83.3955       0.0226       0.2508       0.0457       2.5751       1.0000       0.2983
   2855.1250   2761.5623  -2739.5623      86.5846     149.1618      78.5551       0.0082       0.2610       0.0230       2.6122       1.0000       0.2383
   2855.2500   2761.6809  -2739.6809      86.0349     149.0520      80.5652       0.0243       0.2600       0.0473       2.5724       1.0000       0.2633
   2855.3750   2761.7996  -2739.7996      85.7104     149.2268      89.1467       0.1669       0.2511       0.0902       2.5021       1.0000       0.3696
   2855.5000   2761.9182  -2739.9182      86.0969     149.6920      91.0150       0.8029       0.2261       0.1252       2.4446       1.0000       0.3927
   2855.6250   2762.0369  -2740.0369      85.9733     150.3105      93.3720       0.3561       0.2203       0.1071       2.4743       1.0000       0.4220
   2855.7500   2762.1555  -2740.1555      86.3760     151.0124      96.7128       0.3601       0.2284       0.1074       2.4739       1.0000       0.4634
   2855.8750   2762.2742  -2740.2742      87.0908     151.7522      98.5636       0.6278       0.2382       0.1197       2.4536       1.0000       0.4863
   2856.0000   2762.3928  -2740.3928      87.7497     152.4787      97.0984       0.7981       0.2485       0.1251       2.4448       1.0000       0.4681
   2856.1250   2762.5115  -2740.5115      88.4849     153.1195      93.8664       0.8162       0.2873       0.1256       2.4440       1.0000       0.4281
   2856.2500   2762.6304  -2740.6304      89.0428     153.5360      98.0860       1.0848       0.2903       0.1319       2.4336       1.0000       0.4804
   2856.3750   2762.7490  -2740.7490      89.2608     153.7469     102.1032       0.4918       0.2892       0.1143       2.4625       1.0000       0.5302
   2856.5000   2762.8677  -2740.8677      89.4256     153.7769     104.9032       0.3216       0.2965       0.1048       2.4781       1.0000       0.5649
   2856.6250   2762.9863  -2740.9863      89.4760     153.6674     106.0751       0.3161       0.3033       0.1045       2.4787       1.0000       0.5794
   2856.7500   2763.1050  -2741.1050      89.1602     153.4709     105.0882       0.1884       0.2900       0.0929       2.4976       1.0000       0.5672
   2856.8750   2763.2236  -2741.2236      88.7753     153.2404      97.8702       0.0898       0.2594       0.0764       2.5247       1.0000       0.4777
   2857.0000   2763.3423  -2741.3423      88.2790     152.9821      90.5024       0.1264       0.2361       0.0840       2.5122       1.0000       0.3864
   2857.1250   2763.4609  -2741.4609      87.8968     152.6949      86.7034       0.4464       0.2364       0.1121       2.4660       1.0000       0.3393
   2857.2500   2763.5796  -2741.5796      87.4382     152.3820      85.0367       1.9487       0.2381       0.1450       2.4122       1.0000       0.3186
   2857.3750   2763.6982  -2741.6982      86.8515     152.0500      84.2960       5.3650       0.2266       0.1676       2.3752       1.0000       0.3095
   2857.5000   2763.8169  -2741.8169      86.4700     151.7070      85.6310       6.7145       0.2159       0.1726       2.3670       1.0000       0.3260
   2857.6250   2763.9355  -2741.9355      86.3979     151.3515      85.0230       4.5843       0.2067       0.1640       2.3809       1.0000       0.3185
   2857.7500   2764.0542  -2742.0542      86.1096     151.0076      82.4330       2.8675       0.2030       0.1536       2.3981       1.0000       0.2863
   2857.8750   2764.1729  -2742.1729      85.9155     150.7090      81.0542       1.7723       0.2058       0.1429       2.4157       1.0000       0.2693
   2858.0000   2764.2915  -2742.2915      85.8523     150.4703      82.8475       1.2132       0.2054       0.1344       2.4295       1.0000       0.2915
   2858.1250   2764.4102  -2742.4102      85.8055     150.2885      88.2650       1.0449       0.1930       0.1311       2.4350       1.0000       0.3587
   2858.2500   2764.5288  -2742.5288      85.7531     150.1384      94.9776       1.3077       0.1918       0.1361       2.4268       1.0000       0.4418
   2858.3750   2764.6475  -2742.6475      85.7458     149.9818      96.1335       1.3915       0.2028       0.1375       2.4245       1.0000       0.4562
   2858.5000   2764.7661  -2742.7661      85.7461     149.8170      93.2653       1.9193       0.2127       0.1446       2.4128       1.0000       0.4206
   2858.6250   2764.8848  -2742.8848      85.7230     149.6511      89.5349       2.5702       0.2114       0.1512       2.4021       1.0000       0.3744
   2858.7500   2765.0034  -2743.0034      85.6575     149.4858      88.5168       2.2916       0.1998       0.1486       2.4063       1.0000       0.3618
   2858.8750   2765.1223  -2743.1223      85.5535     149.3134      93.1659       1.0483       0.1931       0.1312       2.4349       1.0000       0.4194
   2859.0000   2765.2410  -2743.2410      85.5715     149.1086      93.3825       1.1994       0.2020       0.1342       2.4299       1.0000       0.4221
   2859.1250   2765.3596  -2743.3596      85.4837     148.8956      87.1888       2.9395       0.2062       0.1541       2.3972       1.0000       0.3453
   2859.2500   2765.4783  -2743.4783      85.4312     148.7207      80.2948       4.1173       0.2063       0.1617       2.3849       1.0000       0.2598
   2859.3750   2765.5969  -2743.5969      85.3478     148.6125      77.5164       3.2464       0.2085       0.1564       2.3935       1.0000       0.2254
   2859.5000   2765.7156  -2743.7156      85.1648     148.5861      81.0193       2.3421       0.2144       0.1491       2.4055       1.0000       0.2688
