#------------------------------------------------------------------------------
#
#   Created by  : [OpenWorks] Log Export Utility (LEXP)
#   Created on  : 2007-05-07 11:58:04
#   Project     : NORNE
#   User        : JSE
#   Interpreter : JSE
#
#------------------------------------------------------------------------------
~VERSION INFORMATION
VERS. 2.0 : CWLS Log ASCII Standard - version 2.0
WRAP.  NO : One line per depth step
~WELL INFORMATION
#MNEMONIC   .UNIT                                           VALUE :DESCRIPTION
#------------------------------------------------------------------------------
STRT        .M                                           461.1250 :START DEPTH
STOP        .M                                          3010.0000 :STOP DEPTH
STEP        .M                                             0.1250 :STEP
NULL        .                                           -999.2500 :NULL VALUE
COMP        .                                             STATOIL :COMPANY
WELL        .                                       6608/10-E-3 H :WELL
FLD         .                                               NORNE :FIELD
LOC         .                                             UNKNOWN :LOCATION
CNTY        .                                             UNKNOWN :COUNTY
STAT        .                                             UNKNOWN :STATE
CTRY        .                                              Norway :COUNTRY
SRVC        .                                             UNKNOWN :SERVICE COMPANY
DATE        .                                             UNKNOWN :LOG DATE
UWI         .                                    NO 6608/10-E-3 H :UNIQUE WELL ID
XCOORD      .                                       459189.815835 :SURFACE X
YCOORD      .                                      7325451.234448 :SURFACE Y
LAT         .                                           66.045417 :LATITUDE
LON         .                                            8.099250 :LONGITUDE
ELEV        .M                                            22.0000 :SURFACE ELEV
ELEV_TYPE   .                                                  KB :ELEV TYPE
~CURVE INFORMATION
#MNEMONIC.UNIT        API CODE       : CURVE DESCRIPTION
#------------------------------------------------------------------------------
DEPTH    .M                          : Measured Depth
TVD      .M                          : True Vertical Depth (TVD)
TVDSS    .M                          : True Vertical Depth (TVDSS)
DT       .us/ft       UNKNOWN        : DT:DT:rC:NONE:v1 
DTS      .us/ft       UNKNOWN        : DTS:DTS:rC:NONE:v1 
GR       .API         UNKNOWN        : GR:GR:rC:NONE:v1 
KLOGH    .mD          UNKNOWN        : KLOGH:UNKNOWN:rC::v0 (auto-composite)
NPHI     .v/v_decimal UNKNOWN        : NPHI:NPHI:rC:NONE:v1 
PHIF     .v/v_decimal UNKNOWN        : PHIF:UNKNOWN:rC::v0 (auto-composite)
RHOB     .g/cm3       UNKNOWN        : RHOB:RHOB:rC:NONE:v1 
SW       .v/v_decimal UNKNOWN        : SW:UNKNOWN:rC::v0 (auto-composite)
VSH      .v/v_decimal UNKNOWN        : VSH:UNKNOWN:rC::v0 (auto-composite)
~A     DEPTH         TVD       TVDSS           DT          DTS           GR        KLOGH         NPHI         PHIF         RHOB           SW          VSH
# ...
   3002.6250   2901.1689  -2879.1689    -999.2500    -999.2500    -999.2500   10000.0000    -999.2500       1.0000    -999.2500       0.0002       0.0000
   3002.7500   2901.2869  -2879.2869    -999.2500    -999.2500    -999.2500   10000.0000    -999.2500       1.0000    -999.2500       0.0002       0.0000
   3002.8750   2901.4048  -2879.4048    -999.2500    -999.2500    -999.2500   10000.0000    -999.2500       1.0000    -999.2500       0.0002       0.0000
   3003.0000   2901.5229  -2879.5229    -999.2500    -999.2500    -999.2500   10000.0000    -999.2500       1.0000    -999.2500       0.0002       0.0000
   3003.1250   2901.6409  -2879.6409    -999.2500    -999.2500    -999.2500   10000.0000    -999.2500       1.0000    -999.2500       0.0002       0.0000
   3003.2500   2901.7588  -2879.7588    -999.2500    -999.2500    -999.2500   10000.0000    -999.2500       1.0000    -999.2500       0.0002       0.0000
   3003.3750   2901.8767  -2879.8767    -999.2500    -999.2500    -999.2500   10000.0000    -999.2500       1.0000    -999.2500       0.0002       0.0000
   3003.5000   2901.9946  -2879.9946    -999.2500    -999.2500    -999.2500   10000.0000    -999.2500       1.0000    -999.2500       0.0002       0.0000
   3003.6250   2902.1125  -2880.1125    -999.2500    -999.2500    -999.2500   10000.0000    -999.2500       1.0000    -999.2500       0.0002       0.0000
   3003.7500   2902.2307  -2880.2307    -999.2500    -999.2500    -999.2500   10000.0000    -999.2500       1.0000    -999.2500       0.0002       0.0000
   3003.8750   2902.3486  -2880.3486    -999.2500    -999.2500    -999.2500   10000.0000    -999.2500       1.0000    -999.2500       0.0002       0.0000
   3004.0000   2902.4666  -2880.4666    -999.2500    -999.2500    -999.2500   10000.0000    -999.2500       1.0000    -999.2500       0.0002       0.0000
   3004.1250   2902.5845  -2880.5845    -999.2500    -999.2500    -999.2500   10000.0000    -999.2500       1.0000    -999.2500       0.0002       0.0000
   3004.2500   2902.7024  -2880.7024    -999.2500    -999.2500    -999.2500   10000.0000    -999.2500       1.0000    -999.2500       0.0002       0.0000
   3004.3750   2902.8203  -2880.8203    -999.2500    -999.2500    -999.2500   10000.0000    -999.2500       1.0000    -999.2500       0.0002       0.0000
   3004.5000   2902.9385  -2880.9385    -999.2500    -999.2500    -999.2500   10000.0000    -999.2500       1.0000    -999.2500       0.0002       0.0000
   3004.6250   2903.0564  -2881.0564    -999.2500    -999.2500    -999.2500   10000.0000    -999.2500       1.0000    -999.2500       0.0002       0.0000
   3004.7500   2903.1743  -2881.1743    -999.2500    -999.2500    -999.2500   10000.0000    -999.2500       1.0000    -999.2500       0.0002       0.0000
   3004.8750   2903.2922  -2881.2922    -999.2500    -999.2500    -999.2500   10000.0000    -999.2500       1.0000    -999.2500       0.0002       0.0000
   3005.0000   2903.4102  -2881.4102    -999.2500    -999.2500    -999.2500   10000.0000    -999.2500       1.0000    -999.2500       0.0002       0.0000
   3005.1250   2903.5281  -2881.5281    -999.2500    -999.2500    -999.2500   10000.0000    -999.2500       1.0000    -999.2500       0.0002       0.0000
   3005.2500   2903.6462  -2881.6462    -999.2500    -999.2500    -999.2500   10000.0000    -999.2500       1.0000    -999.2500       0.0002       0.0000
   3005.3750   2903.7642  -2881.7642    -999.2500    -999.2500    -999.2500   10000.0000    -999.2500       1.0000    -999.2500       0.0002       0.0000
   3005.5000   2903.8821  -2881.8821    -999.2500    -999.2500    -999.2500   10000.0000    -999.2500       1.0000    -999.2500       0.0002       0.0000
   3005.6250   2904.0000  -2882.0000    -999.2500    -999.2500    -999.2500   10000.0000    -999.2500       1.0000    -999.2500       0.0002       0.0000
   3005.7500   2904.1179  -2882.1179    -999.2500    -999.2500    -999.2500   10000.0000    -999.2500       1.0000    -999.2500       0.0002       0.0000
   3005.8750   2904.2358  -2882.2358    -999.2500    -999.2500    -999.2500   10000.0000    -999.2500       1.0000    -999.2500       0.0002       0.0000
   3006.0000   2904.3540  -2882.3540    -999.2500    -999.2500    -999.2500   10000.0000    -999.2500       1.0000    -999.2500       0.0002       0.0000
   3006.1250   2904.4719  -2882.4719    -999.2500    -999.2500    -999.2500   10000.0000    -999.2500       1.0000    -999.2500       0.0002       0.0000
   3006.2500   2904.5898  -2882.5898    -999.2500    -999.2500    -999.2500   10000.0000    -999.2500       1.0000    -999.2500       0.0002       0.0000
   3006.3750   2904.7078  -2882.7078    -999.2500    -999.2500    -999.2500   10000.0000    -999.2500       1.0000    -999.2500       0.0002       0.0000
   3006.5000   2904.8257  -2882.8257    -999.2500    -999.2500    -999.2500   10000.0000    -999.2500       1.0000    -999.2500       0.0002       0.0000
   3006.6250   2904.9436  -2882.9436    -999.2500    -999.2500    -999.2500   10000.0000    -999.2500       1.0000    -999.2500       0.0002       0.0000
   3006.7500   2905.0618  -2883.0618    -999.2500    -999.2500    -999.2500   10000.0000    -999.2500       1.0000    -999.2500       0.0002       0.0000
   3006.8750   2905.1797  -2883.1797    -999.2500    -999.2500    -999.2500   10000.0000    -999.2500       1.0000    -999.2500       0.0002       0.0000
   3007.0000   2905.2976  -2883.2976    -999.2500    -999.2500    -999.2500   10000.0000    -999.2500       1.0000    -999.2500       0.0002       0.0000
   3007.1250   2905.4155  -2883.4155    -999.2500    -999.2500    -999.2500   10000.0000    -999.2500       1.0000    -999.2500       0.0002       0.0000
   3007.2500   2905.5334  -2883.5334    -999.2500    -999.2500    -999.2500   10000.0000    -999.2500       1.0000    -999.2500       0.0002       0.0000
   3007.3750   2905.6514  -2883.6514    -999.2500    -999.2500    -999.2500   10000.0000    -999.2500       1.0000    -999.2500       0.0002       0.0000
   3007.5000   2905.7695  -2883.7695    -999.2500    -999.2500    -999.2500   10000.0000    -999.2500       1.0000    -999.2500       0.0002       0.0000
   3007.6250   2905.8875  -2883.8875    -999.2500    -999.2500    -999.2500   10000.0000    -999.2500       1.0000    -999.2500       0.0002       0.0000
   3007.7500   2906.0054  -2884.0054    -999.2500    -999.2500    -999.2500   10000.0000    -999.2500       1.0000    -999.2500       0.0002       0.0000
   3007.8750   2906.1233  -2884.1233    -999.2500    -999.2500    -999.2500   10000.0000    -999.2500       1.0000    -999.2500       0.0002       0.0000
   3008.0000   2906.2412  -2884.2412    -999.2500    -999.2500    -999.2500   10000.0000    -999.2500       1.0000    -999.2500       0.0002       0.0000
   3008.1250   2906.3591  -2884.3591    -999.2500    -999.2500    -999.2500   10000.0000    -999.2500       1.0000    -999.2500       0.0002       0.0000
   3008.2500   2906.4773  -2884.4773    -999.2500    -999.2500    -999.2500   10000.0000    -999.2500       1.0000    -999.2500       0.0002       0.0000
   3008.3750   2906.5952  -2884.5952    -999.2500    -999.2500    -999.2500   10000.0000    -999.2500       1.0000    -999.2500       0.0002       0.0000
   3008.5000   2906.7131  -2884.7131    -999.2500    -999.2500    -999.2500   10000.0000    -999.2500       1.0000    -999.2500       0.0002       0.0000
   3008.6250   2906.8311  -2884.8311    -999.2500    -999.2500    -999.2500   10000.0000    -999.2500       1.0000    -999.2500       0.0002       0.0000
   3008.7500   2906.9490  -2884.9490    -999.2500    -999.2500    -999.2500   10000.0000    -999.2500       1.0000    -999.2500       0.0002       0.0000
   3008.8750   2907.0669  -2885.0669    -999.2500    -999.2500    -999.2500   10000.0000    -999.2500       1.0000    -999.2500       0.0002       0.0000
   3009.0000   2907.1851  -2885.1851    -999.2500    -999.2500    -999.2500   10000.0000    -999.2500       1.0000    -999.2500       0.0002       0.0000
