#------------------------------------------------------------------------------
#
#   Created by  : [OpenWorks] Log Export Utility (LEXP)
#   Created on  : 2007-05-07 11:58:15
#   Project     : NORNE
#   User        : JSE
#   Interpreter : JSE
#
#------------------------------------------------------------------------------
~VERSION INFORMATION
VERS. 2.0 : CWLS Log ASCII Standard - version 2.0
WRAP.  NO : One line per depth step
~WELL INFORMATION
#MNEMONIC   .UNIT                                           VALUE :DESCRIPTION
#------------------------------------------------------------------------------
STRT        .M                                           454.5508 :START DEPTH
STOP        .M                                          3169.8008 :STOP DEPTH
STEP        .M                                             0.1250 :STEP
NULL        .                                           -999.2500 :NULL VALUE
COMP        .                                             STATOIL :COMPANY
WELL        .                                       6608/10-F-1 H :WELL
FLD         .                                               NORNE :FIELD
LOC         .                                             UNKNOWN :LOCATION
CNTY        .                                             UNKNOWN :COUNTY
STAT        .                                             UNKNOWN :STATE
CTRY        .                                              Norway :COUNTRY
SRVC        .                                             UNKNOWN :SERVICE COMPANY
DATE        .                                             UNKNOWN :LOG DATE
UWI         .                                    NO 6608/10-F-1 H :UNIQUE WELL ID
XCOORD      .                                       459309.364262 :SURFACE X
YCOORD      .                                      7325355.161830 :SURFACE Y
LAT         .                                           66.044571 :LATITUDE
LON         .                                            8.101919 :LONGITUDE
ELEV        .M                                            24.0000 :SURFACE ELEV
ELEV_TYPE   .                                                  KB :ELEV TYPE
~CURVE INFORMATION
#MNEMONIC.UNIT        API CODE       : CURVE DESCRIPTION
#------------------------------------------------------------------------------
DEPTH    .M                          : Measured Depth
TVD      .M                          : True Vertical Depth (TVD)
TVDSS    .M                          : True Vertical Depth (TVDSS)
DT       .us/ft       UNKNOWN        : DT:UNKNOWN:rC:NONE:v1 
DTS      .us/ft       UNKNOWN        : DTS:UNKNOWN:rC:NONE:v1 
GR       .API         UNKNOWN        : GR:UNKNOWN:rC:NONE:v1 
KLOGH    .mD          UNKNOWN        : KLOGH:UNKNOWN:rC::v0 (auto-composite)
NPHI     .v/v_decimal UNKNOWN        : NPHI:SFINX:rC:NONE:v1 
PHIF     .v/v_decimal UNKNOWN        : PHIF:UNKNOWN:rC::v0 (auto-composite)
RHOB     .g/cm3       UNKNOWN        : RHOB:UNKNOWN:rC:NONE:v1 
SW       .v/v_decimal UNKNOWN        : SW:UNKNOWN:rC::v0 (auto-composite)
VSH      .v/v_decimal UNKNOWN        : VSH:UNKNOWN:rC::v0 (auto-composite)
~A     DEPTH         TVD       TVDSS           DT          DTS           GR        KLOGH         NPHI         PHIF         RHOB           SW          VSH
# ...
   2755.5508   2601.3506  -2577.3506     103.0656     202.6040     165.5217    -999.2500       0.7920    -999.2500       2.8083    -999.2500    -999.2500
   2755.6758   2601.4756  -2577.4756     103.0377     201.9147     149.2099    -999.2500       0.7922    -999.2500       2.8088    -999.2500    -999.2500
   2755.8008   2601.6006  -2577.6006     103.0125     201.2522     146.1423    -999.2500       0.7923    -999.2500       2.8093    -999.2500    -999.2500
   2755.9258   2601.7253  -2577.7253     102.9476     200.6201     147.8137    -999.2500       0.7925    -999.2500       2.8098    -999.2500    -999.2500
   2756.0508   2601.8503  -2577.8503     102.8342     200.0327     150.7152    -999.2500       0.7927    -999.2500       2.8103    -999.2500    -999.2500
   2756.1758   2601.9753  -2577.9753     102.6893     199.5202     154.1297    -999.2500       0.7928    -999.2500       2.8108    -999.2500    -999.2500
   2756.3008   2602.1001  -2578.1001     102.5646     199.1535     160.5132    -999.2500       0.7930    -999.2500       2.8113    -999.2500    -999.2500
   2756.4258   2602.2251  -2578.2251     102.5206     199.0171     149.1314    -999.2500       0.7931    -999.2500       2.8118    -999.2500    -999.2500
   2756.5508   2602.3501  -2578.3501     102.5251     199.0130     158.6617    -999.2500       0.7933    -999.2500       2.8123    -999.2500    -999.2500
   2756.6758   2602.4751  -2578.4751     102.5647     199.0685     162.2481    -999.2500       0.7935    -999.2500       2.8128    -999.2500    -999.2500
   2756.8008   2602.5999  -2578.5999     102.6430     199.1411     152.9353    -999.2500       0.7936    -999.2500       2.8133    -999.2500    -999.2500
   2756.9258   2602.7249  -2578.7249     102.7793     199.2248     144.1904    -999.2500       0.7938    -999.2500       2.8138    -999.2500    -999.2500
   2757.0508   2602.8499  -2578.8499     103.0131     199.3758     142.1473    -999.2500       0.7940    -999.2500       2.8143    -999.2500    -999.2500
   2757.1758   2602.9749  -2578.9749     103.3344     199.6734     144.3279    -999.2500       0.7941    -999.2500       2.8147    -999.2500    -999.2500
   2757.3008   2603.0996  -2579.0996     103.6889     200.0828     150.0832    -999.2500       0.7943    -999.2500       2.8152    -999.2500    -999.2500
   2757.4258   2603.2246  -2579.2246     104.0075     200.5498     151.8758    -999.2500       0.7944    -999.2500       2.8157    -999.2500    -999.2500
   2757.5508   2603.3496  -2579.3496     104.2265     201.0307     148.9872    -999.2500       0.7946    -999.2500       2.8162    -999.2500    -999.2500
   2757.6758   2603.4746  -2579.4746     104.3036     201.5214     158.1195    -999.2500       0.7948    -999.2500       2.8167    -999.2500    -999.2500
   2757.8008   2603.5994  -2579.5994     104.2349     202.0128     157.3288    -999.2500       0.7949    -999.2500       2.8172    -999.2500    -999.2500
   2757.9258   2603.7244  -2579.7244     104.0996     202.4323     156.3430    -999.2500       0.7951    -999.2500       2.8177    -999.2500    -999.2500
   2758.0508   2603.8494  -2579.8494     103.9585     202.6996     156.9904    -999.2500       0.7952    -999.2500       2.8182    -999.2500    -999.2500
   2758.1758   2603.9741  -2579.9741     103.8526     202.7551     157.3677    -999.2500       0.7954    -999.2500       2.8187    -999.2500    -999.2500
   2758.3008   2604.0991  -2580.0991     103.8018     202.5621     154.6300    -999.2500       0.7956    -999.2500       2.8192    -999.2500    -999.2500
   2758.4258   2604.2241  -2580.2241     103.8002     202.0886     154.6300    -999.2500       0.7957    -999.2500       2.8197    -999.2500    -999.2500
   2758.5508   2604.3491  -2580.3491     103.8131     201.4093     161.9158    -999.2500       0.7959    -999.2500       2.8202    -999.2500    -999.2500
   2758.6758   2604.4739  -2580.4739     103.8289     200.5452     159.0696    -999.2500       0.7960    -999.2500       2.8207    -999.2500    -999.2500
   2758.8008   2604.5989  -2580.5989     103.8182     199.4379     150.1032    -999.2500       0.7962    -999.2500       2.8212    -999.2500    -999.2500
   2758.9258   2604.7239  -2580.7239     103.7351     198.0505     144.2000    -999.2500       0.7964    -999.2500       2.8217    -999.2500    -999.2500
   2759.0508   2604.8489  -2580.8489     103.5230     196.4190     150.9600    -999.2500       0.7965    -999.2500       2.8222    -999.2500    -999.2500
   2759.1758   2604.9736  -2580.9736     103.0350     194.6410     159.3364    -999.2500       0.7967    -999.2500       2.8227    -999.2500    -999.2500
   2759.3008   2605.0986  -2581.0986     102.2902     192.9743     157.9855    -999.2500       0.7969    -999.2500       2.8231    -999.2500    -999.2500
   2759.4258   2605.2236  -2581.2236     101.3508     191.4464     152.1967    -999.2500       0.7970    -999.2500       2.8236    -999.2500    -999.2500
   2759.5508   2605.3486  -2581.3486     100.3103     190.0497     148.4604    -999.2500       0.7972    -999.2500       2.8241    -999.2500    -999.2500
   2759.6758   2605.4734  -2581.4734      99.2772     188.7518     151.2584    -999.2500       0.7973    -999.2500       2.8246    -999.2500    -999.2500
   2759.8008   2605.5984  -2581.5984      98.3829     187.5456     154.8604    -999.2500       0.7975    -999.2500       2.8251    -999.2500    -999.2500
   2759.9258   2605.7234  -2581.7234      97.7292     186.5435     158.4498    -999.2500       0.7977    -999.2500       2.8256    -999.2500    -999.2500
   2760.0508   2605.8481  -2581.8481      97.3006     185.7957     162.3149    -999.2500       0.7978    -999.2500       2.8261    -999.2500    -999.2500
   2760.1758   2605.9731  -2581.9731      97.0838     185.2860     158.6699    -999.2500       0.7980    -999.2500       2.8266    -999.2500    -999.2500
   2760.3008   2606.0981  -2582.0981      97.0599     184.9632     150.4153    -999.2500       0.7981    -999.2500       2.8271    -999.2500    -999.2500
   2760.4258   2606.2231  -2582.2231      97.2062     184.7509     153.0315    -999.2500       0.7983    -999.2500       2.8276    -999.2500    -999.2500
   2760.5508   2606.3479  -2582.3479      97.5082     184.5860     147.9525    -999.2500       0.7985    -999.2500       2.8281    -999.2500    -999.2500
   2760.6758   2606.4729  -2582.4729      97.8506     184.4420     147.0267    -999.2500       0.7986    -999.2500       2.8286    -999.2500    -999.2500
   2760.8008   2606.5979  -2582.5979      98.1896     184.3409     147.6185    -999.2500       0.7988    -999.2500       2.8291    -999.2500    -999.2500
   2760.9258   2606.7229  -2582.7229      98.5072     184.3179     146.3584    -999.2500       0.7989    -999.2500       2.8296    -999.2500    -999.2500
   2761.0508   2606.8477  -2582.8477      98.8059     184.4137     144.4151    -999.2500       0.7991    -999.2500       2.8301    -999.2500    -999.2500
   2761.1758   2606.9727  -2582.9727      99.1177     184.6804     158.1833    -999.2500       0.7993    -999.2500       2.8306    -999.2500    -999.2500
   2761.3008   2607.0977  -2583.0977      99.5122     185.1355     156.4759    -999.2500       0.7994    -999.2500       2.8311    -999.2500    -999.2500
   2761.4258   2607.2227  -2583.2227      99.9782     185.6664     152.1464    -999.2500       0.7996    -999.2500       2.8315    -999.2500    -999.2500
   2761.5508   2607.3474  -2583.3474     100.4705     186.2041     147.5613    -999.2500       0.7998    -999.2500       2.8320    -999.2500    -999.2500
   2761.6758   2607.4724  -2583.4724     100.9269     186.6867     147.0526    -999.2500       0.7999    -999.2500       2.8325    -999.2500    -999.2500
   2761.8008   2607.5974  -2583.5974     101.2769     187.0611     155.2260    -999.2500       0.8001    -999.2500       2.8330    -999.2500    -999.2500
   2761.9258   2607.7222  -2583.7222     101.4303     187.2490     153.7678    -999.2500       0.8002    -999.2500       2.8335    -999.2500    -999.2500
