#------------------------------------------------------------------------------
#
#   Created by  : [OpenWorks] Log Export Utility (LEXP)
#   Created on  : 2007-05-07 11:58:15
#   Project     : NORNE
#   User        : JSE
#   Interpreter : JSE
#
#------------------------------------------------------------------------------
~VERSION INFORMATION
VERS. 2.0 : CWLS Log ASCII Standard - version 2.0
WRAP.  NO : One line per depth step
~WELL INFORMATION
#MNEMONIC   .UNIT                                           VALUE :DESCRIPTION
#------------------------------------------------------------------------------
STRT        .M                                           454.5508 :START DEPTH
STOP        .M                                          3169.8008 :STOP DEPTH
STEP        .M                                             0.1250 :STEP
NULL        .                                           -999.2500 :NULL VALUE
COMP        .                                             STATOIL :COMPANY
WELL        .                                       6608/10-F-1 H :WELL
FLD         .                                               NORNE :FIELD
LOC         .                                             UNKNOWN :LOCATION
CNTY        .                                             UNKNOWN :COUNTY
STAT        .                                             UNKNOWN :STATE
CTRY        .                                              Norway :COUNTRY
SRVC        .                                             UNKNOWN :SERVICE COMPANY
DATE        .                                             UNKNOWN :LOG DATE
UWI         .                                    NO 6608/10-F-1 H :UNIQUE WELL ID
XCOORD      .                                       459309.364262 :SURFACE X
YCOORD      .                                      7325355.161830 :SURFACE Y
LAT         .                                           66.044571 :LATITUDE
LON         .                                            8.101919 :LONGITUDE
ELEV        .M                                            24.0000 :SURFACE ELEV
ELEV_TYPE   .                                                  KB :ELEV TYPE
~CURVE INFORMATION
#MNEMONIC.UNIT        API CODE       : CURVE DESCRIPTION
#------------------------------------------------------------------------------
DEPTH    .M                          : Measured Depth
TVD      .M                          : True Vertical Depth (TVD)
TVDSS    .M                          : True Vertical Depth (TVDSS)
DT       .us/ft       UNKNOWN        : DT:UNKNOWN:rC:NONE:v1 
DTS      .us/ft       UNKNOWN        : DTS:UNKNOWN:rC:NONE:v1 
GR       .API         UNKNOWN        : GR:UNKNOWN:rC:NONE:v1 
KLOGH    .mD          UNKNOWN        : KLOGH:UNKNOWN:rC::v0 (auto-composite)
NPHI     .v/v_decimal UNKNOWN        : NPHI:SFINX:rC:NONE:v1 
PHIF     .v/v_decimal UNKNOWN        : PHIF:UNKNOWN:rC::v0 (auto-composite)
RHOB     .g/cm3       UNKNOWN        : RHOB:UNKNOWN:rC:NONE:v1 
SW       .v/v_decimal UNKNOWN        : SW:UNKNOWN:rC::v0 (auto-composite)
VSH      .v/v_decimal UNKNOWN        : VSH:UNKNOWN:rC::v0 (auto-composite)
~A     DEPTH         TVD       TVDSS           DT          DTS           GR        KLOGH         NPHI         PHIF         RHOB           SW          VSH
# ...
   2716.5508   2562.3726  -2538.3726     110.6959     212.8600     158.2630    -999.2500       0.7418    -999.2500       2.6542    -999.2500    -999.2500
   2716.6758   2562.4976  -2538.4976     110.4785     212.4867     164.2446    -999.2500       0.7419    -999.2500       2.6547    -999.2500    -999.2500
   2716.8008   2562.6226  -2538.6226     110.1849     212.2680     164.5600    -999.2500       0.7421    -999.2500       2.6552    -999.2500    -999.2500
   2716.9258   2562.7473  -2538.7473     109.8547     212.1082     172.0021    -999.2500       0.7422    -999.2500       2.6557    -999.2500    -999.2500
   2717.0508   2562.8723  -2538.8723     109.5413     211.8916     170.3300    -999.2500       0.7424    -999.2500       2.6562    -999.2500    -999.2500
   2717.1758   2562.9973  -2538.9973     109.2614     211.5387     164.7686    -999.2500       0.7426    -999.2500       2.6567    -999.2500    -999.2500
   2717.3008   2563.1221  -2539.1221     108.9885     211.0253     177.1048    -999.2500       0.7427    -999.2500       2.6572    -999.2500    -999.2500
   2717.4258   2563.2471  -2539.2471     108.6110     210.4608     177.8843    -999.2500       0.7429    -999.2500       2.6577    -999.2500    -999.2500
   2717.5508   2563.3721  -2539.3721     108.1476     210.0095     157.4278    -999.2500       0.7431    -999.2500       2.6582    -999.2500    -999.2500
   2717.6758   2563.4968  -2539.4968     107.7123     209.6343     148.7740    -999.2500       0.7432    -999.2500       2.6587    -999.2500    -999.2500
   2717.8008   2563.6218  -2539.6218     107.3750     209.2649     151.7657    -999.2500       0.7434    -999.2500       2.6592    -999.2500    -999.2500
   2717.9258   2563.7468  -2539.7468     107.1753     208.8564     155.1584    -999.2500       0.7435    -999.2500       2.6597    -999.2500    -999.2500
   2718.0508   2563.8718  -2539.8718     107.1145     208.4444     144.9102    -999.2500       0.7437    -999.2500       2.6601    -999.2500    -999.2500
   2718.1758   2563.9966  -2539.9966     107.1482     208.2237     143.6744    -999.2500       0.7439    -999.2500       2.6606    -999.2500    -999.2500
   2718.3008   2564.1216  -2540.1216     107.1861     208.2131     154.0926    -999.2500       0.7440    -999.2500       2.6611    -999.2500    -999.2500
   2718.4258   2564.2466  -2540.2466     107.2154     208.3553     153.6463    -999.2500       0.7442    -999.2500       2.6616    -999.2500    -999.2500
   2718.5508   2564.3713  -2540.3713     107.2336     208.5562     144.3677    -999.2500       0.7443    -999.2500       2.6621    -999.2500    -999.2500
   2718.6758   2564.4963  -2540.4963     107.2436     208.7119     144.3262    -999.2500       0.7445    -999.2500       2.6626    -999.2500    -999.2500
   2718.8008   2564.6213  -2540.6213     107.2395     208.7824     153.6062    -999.2500       0.7447    -999.2500       2.6631    -999.2500    -999.2500
   2718.9258   2564.7463  -2540.7463     107.2549     208.9201     159.5828    -999.2500       0.7448    -999.2500       2.6636    -999.2500    -999.2500
   2719.0508   2564.8711  -2540.8711     107.3189     209.1966     163.6303    -999.2500       0.7450    -999.2500       2.6641    -999.2500    -999.2500
   2719.1758   2564.9961  -2540.9961     107.4271     209.6053     171.1599    -999.2500       0.7451    -999.2500       2.6646    -999.2500    -999.2500
   2719.3008   2565.1211  -2541.1211     107.5677     210.0942     182.0812    -999.2500       0.7453    -999.2500       2.6651    -999.2500    -999.2500
   2719.4258   2565.2458  -2541.2458     107.7290     210.5700     185.8400    -999.2500       0.7455    -999.2500       2.6656    -999.2500    -999.2500
   2719.5508   2565.3708  -2541.3708     107.9337     210.8323     163.6538    -999.2500       0.7456    -999.2500       2.6661    -999.2500    -999.2500
   2719.6758   2565.4958  -2541.4958     108.1410     210.8768     161.7203    -999.2500       0.7458    -999.2500       2.6666    -999.2500    -999.2500
   2719.8008   2565.6206  -2541.6206     108.3068     210.7657     160.7654    -999.2500       0.7460    -999.2500       2.6671    -999.2500    -999.2500
   2719.9258   2565.7456  -2541.7456     108.4022     210.5563     159.7046    -999.2500       0.7461    -999.2500       2.6676    -999.2500    -999.2500
   2720.0508   2565.8706  -2541.8706     108.4151     210.3005     163.4615    -999.2500       0.7463    -999.2500       2.6680    -999.2500    -999.2500
   2720.1758   2565.9956  -2541.9956     108.3519     210.0404     153.7139    -999.2500       0.7464    -999.2500       2.6685    -999.2500    -999.2500
   2720.3008   2566.1204  -2542.1204     108.3096     209.8014     146.7717    -999.2500       0.7466    -999.2500       2.6690    -999.2500    -999.2500
   2720.4258   2566.2454  -2542.2454     108.3825     209.5757     146.8681    -999.2500       0.7468    -999.2500       2.6695    -999.2500    -999.2500
   2720.5508   2566.3704  -2542.3704     108.5934     209.3737     148.4321    -999.2500       0.7469    -999.2500       2.6700    -999.2500    -999.2500
   2720.6758   2566.4951  -2542.4951     108.9345     209.2061     148.1937    -999.2500       0.7471    -999.2500       2.6705    -999.2500    -999.2500
   2720.8008   2566.6201  -2542.6201     109.3734     209.0786     148.4943    -999.2500       0.7472    -999.2500       2.6710    -999.2500    -999.2500
   2720.9258   2566.7451  -2542.7451     109.8666     208.9974     160.9298    -999.2500       0.7474    -999.2500       2.6715    -999.2500    -999.2500
   2721.0508   2566.8699  -2542.8699     110.3259     208.9375     156.2508    -999.2500       0.7476    -999.2500       2.6720    -999.2500    -999.2500
   2721.1758   2566.9949  -2542.9949     110.7070     208.8651     145.9428    -999.2500       0.7477    -999.2500       2.6725    -999.2500    -999.2500
   2721.3008   2567.1199  -2543.1199     110.9863     208.7459     140.9288    -999.2500       0.7479    -999.2500       2.6730    -999.2500    -999.2500
   2721.4258   2567.2449  -2543.2449     111.1511     208.5561     145.5343    -999.2500       0.7480    -999.2500       2.6735    -999.2500    -999.2500
   2721.5508   2567.3696  -2543.3696     111.1782     208.3009     143.3962    -999.2500       0.7482    -999.2500       2.6740    -999.2500    -999.2500
   2721.6758   2567.4946  -2543.4946     111.0584     208.0431     147.1562    -999.2500       0.7484    -999.2500       2.6745    -999.2500    -999.2500
   2721.8008   2567.6196  -2543.6196     110.8520     207.8163     156.6836    -999.2500       0.7485    -999.2500       2.6750    -999.2500    -999.2500
   2721.9258   2567.7444  -2543.7444     110.5796     207.6504     154.7770    -999.2500       0.7487    -999.2500       2.6755    -999.2500    -999.2500
   2722.0508   2567.8694  -2543.8694     110.2532     207.5585     148.2799    -999.2500       0.7489    -999.2500       2.6760    -999.2500    -999.2500
   2722.1758   2567.9944  -2543.9944     109.8782     207.5326     163.6790    -999.2500       0.7490    -999.2500       2.6764    -999.2500    -999.2500
   2722.3008   2568.1194  -2544.1194     109.4762     207.5261     135.5886    -999.2500       0.7492    -999.2500       2.6769    -999.2500    -999.2500
   2722.4258   2568.2441  -2544.2441     109.0767     207.4797     149.6776    -999.2500       0.7493    -999.2500       2.6774    -999.2500    -999.2500
   2722.5508   2568.3691  -2544.3691     108.6976     207.3714     156.5840    -999.2500       0.7495    -999.2500       2.6779    -999.2500    -999.2500
   2722.6758   2568.4941  -2544.4941     108.3492     207.2206     153.4498    -999.2500       0.7497    -999.2500       2.6784    -999.2500    -999.2500
   2722.8008   2568.6189  -2544.6189     108.0354     207.0701     149.2955    -999.2500       0.7498    -999.2500       2.6789    -999.2500    -999.2500
   2722.9258   2568.7439  -2544.7439     107.7540     206.9815     143.5939    -999.2500       0.7500    -999.2500       2.6794    -999.2500    -999.2500
