#------------------------------------------------------------------------------
#
#   Created by  : [OpenWorks] Log Export Utility (LEXP)
#   Created on  : 2007-05-07 11:58:04
#   Project     : NORNE
#   User        : JSE
#   Interpreter : JSE
#
#------------------------------------------------------------------------------
~VERSION INFORMATION
VERS. 2.0 : CWLS Log ASCII Standard - version 2.0
WRAP.  NO : One line per depth step
~WELL INFORMATION
#MNEMONIC   .UNIT                                           VALUE :DESCRIPTION
#------------------------------------------------------------------------------
STRT        .M                                           461.1250 :START DEPTH
STOP        .M                                          3010.0000 :STOP DEPTH
STEP        .M                                             0.1250 :STEP
NULL        .                                           -999.2500 :NULL VALUE
COMP        .                                             STATOIL :COMPANY
WELL        .                                       6608/10-E-3 H :WELL
FLD         .                                               NORNE :FIELD
LOC         .                                             UNKNOWN :LOCATION
CNTY        .                                             UNKNOWN :COUNTY
STAT        .                                             UNKNOWN :STATE
CTRY        .                                              Norway :COUNTRY
SRVC        .                                             UNKNOWN :SERVICE COMPANY
DATE        .                                             UNKNOWN :LOG DATE
UWI         .                                    NO 6608/10-E-3 H :UNIQUE WELL ID
XCOORD      .                                       459189.815835 :SURFACE X
YCOORD      .                                      7325451.234448 :SURFACE Y
LAT         .                                           66.045417 :LATITUDE
LON         .                                            8.099250 :LONGITUDE
ELEV        .M                                            22.0000 :SURFACE ELEV
ELEV_TYPE   .                                                  KB :ELEV TYPE
~CURVE INFORMATION
#MNEMONIC.UNIT        API CODE       : CURVE DESCRIPTION
#------------------------------------------------------------------------------
DEPTH    .M                          : Measured Depth
TVD      .M                          : True Vertical Depth (TVD)
TVDSS    .M                          : True Vertical Depth (TVDSS)
DT       .us/ft       UNKNOWN        : DT:DT:rC:NONE:v1 
DTS      .us/ft       UNKNOWN        : DTS:DTS:rC:NONE:v1 
GR       .API         UNKNOWN        : GR:GR:rC:NONE:v1 
KLOGH    .mD          UNKNOWN        : KLOGH:UNKNOWN:rC::v0 (auto-composite)
NPHI     .v/v_decimal UNKNOWN        : NPHI:NPHI:rC:NONE:v1 
PHIF     .v/v_decimal UNKNOWN        : PHIF:UNKNOWN:rC::v0 (auto-composite)
RHOB     .g/cm3       UNKNOWN        : RHOB:RHOB:rC:NONE:v1 
SW       .v/v_decimal UNKNOWN        : SW:UNKNOWN:rC::v0 (auto-composite)
VSH      .v/v_decimal UNKNOWN        : VSH:UNKNOWN:rC::v0 (auto-composite)
~A     DEPTH         TVD       TVDSS           DT          DTS           GR        KLOGH         NPHI         PHIF         RHOB           SW          VSH
# ...
   2820.6250   2728.7283  -2706.7283      91.7807     161.6621      59.7530    4217.3330       0.2570       0.3161       2.1730       1.0000       0.0052
   2820.7500   2728.8474  -2706.8474      91.2613     160.4404      58.3661     146.7666       0.2407       0.2413       2.3001       1.0000       0.0010
   2820.8750   2728.9663  -2706.9663      90.3928     159.2593      56.9021       5.3788       0.2254       0.1676       2.4217       1.0000       0.0010
   2821.0000   2729.0854  -2707.0854      89.9612     158.3544      56.9674       4.6214       0.2206       0.1642       2.4217       1.0000       0.0010
   2821.1250   2729.2043  -2707.2043      89.5634     157.8143      57.2631      48.4305       0.2200       0.2166       2.3233       1.0000       0.0010
   2821.2500   2729.3235  -2707.3235      88.9244     157.6001      56.5003    1068.1163       0.2161       0.2855       2.2079       0.8094       0.0010
   2821.3750   2729.4424  -2707.4424      89.3970     157.5058      56.4724    4442.6577       0.2169       0.3173       2.1660       0.7442       0.0010
   2821.5000   2729.5615  -2707.5615      89.4405     156.9916      57.1723    3323.7339       0.2222       0.3108       2.1819       0.8161       0.0010
   2821.6250   2729.6804  -2707.6804      89.3489     155.6938      54.5318    2442.2678       0.2325       0.3039       2.1936       0.8888       0.0010
   2821.7500   2729.7996  -2707.7996      88.6361     153.3539      51.3085    2567.9478       0.2426       0.3051       2.1917       0.9283       0.0010
   2821.8750   2729.9185  -2707.9185      87.1638     149.8154      50.5027    2179.8057       0.2474       0.3014       2.1979       0.9597       0.0010
   2822.0000   2730.0376  -2708.0376      85.2012     145.0365      53.6380     492.6646       0.2427       0.2683       2.2543       1.0000       0.0010
   2822.1250   2730.1565  -2708.1565      83.3353     138.9688      52.2093      18.2979       0.2233       0.1949       2.3790       1.0000       0.0010
   2822.2500   2730.2756  -2708.2756      80.2740     132.3276      48.0117       1.0213       0.1828       0.1306       2.4881       1.0000       0.0010
   2822.3750   2730.3945  -2708.3945      77.7899     125.7941      46.4076       0.2777       0.1433       0.1016       2.5374       1.0000       0.0010
   2822.5000   2730.5137  -2708.5137      73.9615     119.8478      46.6348       0.2690       0.1155       0.1009       2.5357       1.0000       0.0010
   2822.6250   2730.6326  -2708.6326      68.6671     114.8095      46.9484       0.4735       0.1040       0.1135       2.5106       0.8492       0.0010
   2822.7500   2730.7517  -2708.7517      67.7104     110.8029      47.2392       0.7495       0.1078       0.1237       2.4934       0.6580       0.0010
   2822.8750   2730.8706  -2708.8706      67.5518     107.7947      49.2196       0.9426       0.1202       0.1288       2.4882       0.6523       0.0010
   2823.0000   2730.9897  -2708.9897      66.9913     105.4274      48.6631       1.2313       0.1194       0.1348       2.4802       0.6946       0.0010
   2823.1250   2731.1086  -2709.1086      66.6993     103.7485      48.2464       1.1507       0.1118       0.1332       2.4831       0.7790       0.0010
   2823.2500   2731.2278  -2709.2278      66.8105     102.8531      48.5083       0.7591       0.1018       0.1240       2.4994       0.8678       0.0010
   2823.3750   2731.3467  -2709.3467      67.1044     102.8380      48.4173       0.4112       0.0919       0.1103       2.5226       0.9244       0.0010
   2823.5000   2731.4658  -2709.4658      67.9118     103.8120      47.9283       0.2101       0.0880       0.0953       2.5480       0.9667       0.0010
   2823.6250   2731.5847  -2709.5847      69.2417     105.5383      50.9995       0.4392       0.0939       0.1118       2.5163       0.7936       0.0010
   2823.7500   2731.7039  -2709.7039      70.6880     107.7081      51.5350       1.9403       0.1034       0.1449       2.4541       0.6784       0.0010
   2823.8750   2731.8228  -2709.8228      72.2044     110.0913      50.8050       8.0650       0.1274       0.1766       2.3966       0.6525       0.0010
   2824.0000   2731.9419  -2709.9419      73.4661     112.4382      51.3198      20.1537       0.1647       0.1970       2.3656       0.7228       0.0010
   2824.1250   2732.0608  -2710.0608      73.6320     114.4790      54.9290      34.4487       0.1912       0.2090       2.3550       0.8139       0.0010
   2824.2500   2732.1799  -2710.1799      73.7976     115.7656      55.1119      55.4818       0.1789       0.2196       2.3369       0.8675       0.0010
   2824.3750   2732.2988  -2710.2988      73.4439     116.4585      54.9107      19.3076       0.1705       0.1961       2.3768       1.0000       0.0010
   2824.5000   2732.4180  -2710.4180      72.5367     116.7827      53.2095       3.8192       0.1577       0.1600       2.4382       1.0000       0.0010
   2824.6250   2732.5369  -2710.5369      71.4139     117.0062      50.6184       0.8851       0.1400       0.1274       2.4936       1.0000       0.0010
   2824.7500   2732.6560  -2710.6560      70.5940     117.4248      48.7781       0.4393       0.1241       0.1118       2.5200       1.0000       0.0010
   2824.8750   2732.7749  -2710.7749      70.5629     118.4316      49.8029       1.0403       0.1309       0.1310       2.4815       0.8977       0.0010
   2825.0000   2732.8940  -2710.8940      71.0459     120.3058      50.3844       4.6842       0.1561       0.1645       2.4199       0.7446       0.0010
   2825.1250   2733.0129  -2711.0129      72.9426     123.0698      54.1811      24.3741       0.1816       0.2013       2.3564       0.6700       0.0010
   2825.2500   2733.1318  -2711.1318      75.7418     126.7060      57.8007     119.7034       0.1988       0.2367       2.3010       0.6490       0.0010
   2825.3750   2733.2510  -2711.2510      78.6808     131.0053      59.3484     395.7752       0.2054       0.2634       2.2606       0.6915       0.0010
   2825.5000   2733.3699  -2711.3699      81.0452     135.5462      60.2666     653.0894       0.2053       0.2745       2.2395       0.7363       0.0116
   2825.6250   2733.4890  -2711.4890      83.0686     139.3305      62.0463    1126.4015       0.2034       0.2867       2.2222       0.7463       0.0336
   2825.7500   2733.6079  -2711.6079      84.4767     141.7293      62.1980     992.1177       0.2127       0.2839       2.2277       0.7755       0.0355
   2825.8750   2733.7271  -2711.7271      85.3451     142.7039      61.9112     378.5692       0.2223       0.2624       2.2642       0.8507       0.0320
   2826.0000   2733.8459  -2711.8459      85.6128     142.4241      60.3395     114.6588       0.2225       0.2358       2.3094       0.9494       0.0125
   2826.1250   2733.9651  -2711.9651      85.2683     141.2262      57.0397      57.8727       0.2089       0.2205       2.3353       1.0000       0.0010
   2826.2500   2734.0840  -2712.0840      84.5963     139.5876      55.6120      55.4178       0.1910       0.2196       2.3369       0.9976       0.0010
   2826.3750   2734.2031  -2712.2031      83.6027     137.9836      52.7681      34.6621       0.1919       0.2091       2.3547       1.0000       0.0010
   2826.5000   2734.3220  -2712.3220      83.1629     136.5793      51.2104      45.7877       0.1958       0.2153       2.3441       1.0000       0.0010
   2826.6250   2734.4412  -2712.4412      82.7238     135.4746      53.8946      77.0288       0.1989       0.2269       2.3244       0.9732       0.0010
   2826.7500   2734.5601  -2712.5601      82.1735     134.7211      58.6233      84.5156       0.2049       0.2290       2.3209       0.9863       0.0010
   2826.8750   2734.6792  -2712.6792      81.9466     134.3248      58.6891      37.9333       0.2216       0.2111       2.3512       1.0000       0.0010
   2827.0000   2734.7981  -2712.7981      81.9219     134.3905      53.4682      34.0387       0.2289       0.2087       2.3553       1.0000       0.0010
