#------------------------------------------------------------------------------
#
#   Created by  : [OpenWorks] Log Export Utility (LEXP)
#   Created on  : 2007-05-07 11:58:15
#   Project     : NORNE
#   User        : JSE
#   Interpreter : JSE
#
#------------------------------------------------------------------------------
~VERSION INFORMATION
VERS. 2.0 : CWLS Log ASCII Standard - version 2.0
WRAP.  NO : One line per depth step
~WELL INFORMATION
#MNEMONIC   .UNIT                                           VALUE :DESCRIPTION
#------------------------------------------------------------------------------
STRT        .M                                           454.5508 :START DEPTH
STOP        .M                                          3169.8008 :STOP DEPTH
STEP        .M                                             0.1250 :STEP
NULL        .                                           -999.2500 :NULL VALUE
COMP        .                                             STATOIL :COMPANY
WELL        .                                       6608/10-F-1 H :WELL
FLD         .                                               NORNE :FIELD
LOC         .                                             UNKNOWN :LOCATION
CNTY        .                                             UNKNOWN :COUNTY
STAT        .                                             UNKNOWN :STATE
CTRY        .                                              Norway :COUNTRY
SRVC        .                                             UNKNOWN :SERVICE COMPANY
DATE        .                                             UNKNOWN :LOG DATE
UWI         .                                    NO 6608/10-F-1 H :UNIQUE WELL ID
XCOORD      .                                       459309.364262 :SURFACE X
YCOORD      .                                      7325355.161830 :SURFACE Y
LAT         .                                           66.044571 :LATITUDE
LON         .                                            8.101919 :LONGITUDE
ELEV        .M                                            24.0000 :SURFACE ELEV
ELEV_TYPE   .                                                  KB :ELEV TYPE
~CURVE INFORMATION
#MNEMONIC.UNIT        API CODE       : CURVE DESCRIPTION
#------------------------------------------------------------------------------
DEPTH    .M                          : Measured Depth
TVD      .M                          : True Vertical Depth (TVD)
TVDSS    .M                          : True Vertical Depth (TVDSS)
DT       .us/ft       UNKNOWN        : DT:UNKNOWN:rC:NONE:v1 
DTS      .us/ft       UNKNOWN        : DTS:UNKNOWN:rC:NONE:v1 
GR       .API         UNKNOWN        : GR:UNKNOWN:rC:NONE:v1 
KLOGH    .mD          UNKNOWN        : KLOGH:UNKNOWN:rC::v0 (auto-composite)
NPHI     .v/v_decimal UNKNOWN        : NPHI:SFINX:rC:NONE:v1 
PHIF     .v/v_decimal UNKNOWN        : PHIF:UNKNOWN:rC::v0 (auto-composite)
RHOB     .g/cm3       UNKNOWN        : RHOB:UNKNOWN:rC:NONE:v1 
SW       .v/v_decimal UNKNOWN        : SW:UNKNOWN:rC::v0 (auto-composite)
VSH      .v/v_decimal UNKNOWN        : VSH:UNKNOWN:rC::v0 (auto-composite)
~A     DEPTH         TVD       TVDSS           DT          DTS           GR        KLOGH         NPHI         PHIF         RHOB           SW          VSH
# ...
   2996.0508   2841.7551  -2817.7551      85.1841     149.6268      41.3377     262.0844       0.2257       0.2545       2.2487       1.0000       0.0269
   2996.1758   2841.8801  -2817.8801      85.1849     149.6646      42.0385     317.1646       0.2289       0.2582       2.2405       1.0000       0.0407
   2996.3008   2842.0051  -2818.0051      85.2440     149.9483      43.8606     352.1893       0.2320       0.2591       2.2323       1.0000       0.0607
   2996.4258   2842.1301  -2818.1301      85.3230     150.3865      45.5438     284.6870       0.2331       0.2573       2.2476       1.0000       0.0828
   2996.5508   2842.2551  -2818.2551      85.4250     150.9150      47.8858     318.5389       0.2333       0.2604       2.2437       1.0000       0.1103
   2996.6758   2842.3801  -2818.3801      85.5622     151.4777      49.6259     560.7941       0.2364       0.2688       2.2177       1.0000       0.1293
   2996.8008   2842.5049  -2818.5049      85.7492     152.0316      47.8475     687.1630       0.2470       0.2755       2.2100       1.0000       0.1130
   2996.9258   2842.6299  -2818.6299      85.9753     152.5199      46.4797     748.1847       0.2576       0.2777       2.2100       1.0000       0.0955
   2997.0508   2842.7549  -2818.7549      86.1818     152.9146      45.4254     870.5988       0.2579       0.2813       2.2031       1.0000       0.0753
   2997.1758   2842.8799  -2818.8799      86.3377     153.2160      41.9420    1086.3229       0.2562       0.2852       2.1949       1.0000       0.0337
   2997.3008   2843.0049  -2819.0049      86.4334     153.4314      38.4945    1232.2649       0.2556       0.2888       2.1900       1.0000       0.0022
   2997.4258   2843.1299  -2819.1299      86.4749     153.5773      38.2549    1438.1509       0.2566       0.2921       2.1871       1.0000       0.0060
   2997.5508   2843.2549  -2819.2549      86.4856     153.6781      41.9439    1791.8898       0.2576       0.2968       2.1706       1.0000       0.0137
   2997.6758   2843.3796  -2819.3796      86.4521     153.7530      38.2797    1720.3877       0.2515       0.2953       2.1779       1.0000       0.0061
   2997.8008   2843.5046  -2819.5046      86.3669     153.7726      37.3975    1391.4185       0.2451       0.2919       2.1861       1.0000       0.0022
   2997.9258   2843.6296  -2819.6296      86.2437     153.7099      38.5732    1233.1730       0.2433       0.2895       2.1900       1.0000       0.0041
   2998.0508   2843.7546  -2819.7546      86.1082     153.5543      39.7810    1233.1356       0.2455       0.2890       2.1900       1.0000       0.0066
   2998.1758   2843.8796  -2819.8796      85.9919     153.3112      38.9197    1314.2349       0.2471       0.2899       2.1893       1.0000       0.0018
   2998.3008   2844.0046  -2820.0046      85.9215     152.9885      37.2729    1334.4974       0.2425       0.2896       2.1811       1.0000       0.0011
   2998.4258   2844.1296  -2820.1296      85.8836     152.5936      38.9792    1014.9067       0.2379       0.2845       2.2013       1.0000       0.0042
   2998.5508   2844.2544  -2820.2544      85.8556     152.1487      39.5734     832.3339       0.2354       0.2819       2.2047       1.0000       0.0043
   2998.6758   2844.3794  -2820.3794      85.8284     151.6893      39.1112     941.2739       0.2340       0.2819       2.2000       1.0000       0.0025
   2998.8008   2844.5044  -2820.5044      85.7993     151.2643      38.2589     941.2465       0.2333       0.2829       2.2000       1.0000       0.0010
   2998.9258   2844.6294  -2820.6294      85.7720     150.9320      36.7290     993.8049       0.2351       0.2839       2.2000       1.0000       0.0010
   2999.0508   2844.7544  -2820.7544      85.7347     150.7382      35.1299    1136.5244       0.2368       0.2866       2.1919       1.0000       0.0010
   2999.1758   2844.8794  -2820.8794      85.6666     150.5396      35.6826    1217.1208       0.2374       0.2873       2.1900       1.0000       0.0010
   2999.3008   2845.0044  -2821.0044      85.5534     150.2520      37.5829    1097.8297       0.2376       0.2852       2.1945       1.0000       0.0010
   2999.4258   2845.1292  -2821.1292      85.3948     149.8289      38.1323     879.7734       0.2369       0.2811       2.2027       1.0000       0.0010
   2999.5508   2845.2542  -2821.2542      85.2053     149.2725      35.4024     705.0280       0.2343       0.2760       2.2109       1.0000       0.0010
   2999.6758   2845.3792  -2821.3792      85.0226     148.6770      37.5972     544.5831       0.2316       0.2701       2.2191       1.0000       0.0010
   2999.8008   2845.5042  -2821.5042      84.8946     148.2109      40.0623     392.4615       0.2290       0.2636       2.2346       1.0000       0.0098
   2999.9258   2845.6292  -2821.6292      84.8650     147.9506      40.0173     319.6586       0.2288       0.2599       2.2400       1.0000       0.0073
   3000.0508   2845.7542  -2821.7542      84.9686     147.9665      39.3145     319.6503       0.2300       0.2586       2.2400       1.0000       0.0027
   3000.1758   2845.8792  -2821.8792      85.2341     148.3096      39.4382     319.6402       0.2313       0.2586       2.2400       1.0000       0.0032
   3000.3008   2846.0039  -2822.0039      85.6720     148.9870      40.0100     319.6315       0.2334       0.2586       2.2400       1.0000       0.0050
   3000.4258   2846.1289  -2822.1289      86.3778     150.1295      37.9417     331.3331       0.2342       0.2598       2.2400       1.0000       0.0017
   3000.5508   2846.2539  -2822.2539      87.2114     151.5173      39.3208     383.5167       0.2351       0.2631       2.2335       1.0000       0.0062
   3000.6758   2846.3789  -2822.3789      88.1079     153.0579      39.3346     478.5415       0.2387       0.2687       2.2253       1.0000       0.0064
   3000.8008   2846.5039  -2822.5039      88.9965     154.6505      40.2986     741.2209       0.2443       0.2766       2.2112       1.0000       0.0174
   3000.9258   2846.6289  -2822.6289      89.8167     156.2012      44.5097    1113.1432       0.2491       0.2853       2.1900       1.0000       0.0484
   3001.0508   2846.7539  -2822.7539      90.5216     157.6092      40.0584    1232.2283       0.2482       0.2884       2.1900       1.0000       0.0332
   3001.1758   2846.8789  -2822.8789      91.0799     158.7787      43.0571    1200.6449       0.2473       0.2877       2.1900       1.0000       0.0482
   3001.3008   2847.0037  -2823.0037      91.5157     159.7215      44.2194    1080.5139       0.2450       0.2869       2.1957       1.0000       0.0608
   3001.4258   2847.1287  -2823.1287      91.8338     160.4482      45.2531    1192.3678       0.2421       0.2888       2.1921       1.0000       0.0761
   3001.5508   2847.2537  -2823.2537      92.0381     160.9699      46.3980    1554.5024       0.2402       0.2927       2.1800       1.0000       0.0880
   3001.6758   2847.3787  -2823.3787      92.1325     161.2940      45.0311    1613.7864       0.2413       0.2947       2.1800       1.0000       0.0759
   3001.8008   2847.5037  -2823.5037      92.1219     161.4105      43.9398    1613.7357       0.2425       0.2947       2.1800       1.0000       0.0708
   3001.9258   2847.6287  -2823.6287      92.0206     161.4087      45.9987    1613.6860       0.2408       0.2947       2.1800       1.0000       0.0845
   3002.0508   2847.7537  -2823.7537      91.8215     161.3175      45.9471    1613.6350       0.2385       0.2947       2.1800       1.0000       0.0818
   3002.1758   2847.8784  -2823.8784      91.5334     161.1590      44.9462    1613.5833       0.2372       0.2951       2.1800       1.0000       0.0740
   3002.3008   2848.0034  -2824.0034      91.1835     160.9529      45.3742    1733.5769       0.2373       0.2965       2.1786       1.0000       0.0801
   3002.4258   2848.1284  -2824.1284      90.8249     160.7117      46.0437    1992.0229       0.2376       0.2992       2.1704       1.0000       0.0899
