#------------------------------------------------------------------------------
#
#   Created by  : [OpenWorks] Log Export Utility (LEXP)
#   Created on  : 2007-05-07 11:57:13
#   Project     : NORNE
#   User        : JSE
#   Interpreter : JSE
#
#------------------------------------------------------------------------------
~VERSION INFORMATION
VERS. 2.0 : CWLS Log ASCII Standard - version 2.0
WRAP.  NO : One line per depth step
~WELL INFORMATION
#MNEMONIC   .UNIT                                           VALUE :DESCRIPTION
#------------------------------------------------------------------------------
STRT        .M                                          1325.1250 :START DEPTH
STOP        .M                                          3789.8750 :STOP DEPTH
STEP        .M                                             0.1250 :STEP
NULL        .                                           -999.2500 :NULL VALUE
COMP        .                                             STATOIL :COMPANY
WELL        .                                       6608/10-C-3 H :WELL
FLD         .                                               NORNE :FIELD
LOC         .                                             UNKNOWN :LOCATION
CNTY        .                                             UNKNOWN :COUNTY
STAT        .                                             UNKNOWN :STATE
CTRY        .                                              Norway :COUNTRY
SRVC        .                                             UNKNOWN :SERVICE COMPANY
DATE        .                                             UNKNOWN :LOG DATE
UWI         .                                    NO 6608/10-C-3 H :UNIQUE WELL ID
XCOORD      .                                       457175.596094 :SURFACE X
YCOORD      .                                      7322029.604515 :SURFACE Y
LAT         .                                           66.014460 :LATITUDE
LON         .                                            8.055937 :LONGITUDE
ELEV        .M                                            22.0000 :SURFACE ELEV
ELEV_TYPE   .                                                  KB :ELEV TYPE
~CURVE INFORMATION
#MNEMONIC.UNIT        API CODE       : CURVE DESCRIPTION
#------------------------------------------------------------------------------
DEPTH    .M                          : Measured Depth
TVD      .M                          : True Vertical Depth (TVD)
TVDSS    .M                          : True Vertical Depth (TVDSS)
DT       .us/ft       UNKNOWN        : DT:UNKNOWN:rC:NONE:v1 
DTS      .us/ft       UNKNOWN        : DTS:UNKNOWN:rC:NONE:v1 
GR       .API         UNKNOWN        : GR:UNKNOWN:rC:NONE:v1 
KLOGH    .mD          UNKNOWN        : KLOGH:UNKNOWN:rC::v0 (auto-composite)
NPHI     .v/v_decimal UNKNOWN        : NPHI:UNKNOWN:rC:NONE:v1 
PHIF     .v/v_decimal UNKNOWN        : PHIF:UNKNOWN:rC::v0 (auto-composite)
RHOB     .g/cm3       UNKNOWN        : RHOB:UNKNOWN:rC:NONE:v1 
SW       .v/v_decimal UNKNOWN        : SW:UNKNOWN:rC::v0 (auto-composite)
VSH      .v/v_decimal UNKNOWN        : VSH:UNKNOWN:rC::v0 (auto-composite)
~A     DEPTH         TVD       TVDSS           DT          DTS           GR        KLOGH         NPHI         PHIF         RHOB           SW          VSH
# ...
   3483.1250   2715.3616  -2693.3616      90.0658     159.2483      69.4446       2.2677       0.1826       0.1885       2.3411       0.8375       0.1253
   3483.2500   2715.4829  -2693.4829      89.3569     158.6887      71.8987       0.4763       0.2106       0.1615       2.3854       0.9641       0.1558
   3483.3750   2715.6042  -2693.6042      88.7533     158.2605      67.4108       0.6658       0.2061       0.1673       2.3759       0.9188       0.1002
   3483.5000   2715.7256  -2693.7256      88.3218     157.9338      68.1048       0.2987       0.1943       0.1534       2.3987       0.9870       0.1087
   3483.6250   2715.8472  -2693.8472      88.0810     157.7111      71.8175       0.7232       0.2073       0.1687       2.3736       0.9017       0.1548
   3483.7500   2715.9685  -2693.9685      88.0246     157.5881      74.9293       2.2066       0.2336       0.1880       2.3419       0.8167       0.1933
   3483.8750   2716.0898  -2694.0898      88.1260     157.5553      74.7454       0.2815       0.2346       0.1524       2.4003       0.9956       0.1910
   3484.0000   2716.2112  -2694.2112      88.3533     157.6160      79.2443      13.5204       0.2297       0.2194       2.2904       0.7187       0.2468
   3484.1250   2716.3325  -2694.3325      88.6454     157.7645      75.7839       6.9153       0.2133       0.2078       2.3095       0.7477       0.2039
   3484.2500   2716.4539  -2694.4539      88.9629     157.9880      73.9422       3.0641       0.2253       0.1937       2.3326       0.7958       0.1811
   3484.3750   2716.5752  -2694.5752      89.2725     158.2670      73.2684       2.6445       0.2351       0.1912       2.3368       0.8163       0.1727
   3484.5000   2716.6965  -2694.6965      89.5414     158.5654      71.8541       3.6503       0.2195       0.1967       2.3276       0.8176       0.1552
   3484.6250   2716.8179  -2694.8179      89.7390     158.8300      69.4370       4.5994       0.2016       0.2007       2.3210       0.8300       0.1255
   3484.7500   2716.9392  -2694.9392      89.8163     158.9472      74.9086       8.9074       0.2091       0.2122       2.3023       0.7919       0.1930
   3484.8750   2717.0605  -2695.0605      89.8143     158.9328      73.0236       5.7989       0.1915       0.2048       2.3145       0.8239       0.1697
   3485.0000   2717.1819  -2695.1819      89.7417     158.8036      76.5975       3.8889       0.2025       0.1978       2.3258       0.8466       0.2141
   3485.1250   2717.3035  -2695.3035      89.6085     158.5819      78.8234       3.3981       0.2226       0.1955       2.3296       0.8407       0.2416
   3485.2500   2717.4248  -2695.4248      89.4233     158.2902      68.8672       3.5690       0.2048       0.1964       2.3282       0.8180       0.1181
   3485.3750   2717.5461  -2695.5461      89.1829     157.9447      80.5062      20.7973       0.2042       0.2269       2.2782       0.7055       0.2624
   3485.5000   2717.6675  -2695.6675      88.9027     157.5567      79.1428       1.3075       0.2003       0.1790       2.3567       0.8587       0.2456
   3485.6250   2717.7888  -2695.7888      88.6086     157.1392      75.4665       0.6792       0.2154       0.1676       2.3754       0.9061       0.2000
   3485.7500   2717.9102  -2695.9102      88.3177     156.6900      73.2691       1.9785       0.2305       0.1861       2.3450       0.8291       0.1728
   3485.8750   2718.0315  -2696.0315      88.0416     156.1978      72.4142       6.4239       0.2250       0.2065       2.3116       0.7639       0.1622
   3486.0000   2718.1528  -2696.1528      87.7839     155.6414      68.9192       5.0481       0.1898       0.2024       2.3184       0.7848       0.1188
   3486.1250   2718.2742  -2696.2742      87.5205     154.9940      73.6411       2.3815       0.2063       0.1893       2.3397       0.8301       0.1774
   3486.2500   2718.3955  -2696.3955      87.2426     154.3131      68.1584       1.4825       0.2406       0.1811       2.3532       0.8542       0.1093
   3486.3750   2718.5168  -2696.5168      86.9667     153.6612      69.4176       1.4550       0.2432       0.1808       2.3537       0.8431       0.1250
   3486.5000   2718.6384  -2696.6384      86.7153     153.1274      76.1010       1.7179       0.2207       0.1837       2.3490       0.8163       0.2079
   3486.6250   2718.7600  -2696.7600      86.5179     152.8271      79.1817       1.3208       0.2053       0.1791       2.3565       0.8200       0.2461
   3486.7500   2718.8813  -2696.8813      86.4260     152.9608      74.5926       0.2078       0.2187       0.1471       2.4090       0.9833       0.1892
   3486.8750   2719.0029  -2697.0029      86.5494     153.8071      78.4531       1.0200       0.1802       0.1747       2.3638       0.8392       0.2370
   3487.0000   2719.1245  -2697.1245      86.9728     155.3389      72.1162       8.8685       0.1825       0.2121       2.3024       0.7171       0.1584
   3487.1250   2719.2461  -2697.2461      87.7623     157.5179      62.5785      15.7543       0.2111       0.2221       2.2861       0.7324       0.0402
   3487.2500   2719.3674  -2697.3674      88.9405     160.2531      58.3567      14.2522       0.2354       0.2203       2.2889       0.8145       0.0010
   3487.3750   2719.4890  -2697.4890      90.4746     163.4012      64.5299     294.7823       0.2276       0.2728       2.2029       0.7199       0.0644
   3487.5000   2719.6106  -2697.6106      92.2362     166.7120      66.9605   10000.0000       0.2347       0.3376       2.1365       0.6283       0.0946
   3487.6250   2719.7322  -2697.7322      93.9435     169.7937      63.8085   10000.0000       0.2592       0.3396       2.1331       0.6795       0.0555
   3487.7500   2719.8535  -2697.8535      95.4427     172.4087      56.6550   10000.0000       0.2400       0.3429       2.1275       0.7117       0.0010
   3487.8750   2719.9751  -2697.9751      96.6245     174.3880      54.7540   10000.0000       0.2273       0.3479       2.1190       0.7265       0.0010
   3488.0000   2720.0967  -2698.0967      97.4062     175.6159      61.7417   10000.0000       0.2706       0.3453       2.1235       0.7630       0.0299
   3488.1250   2720.2183  -2698.2183      97.7016     175.9916      57.7554   10000.0000       0.3041       0.3366       2.1383       0.8006       0.0010
   3488.2500   2720.3396  -2698.3396      97.4077     175.4254      55.6308    1692.1156       0.2312       0.2958       2.2075       0.8994       0.0010
   3488.3750   2720.4612  -2698.4612      96.6790     174.1102      57.8804     488.8610       0.2253       0.2681       2.2546       0.9748       0.0010
   3488.5000   2720.5828  -2698.5828      95.5893     172.0834      60.2822      89.7248       0.2442       0.2303       2.3188       1.0000       0.0118
   3488.6250   2720.7043  -2698.7043      94.2476     169.4726      58.9777      39.9568       0.2517       0.2123       2.3493       1.0000       0.0010
   3488.7500   2720.8257  -2698.8257      92.7985     166.5067      52.4199     624.9411       0.2382       0.2736       2.2453       0.8626       0.0010
   3488.8750   2720.9473  -2698.9473      91.4718     163.6062      50.9773     810.5012       0.2525       0.2794       2.2354       0.8172       0.0010
   3489.0000   2721.0688  -2699.0688      90.4376     161.1778      55.0113     153.3746       0.2342       0.2423       2.2984       0.9247       0.0010
   3489.1250   2721.1904  -2699.1904      89.7311     159.3747      56.5077      49.7054       0.2346       0.2172       2.3411       1.0000       0.0010
   3489.2500   2721.3118  -2699.3118      89.3966     158.3118      57.4971      53.5348       0.2376       0.2188       2.3383       0.9982       0.0010
   3489.3750   2721.4333  -2699.4333      89.4688     158.0594      58.7344     153.4745       0.2299       0.2423       2.2984       0.9036       0.0010
   3489.5000   2721.5549  -2699.5549      89.9849     158.6699      52.4454     424.9199       0.2444       0.2650       2.2599       0.8129       0.0010
