#------------------------------------------------------------------------------
#
#   Created by  : [OpenWorks] Log Export Utility (LEXP)
#   Created on  : 2007-05-07 11:58:15
#   Project     : NORNE
#   User        : JSE
#   Interpreter : JSE
#
#------------------------------------------------------------------------------
~VERSION INFORMATION
VERS. 2.0 : CWLS Log ASCII Standard - version 2.0
WRAP.  NO : One line per depth step
~WELL INFORMATION
#MNEMONIC   .UNIT                                           VALUE :DESCRIPTION
#------------------------------------------------------------------------------
STRT        .M                                           454.5508 :START DEPTH
STOP        .M                                          3169.8008 :STOP DEPTH
STEP        .M                                             0.1250 :STEP
NULL        .                                           -999.2500 :NULL VALUE
COMP        .                                             STATOIL :COMPANY
WELL        .                                       6608/10-F-1 H :WELL
FLD         .                                               NORNE :FIELD
LOC         .                                             UNKNOWN :LOCATION
CNTY        .                                             UNKNOWN :COUNTY
STAT        .                                             UNKNOWN :STATE
CTRY        .                                              Norway :COUNTRY
SRVC        .                                             UNKNOWN :SERVICE COMPANY
DATE        .                                             UNKNOWN :LOG DATE
UWI         .                                    NO 6608/10-F-1 H :UNIQUE WELL ID
XCOORD      .                                       459309.364262 :SURFACE X
YCOORD      .                                      7325355.161830 :SURFACE Y
LAT         .                                           66.044571 :LATITUDE
LON         .                                            8.101919 :LONGITUDE
ELEV        .M                                            24.0000 :SURFACE ELEV
ELEV_TYPE   .                                                  KB :ELEV TYPE
~CURVE INFORMATION
#MNEMONIC.UNIT        API CODE       : CURVE DESCRIPTION
#------------------------------------------------------------------------------
DEPTH    .M                          : Measured Depth
TVD      .M                          : True Vertical Depth (TVD)
TVDSS    .M                          : True Vertical Depth (TVDSS)
DT       .us/ft       UNKNOWN        : DT:UNKNOWN:rC:NONE:v1 
DTS      .us/ft       UNKNOWN        : DTS:UNKNOWN:rC:NONE:v1 
GR       .API         UNKNOWN        : GR:UNKNOWN:rC:NONE:v1 
KLOGH    .mD          UNKNOWN        : KLOGH:UNKNOWN:rC::v0 (auto-composite)
NPHI     .v/v_decimal UNKNOWN        : NPHI:SFINX:rC:NONE:v1 
PHIF     .v/v_decimal UNKNOWN        : PHIF:UNKNOWN:rC::v0 (auto-composite)
RHOB     .g/cm3       UNKNOWN        : RHOB:UNKNOWN:rC:NONE:v1 
SW       .v/v_decimal UNKNOWN        : SW:UNKNOWN:rC::v0 (auto-composite)
VSH      .v/v_decimal UNKNOWN        : VSH:UNKNOWN:rC::v0 (auto-composite)
~A     DEPTH         TVD       TVDSS           DT          DTS           GR        KLOGH         NPHI         PHIF         RHOB           SW          VSH
# ...
   2957.0508   2802.7666  -2778.7666      85.1898     148.3720      48.2033      37.3543       0.2494       0.1657       2.3866       1.0000       0.1177
   2957.1758   2802.8916  -2778.8916      85.9828     149.8304      51.7306      39.9371       0.2598       0.1666       2.4092       1.0000       0.1459
   2957.3008   2803.0164  -2779.0164      87.1207     152.1234      48.0162      82.9134       0.2704       0.1886       2.3928       1.0000       0.1122
   2957.4258   2803.1414  -2779.1414      88.3261     154.7545      42.7447     261.2397       0.2778       0.2220       2.3355       0.9941       0.0532
   2957.5508   2803.2664  -2779.2664      89.4185     157.3123      38.0113     684.8612       0.2845       0.2501       2.2850       0.9526       0.0146
   2957.6758   2803.3914  -2779.3914      90.2549     159.4945      35.9192     897.1633       0.2857       0.2641       2.2664       0.9246       0.0010
   2957.8008   2803.5164  -2779.5164      90.7194     161.0431      36.8856     738.2663       0.2785       0.2636       2.2772       0.9526       0.0010
   2957.9258   2803.6414  -2779.6414      90.7047     161.6763      36.9586     759.3332       0.2712       0.2633       2.2608       0.9581       0.0010
   2958.0508   2803.7661  -2779.7661      90.0526     160.9834      34.8207     637.6667       0.2718       0.2568       2.2287       0.9814       0.0010
   2958.1758   2803.8911  -2779.8911      88.9708     159.2141      36.5005     477.9436       0.2727       0.2512       2.2019       1.0000       0.0010
   2958.3008   2804.0161  -2780.0161      87.6396     156.6518      39.2058     504.4387       0.2656       0.2498       2.1858       0.9991       0.0099
   2958.4258   2804.1411  -2780.1411      86.2660     153.7236      39.4690     544.3749       0.2510       0.2470       2.2115       0.9986       0.0168
   2958.5508   2804.2661  -2780.2661      85.0614     150.9441      35.2973     320.3038       0.2380       0.2312       2.3100       1.0000       0.0010
   2958.6758   2804.3911  -2780.3911      84.2795     148.9503      37.4019     124.0564       0.2462       0.1964       2.3100       1.0000       0.0010
   2958.8008   2804.5159  -2780.5159      83.9485     147.9393      37.5669      33.2759       0.2544       0.1567       2.3733       1.0000       0.0010
   2958.9258   2804.6409  -2780.6409      83.9854     147.7195      37.8490      10.5254       0.2602       0.1316       2.4262       1.0000       0.0010
   2959.0508   2804.7659  -2780.7659      84.3149     148.1277      37.2512      11.4364       0.2647       0.1316       2.4363       1.0000       0.0013
   2959.1758   2804.8909  -2780.8909      84.8507     148.9867      36.4439      38.9455       0.2683       0.1590       2.3937       1.0000       0.0097
   2959.3008   2805.0159  -2781.0159      85.5101     150.1385      41.1118     172.6775       0.2686       0.2053       2.3116       1.0000       0.0488
   2959.4258   2805.1406  -2781.1406      86.1505     151.3001      51.4489     299.2722       0.2689       0.2224       2.2617       1.0000       0.1360
   2959.5508   2805.2656  -2781.2656      86.6280     152.1826      51.9265     179.1060       0.2703       0.2040       2.2562       1.0000       0.1633
   2959.6758   2805.3906  -2781.3906      86.8738     152.6467      53.8860      48.0250       0.2720       0.1825       2.2644       1.0000       0.1981
   2959.8008   2805.5156  -2781.5156      86.8698     152.6541      56.7078      48.3472       0.2745       0.1760       2.2726       1.0000       0.2263
   2959.9258   2805.6406  -2781.6406      86.6502     152.2603      53.5357      89.3095       0.2785       0.1895       2.2808       1.0000       0.1970
   2960.0508   2805.7656  -2781.7656      86.3236     151.6064      53.2912     265.7806       0.2826       0.2223       2.2891       0.9996       0.1894
   2960.1758   2805.8906  -2781.8906      86.0551     150.9865      54.0899     385.1780       0.2808       0.2339       2.2973       0.9993       0.1947
   2960.3008   2806.0154  -2782.0154      85.8931     150.5679      54.4020     271.5869       0.2781       0.2260       2.3055       1.0000       0.1976
   2960.4258   2806.1404  -2782.1404      85.8654     150.4496      53.1871     157.0969       0.2784       0.2101       2.3173       1.0000       0.1886
   2960.5508   2806.2654  -2782.2654      85.9995     150.7177      52.2528     105.0079       0.2823       0.2029       2.3263       1.0000       0.1772
   2960.6758   2806.3904  -2782.3904      86.3260     151.4480      57.4020     243.4369       0.2861       0.2227       2.3100       1.0000       0.1988
   2960.8008   2806.5154  -2782.5154      86.9024     152.7942      49.4875     483.5504       0.2926       0.2462       2.2852       1.0000       0.1423
   2960.9258   2806.6401  -2782.6401      87.5772     154.4142      45.3786     803.9913       0.2991       0.2648       2.2671       0.9891       0.0926
   2961.0508   2806.7651  -2782.7651      88.2679     156.1112      43.6779    1416.6976       0.3048       0.2809       2.2460       0.9533       0.0660
   2961.1758   2806.8901  -2782.8901      88.9199     157.7137      43.5157    1977.0356       0.3099       0.2928       2.2243       0.9300       0.0596
   2961.3008   2807.0151  -2783.0151      89.5062     159.0973      43.6631    2152.8628       0.3138       0.2981       2.2068       0.9369       0.0578
   2961.4258   2807.1401  -2783.1401      90.0199     160.1927      40.0643    2433.1902       0.3104       0.3016       2.1822       0.9385       0.0375
   2961.5508   2807.2651  -2783.2651      90.4295     160.9932      41.5771    2281.9539       0.3070       0.2981       2.1725       0.9580       0.0431
   2961.6758   2807.3899  -2783.3899      90.7107     161.5366      42.4294    1711.3810       0.3010       0.2923       2.1757       0.9875       0.0499
   2961.8008   2807.5149  -2783.5149      90.8640     161.8055      42.1621    1612.0913       0.2940       0.2919       2.1839       0.9977       0.0468
   2961.9258   2807.6399  -2783.6399      90.9179     161.8045      41.5350    2286.7334       0.2892       0.2986       2.1858       0.9848       0.0353
   2962.0508   2807.7649  -2783.7649      90.9255     161.5681      41.7409    2717.3489       0.2912       0.3056       2.1697       0.9713       0.0297
   2962.1758   2807.8899  -2783.8899      90.9386     161.1734      38.9495    2669.3538       0.2931       0.3049       2.1615       0.9757       0.0205
   2962.3008   2808.0149  -2784.0149      90.9410     160.7520      42.0947    2502.6230       0.2904       0.3032       2.1600       0.9826       0.0400
   2962.4258   2808.1396  -2784.1396      90.8955     160.3396      42.1816    2391.8108       0.2866       0.3003       2.1893       0.9862       0.0356
   2962.5508   2808.2646  -2784.2646      90.7852     159.9368      40.2654    2035.2627       0.2841       0.2944       2.2200       0.9932       0.0207
   2962.6758   2808.3896  -2784.3896      90.6088     159.5253      40.5296    1443.4259       0.2837       0.2846       2.2200       1.0000       0.0252
   2962.8008   2808.5146  -2784.5146      90.3799     159.0724      43.7887    1045.2166       0.2834       0.2742       2.2200       1.0000       0.0441
   2962.9258   2808.6396  -2784.6396      90.0939     158.5617      41.2285     892.0966       0.2876       0.2729       2.2200       1.0000       0.0316
   2963.0508   2808.7646  -2784.7646      89.7575     158.0005      40.3570    1485.5100       0.2921       0.2837       2.2082       0.9862       0.0228
   2963.1758   2808.8894  -2784.8894      89.4005     157.4040      40.5617    2290.7932       0.2960       0.2948       2.1959       0.9635       0.0249
   2963.3008   2809.0144  -2785.0144      89.0605     156.8137      41.7942    2253.7466       0.2993       0.2986       2.1831       0.9592       0.0444
   2963.4258   2809.1394  -2785.1394      88.7777     156.2931      45.0253    1944.3965       0.3017       0.2936       2.1620       0.9697       0.0867
