#------------------------------------------------------------------------------
#
#   Created by  : [OpenWorks] Log Export Utility (LEXP)
#   Created on  : 2007-05-07 11:57:13
#   Project     : NORNE
#   User        : JSE
#   Interpreter : JSE
#
#------------------------------------------------------------------------------
~VERSION INFORMATION
VERS. 2.0 : CWLS Log ASCII Standard - version 2.0
WRAP.  NO : One line per depth step
~WELL INFORMATION
#MNEMONIC   .UNIT                                           VALUE :DESCRIPTION
#------------------------------------------------------------------------------
STRT        .M                                          1325.1250 :START DEPTH
STOP        .M                                          3789.8750 :STOP DEPTH
STEP        .M                                             0.1250 :STEP
NULL        .                                           -999.2500 :NULL VALUE
COMP        .                                             STATOIL :COMPANY
WELL        .                                       6608/10-C-3 H :WELL
FLD         .                                               NORNE :FIELD
LOC         .                                             UNKNOWN :LOCATION
CNTY        .                                             UNKNOWN :COUNTY
STAT        .                                             UNKNOWN :STATE
CTRY        .                                              Norway :COUNTRY
SRVC        .                                             UNKNOWN :SERVICE COMPANY
DATE        .                                             UNKNOWN :LOG DATE
UWI         .                                    NO 6608/10-C-3 H :UNIQUE WELL ID
XCOORD      .                                       457175.596094 :SURFACE X
YCOORD      .                                      7322029.604515 :SURFACE Y
LAT         .                                           66.014460 :LATITUDE
LON         .                                            8.055937 :LONGITUDE
ELEV        .M                                            22.0000 :SURFACE ELEV
ELEV_TYPE   .                                                  KB :ELEV TYPE
~CURVE INFORMATION
#MNEMONIC.UNIT        API CODE       : CURVE DESCRIPTION
#------------------------------------------------------------------------------
DEPTH    .M                          : Measured Depth
TVD      .M                          : True Vertical Depth (TVD)
TVDSS    .M                          : True Vertical Depth (TVDSS)
DT       .us/ft       UNKNOWN        : DT:UNKNOWN:rC:NONE:v1 
DTS      .us/ft       UNKNOWN        : DTS:UNKNOWN:rC:NONE:v1 
GR       .API         UNKNOWN        : GR:UNKNOWN:rC:NONE:v1 
KLOGH    .mD          UNKNOWN        : KLOGH:UNKNOWN:rC::v0 (auto-composite)
NPHI     .v/v_decimal UNKNOWN        : NPHI:UNKNOWN:rC:NONE:v1 
PHIF     .v/v_decimal UNKNOWN        : PHIF:UNKNOWN:rC::v0 (auto-composite)
RHOB     .g/cm3       UNKNOWN        : RHOB:UNKNOWN:rC:NONE:v1 
SW       .v/v_decimal UNKNOWN        : SW:UNKNOWN:rC::v0 (auto-composite)
VSH      .v/v_decimal UNKNOWN        : VSH:UNKNOWN:rC::v0 (auto-composite)
~A     DEPTH         TVD       TVDSS           DT          DTS           GR        KLOGH         NPHI         PHIF         RHOB           SW          VSH
# ...
   3567.6250   2797.6270  -2775.6270      93.7044     167.9875      55.0985     400.3529       0.2658       0.2636       2.2173       1.0000       0.0010
   3567.7500   2797.7488  -2775.7488      94.0598     168.5490      55.6450     375.6716       0.2583       0.2622       2.2196       1.0000       0.0010
   3567.8750   2797.8708  -2775.8708      94.1925     168.9150      53.9356     516.8192       0.2339       0.2693       2.2080       1.0000       0.0010
   3568.0000   2797.9927  -2775.9927      94.1800     169.1427      48.8031     597.6686       0.2408       0.2726       2.2027       1.0000       0.0010
   3568.1250   2798.1145  -2776.1145      94.0914     169.1837      51.6646     488.4077       0.2712       0.2681       2.2100       1.0000       0.0010
   3568.2500   2798.2366  -2776.2366      93.9471     168.9617      50.1513     475.7579       0.2426       0.2675       2.2110       1.0000       0.0010
   3568.3750   2798.3584  -2776.3584      93.7599     168.5541      52.5320      42.1588       0.2449       0.2135       2.2996       1.0000       0.0010
   3568.5000   2798.4802  -2776.4802      93.5601     168.0899      55.2604      17.8934       0.2475       0.1944       2.3310       1.0000       0.0010
   3568.6250   2798.6023  -2776.6023      93.3858     167.7084      54.0473     188.2220       0.2351       0.2468       2.2449       1.0000       0.0010
   3568.7500   2798.7241  -2776.7241      93.2760     167.5260      48.4500     246.3455       0.2700       0.2528       2.2350       0.9791       0.0010
   3568.8750   2798.8459  -2776.8459      93.2793     167.5970      50.3019     352.4662       0.2318       0.2608       2.2220       0.9740       0.0010
   3569.0000   2798.9680  -2776.9680      93.3359     167.7369      49.9212     942.7519       0.2417       0.2827       2.1860       0.9204       0.0010
   3569.1250   2799.0898  -2777.0898      93.3967     167.8194      49.9310    1118.0844       0.2461       0.2865       2.1797       0.9158       0.0010
   3569.2500   2799.2119  -2777.2119      93.4167     167.7376      51.2504     653.0923       0.2346       0.2745       2.1994       0.9563       0.0010
   3569.3750   2799.3337  -2777.3337      93.3527     167.4109      53.0420     495.9476       0.2299       0.2684       2.2095       0.9862       0.0010
   3569.5000   2799.4556  -2777.4556      93.1288     166.7619      51.4118     710.0135       0.2755       0.2764       2.1964       0.9653       0.0010
   3569.6250   2799.5776  -2777.5776      92.6799     165.7590      53.7506     445.4018       0.2530       0.2660       2.2134       0.9982       0.0010
   3569.7500   2799.6995  -2777.6995      92.0425     164.4372      53.7289     266.1020       0.2517       0.2545       2.2322       1.0000       0.0010
   3569.8750   2799.8213  -2777.8213      91.2459     162.8036      52.3815     323.7756       0.2713       0.2589       2.2251       0.9893       0.0010
   3570.0000   2799.9434  -2777.9434      90.3348     160.9017      52.3940     609.6696       0.2795       0.2730       2.2019       0.8966       0.0010
   3570.1250   2800.0652  -2778.0652      89.3689     158.8243      56.5835     353.0022       0.2262       0.2608       2.2219       0.8478       0.0010
   3570.2500   2800.1870  -2778.1870      88.4352     156.7886      57.3261     403.8335       0.2508       0.2638       2.2170       0.7442       0.0010
   3570.3750   2800.3091  -2778.3091      87.5743     154.9475      63.5576      19.1936       0.2185       0.1960       2.3284       0.8854       0.0524
   3570.5000   2800.4309  -2778.4309      86.7826     153.2973      68.0086       7.4241       0.2037       0.1748       2.3631       0.9454       0.1075
   3570.6250   2800.5530  -2778.5530      86.0620     151.8142      72.4641       7.5933       0.2044       0.1753       2.3623       0.9311       0.1627
   3570.7500   2800.6748  -2778.6748      85.4191     150.4794      80.1693       1.3345       0.1957       0.1365       2.4259       1.0000       0.2583
   3570.8750   2800.7966  -2778.7966      84.8800     149.3545      83.6239       0.6366       0.2065       0.1201       2.4529       1.0000       0.3011
   3571.0000   2800.9187  -2778.9187      84.4600     148.6203      76.6942       1.9629       0.1875       0.1451       2.4118       0.9675       0.2152
   3571.1250   2801.0405  -2779.0405      84.1249     148.2481      76.8573       1.2176       0.1999       0.1345       2.4292       1.0000       0.2172
   3571.2500   2801.1624  -2779.1624      83.8521     148.1647      77.2468       0.4560       0.2111       0.1126       2.4652       1.0000       0.2221
   3571.3750   2801.2844  -2779.2844      83.6281     148.2606      78.6665       0.3935       0.2080       0.1093       2.4705       1.0000       0.2396
   3571.5000   2801.4062  -2779.4062      83.4544     148.4123      91.1939       1.5124       0.2103       0.1393       2.4213       0.9680       0.3950
   3571.6250   2801.5283  -2779.5283      83.3814     148.5616      90.0829       0.4027       0.2070       0.1099       2.4697       1.0000       0.3812
   3571.7500   2801.6504  -2779.6504      83.4118     148.8012      89.6807       0.4163       0.2170       0.1106       2.4685       1.0000       0.3762
   3571.8750   2801.7725  -2779.7725      83.5215     149.1805      92.3770       0.3581       0.2229       0.1072       2.4740       1.0000       0.4096
   3572.0000   2801.8945  -2779.8945      83.6809     149.6846      90.0815       0.3899       0.2243       0.1091       2.4709       1.0000       0.3812
   3572.1250   2802.0166  -2780.0166      83.8597     150.2545      81.0840       0.7652       0.2263       0.1242       2.4462       1.0000       0.2698
   3572.2500   2802.1387  -2780.1387      84.0386     150.7870      91.8064       0.4568       0.2334       0.1127       2.4651       1.0000       0.4026
   3572.3750   2802.2607  -2780.2607      84.2313     151.2001      88.5206       0.3035       0.2404       0.1035       2.4800       1.0000       0.3618
   3572.5000   2802.3828  -2780.3828      84.4615     151.5770      90.3222       0.2428       0.2383       0.0986       2.4882       1.0000       0.3841
   3572.6250   2802.5049  -2780.5049      84.7262     152.0205      93.7431       0.2410       0.2528       0.0984       2.4885       1.0000       0.4265
   3572.7500   2802.6270  -2780.6270      85.0117     152.6096      95.9145       0.3473       0.2612       0.1066       2.4751       1.0000       0.4535
   3572.8750   2802.7493  -2780.7493      85.2951     153.3783      96.5933       0.7169       0.2175       0.1227       2.4486       0.9012       0.4619
   3573.0000   2802.8713  -2780.8713      85.5322     154.2357     101.7436       0.1333       0.2665       0.0852       2.5101       1.0000       0.5258
   3573.1250   2802.9934  -2780.9934      85.6728     154.8771     101.1333       0.0770       0.2765       0.0730       2.5302       1.0000       0.5182
   3573.2500   2803.1155  -2781.1155      85.6804     155.1754     104.8007       0.0235       0.2661       0.0465       2.5737       1.0000       0.5636
   3573.3750   2803.2375  -2781.2375      85.5016     155.0378     110.1462       0.0299       0.2635       0.0519       2.5648       1.0000       0.6299
   3573.5000   2803.3596  -2781.3596      85.0836     154.3974     112.3132       0.2401       0.2817       0.0983       2.4886       0.9361       0.6567
   3573.6250   2803.4817  -2781.4817      84.3739     153.1945     109.0139       0.0731       0.2968       0.0718       2.5321       1.0000       0.6159
   3573.7500   2803.6038  -2781.6038      83.3134     151.3325     123.8975       0.0403       0.2576       0.0586       2.5539       1.0000       0.8004
   3573.8750   2803.7258  -2781.7258      82.0982     149.0517     118.0173       0.0030       0.2939       0.0010       2.6862       1.0000       0.7275
   3574.0000   2803.8479  -2781.8479      80.8611     146.5446     108.3925       0.0030       0.3403       0.0010       2.7430       1.0000       0.6082
