#------------------------------------------------------------------------------
#
#   Created by  : [OpenWorks] Log Export Utility (LEXP)
#   Created on  : 2007-05-07 11:58:04
#   Project     : NORNE
#   User        : JSE
#   Interpreter : JSE
#
#------------------------------------------------------------------------------
~VERSION INFORMATION
VERS. 2.0 : CWLS Log ASCII Standard - version 2.0
WRAP.  NO : One line per depth step
~WELL INFORMATION
#MNEMONIC   .UNIT                                           VALUE :DESCRIPTION
#------------------------------------------------------------------------------
STRT        .M                                           461.1250 :START DEPTH
STOP        .M                                          3010.0000 :STOP DEPTH
STEP        .M                                             0.1250 :STEP
NULL        .                                           -999.2500 :NULL VALUE
COMP        .                                             STATOIL :COMPANY
WELL        .                                       6608/10-E-3 H :WELL
FLD         .                                               NORNE :FIELD
LOC         .                                             UNKNOWN :LOCATION
CNTY        .                                             UNKNOWN :COUNTY
STAT        .                                             UNKNOWN :STATE
CTRY        .                                              Norway :COUNTRY
SRVC        .                                             UNKNOWN :SERVICE COMPANY
DATE        .                                             UNKNOWN :LOG DATE
UWI         .                                    NO 6608/10-E-3 H :UNIQUE WELL ID
XCOORD      .                                       459189.815835 :SURFACE X
YCOORD      .                                      7325451.234448 :SURFACE Y
LAT         .                                           66.045417 :LATITUDE
LON         .                                            8.099250 :LONGITUDE
ELEV        .M                                            22.0000 :SURFACE ELEV
ELEV_TYPE   .                                                  KB :ELEV TYPE
~CURVE INFORMATION
#MNEMONIC.UNIT        API CODE       : CURVE DESCRIPTION
#------------------------------------------------------------------------------
DEPTH    .M                          : Measured Depth
TVD      .M                          : True Vertical Depth (TVD)
TVDSS    .M                          : True Vertical Depth (TVDSS)
DT       .us/ft       UNKNOWN        : DT:DT:rC:NONE:v1 
DTS      .us/ft       UNKNOWN        : DTS:DTS:rC:NONE:v1 
GR       .API         UNKNOWN        : GR:GR:rC:NONE:v1 
KLOGH    .mD          UNKNOWN        : KLOGH:UNKNOWN:rC::v0 (auto-composite)
NPHI     .v/v_decimal UNKNOWN        : NPHI:NPHI:rC:NONE:v1 
PHIF     .v/v_decimal UNKNOWN        : PHIF:UNKNOWN:rC::v0 (auto-composite)
RHOB     .g/cm3       UNKNOWN        : RHOB:RHOB:rC:NONE:v1 
SW       .v/v_decimal UNKNOWN        : SW:UNKNOWN:rC::v0 (auto-composite)
VSH      .v/v_decimal UNKNOWN        : VSH:UNKNOWN:rC::v0 (auto-composite)
~A     DEPTH         TVD       TVDSS           DT          DTS           GR        KLOGH         NPHI         PHIF         RHOB           SW          VSH
# ...
   2710.1250   2622.7742  -2600.7742     101.7831     162.0107      91.7228      75.8370       0.2749       0.2236       2.2936       0.2634       0.2686
   2710.2500   2622.8945  -2600.8945     101.6027     160.6198      91.0255      39.5934       0.2906       0.1983       2.3370       0.3045       0.2580
   2710.3750   2623.0146  -2601.0146     101.3298     159.2516      90.2389      26.8971       0.3094       0.1832       2.3645       0.3382       0.2460
   2710.5000   2623.1348  -2601.1348     100.8815     157.9781      87.9034      23.5236       0.3114       0.1780       2.3741       0.3551       0.2106
   2710.6250   2623.2551  -2601.2551     100.3348     156.8912      84.8356      27.0319       0.2951       0.1834       2.3641       0.3500       0.1642
   2710.7500   2623.3752  -2601.3752      99.8573     156.0910      83.3525      39.2849       0.2764       0.1980       2.3383       0.3298       0.1417
   2710.8750   2623.4956  -2601.4956      99.4715     155.7125      84.8500      36.1930       0.2817       0.1948       2.3416       0.3343       0.1644
   2711.0000   2623.6157  -2601.6157      99.3761     155.7429      90.6576      40.5472       0.2896       0.1992       2.3341       0.3289       0.2524
   2711.1250   2623.7358  -2601.7358      99.2411     156.1395      93.5599      50.0982       0.2901       0.2074       2.3208       0.3170       0.2964
   2711.2500   2623.8562  -2601.8562      99.0682     156.8897      93.3609      72.4859       0.2843       0.2218       2.2989       0.2935       0.2933
   2711.3750   2623.9763  -2601.9763      99.1038     157.9681      91.8084     127.2254       0.2746       0.2438       2.2659       0.2588       0.2698
   2711.5000   2624.0967  -2602.0967      99.8840     159.3460      91.0730     219.5812       0.2609       0.2650       2.2230       0.2238       0.2588
   2711.6250   2624.2168  -2602.2168     100.3570     160.9083      92.5805     489.9886       0.2697       0.2963       2.1765       0.1832       0.2815
   2711.7500   2624.3369  -2602.3369     100.8128     162.4835      92.9608     667.6898       0.2643       0.3084       2.1571       0.1607       0.2873
   2711.8750   2624.4573  -2602.4573     101.2042     163.9706      91.7959     585.3679       0.2576       0.3033       2.1638       0.1523       0.2696
   2712.0000   2624.5774  -2602.5774     101.4985     165.3021      90.4970     507.9155       0.2552       0.2977       2.1728       0.1513       0.2500
   2712.1250   2624.6975  -2602.6975     101.7042     166.4320      91.2540     629.9398       0.2554       0.3061       2.1597       0.1519       0.2614
   2712.2500   2624.8179  -2602.8179     101.9922     167.3001      95.0005     598.9298       0.2454       0.3042       2.1654       0.1599       0.3181
   2712.3750   2624.9380  -2602.9380     102.2758     167.8843     107.8466     537.5955       0.2670       0.3000       2.1734       0.1662       0.5129
   2712.5000   2625.0581  -2603.0581     102.6100     168.2750     125.3861     350.2263       0.2919       0.2832       2.1604       0.1668       0.7168
   2712.6250   2625.1785  -2603.1785     103.1708     168.5358     131.6505     193.7578       0.3164       0.2602       2.1536       0.1709       0.7398
   2712.7500   2625.2986  -2603.2986     103.9146     168.7220     117.5533     526.9829       0.3341       0.2992       2.1575       0.1751       0.6601
   2712.8750   2625.4189  -2603.4189     104.4872     168.8713      88.0804     653.1726       0.3307       0.3075       2.1344       0.1642       0.2134
   2713.0000   2625.5391  -2603.5391     105.2634     168.9895      81.0238     960.9812       0.3006       0.3226       2.1065       0.1406       0.1064
   2713.1250   2625.6592  -2603.6592     105.8175     169.0780      81.8027     843.6999       0.2844       0.3175       2.1161       0.1231       0.1182
   2713.2500   2625.7795  -2603.7795     106.2070     169.1679      80.9348     834.6630       0.2721       0.3171       2.1173       0.1082       0.1051
   2713.3750   2625.8997  -2603.8997     106.5318     169.2903      76.9481     984.0938       0.2610       0.3235       2.1061       0.0965       0.0447
   2713.5000   2626.0200  -2604.0200     106.8202     169.4707      72.1142    1095.4811       0.2554       0.3277       2.0997       0.0901       0.0010
   2713.6250   2626.1401  -2604.1401     106.7448     169.7209      67.8331     883.2255       0.2746       0.3193       2.1186       0.0930       0.0010
   2713.7500   2626.2603  -2604.2603     106.6230     169.9977      68.5599    1014.8063       0.2883       0.3247       2.1223       0.0963       0.0010
   2713.8750   2626.3806  -2604.3806     106.6334     170.2593      72.2474    1168.1251       0.2823       0.3302       2.1230       0.1003       0.0010
   2714.0000   2626.5007  -2604.5007     106.5927     170.5079      75.9148    1075.5020       0.2722       0.3270       2.1286       0.1090       0.0290
   2714.1250   2626.6208  -2604.6208     106.4831     170.7745      77.2075     950.5096       0.2648       0.3222       2.1366       0.1210       0.0486
   2714.2500   2626.7412  -2604.7412     106.4965     171.1147      75.1984     983.3550       0.2545       0.3235       2.1344       0.1307       0.0182
   2714.3750   2626.8613  -2604.8613     106.4645     171.5988      74.3473    1205.0249       0.2820       0.3314       2.1213       0.1297       0.0053
   2714.5000   2626.9814  -2604.9814     106.6214     172.1454      77.1894    1021.3225       0.3135       0.3250       2.1319       0.1307       0.0483
   2714.6250   2627.1018  -2605.1018     106.8590     172.6885      81.8275     873.6224       0.3224       0.3189       2.1420       0.1292       0.1186
   2714.7500   2627.2219  -2605.2219     107.1509     173.2092      84.8518     906.8272       0.3123       0.3203       2.1396       0.1237       0.1644
   2714.8750   2627.3423  -2605.3423     107.5136     173.7169      84.0162    1131.6016       0.2950       0.3290       2.1253       0.1165       0.1518
   2715.0000   2627.4624  -2605.4624     108.0117     174.2519      81.6724    1205.7992       0.2719       0.3314       2.1212       0.1157       0.1162
   2715.1250   2627.5825  -2605.5825     108.5027     174.8282      82.6811    1239.0664       0.2642       0.3325       2.1194       0.1185       0.1315
   2715.2500   2627.7029  -2605.7029     108.7476     175.3682      83.9543    1179.6742       0.2771       0.3306       2.1226       0.1232       0.1508
   2715.3750   2627.8230  -2605.8230     109.0305     175.8163      82.9669     836.3638       0.2800       0.3172       2.1448       0.1359       0.1359
   2715.5000   2627.9434  -2605.9434     109.3838     176.1409      80.7023     536.6472       0.2729       0.2999       2.1735       0.1584       0.1016
   2715.6250   2628.0635  -2606.0635     109.5847     176.3333      80.8078     506.8673       0.2827       0.2977       2.1771       0.1821       0.1032
   2715.7500   2628.1836  -2606.1836     109.4050     176.3785      83.7821     564.8847       0.3218       0.3019       2.1657       0.1918       0.1482
   2715.8750   2628.3040  -2606.3040     109.5060     176.3099      84.4928     504.4636       0.3009       0.2975       2.1752       0.2008       0.1590
   2716.0000   2628.4241  -2606.4241     109.4176     176.1591      83.8158    1056.2837       0.2760       0.3016       2.1706       0.1981       0.1487
   2716.1250   2628.5442  -2606.5442     109.0863     175.9445      85.5126     808.0017       0.2758       0.2962       2.1795       0.1961       0.1744
   2716.2500   2628.6646  -2606.6646     108.6020     175.6837      90.3036     173.7606       0.2995       0.2655       2.2305       0.2096       0.2470
   2716.3750   2628.7847  -2606.7847     108.1106     175.3932      91.0343      12.3121       0.3006       0.2125       2.3181       0.2533       0.2581
   2716.5000   2628.9048  -2606.9048     107.9972     175.0996      88.4206      30.0996       0.2905       0.2304       2.2807       0.2420       0.2185
