#------------------------------------------------------------------------------
#
#   Created by  : [OpenWorks] Log Export Utility (LEXP)
#   Created on  : 2007-05-07 11:58:15
#   Project     : NORNE
#   User        : JSE
#   Interpreter : JSE
#
#------------------------------------------------------------------------------
~VERSION INFORMATION
VERS. 2.0 : CWLS Log ASCII Standard - version 2.0
WRAP.  NO : One line per depth step
~WELL INFORMATION
#MNEMONIC   .UNIT                                           VALUE :DESCRIPTION
#------------------------------------------------------------------------------
STRT        .M                                           454.5508 :START DEPTH
STOP        .M                                          3169.8008 :STOP DEPTH
STEP        .M                                             0.1250 :STEP
NULL        .                                           -999.2500 :NULL VALUE
COMP        .                                             STATOIL :COMPANY
WELL        .                                       6608/10-F-1 H :WELL
FLD         .                                               NORNE :FIELD
LOC         .                                             UNKNOWN :LOCATION
CNTY        .                                             UNKNOWN :COUNTY
STAT        .                                             UNKNOWN :STATE
CTRY        .                                              Norway :COUNTRY
SRVC        .                                             UNKNOWN :SERVICE COMPANY
DATE        .                                             UNKNOWN :LOG DATE
UWI         .                                    NO 6608/10-F-1 H :UNIQUE WELL ID
XCOORD      .                                       459309.364262 :SURFACE X
YCOORD      .                                      7325355.161830 :SURFACE Y
LAT         .                                           66.044571 :LATITUDE
LON         .                                            8.101919 :LONGITUDE
ELEV        .M                                            24.0000 :SURFACE ELEV
ELEV_TYPE   .                                                  KB :ELEV TYPE
~CURVE INFORMATION
#MNEMONIC.UNIT        API CODE       : CURVE DESCRIPTION
#------------------------------------------------------------------------------
DEPTH    .M                          : Measured Depth
TVD      .M                          : True Vertical Depth (TVD)
TVDSS    .M                          : True Vertical Depth (TVDSS)
DT       .us/ft       UNKNOWN        : DT:UNKNOWN:rC:NONE:v1 
DTS      .us/ft       UNKNOWN        : DTS:UNKNOWN:rC:NONE:v1 
GR       .API         UNKNOWN        : GR:UNKNOWN:rC:NONE:v1 
KLOGH    .mD          UNKNOWN        : KLOGH:UNKNOWN:rC::v0 (auto-composite)
NPHI     .v/v_decimal UNKNOWN        : NPHI:SFINX:rC:NONE:v1 
PHIF     .v/v_decimal UNKNOWN        : PHIF:UNKNOWN:rC::v0 (auto-composite)
RHOB     .g/cm3       UNKNOWN        : RHOB:UNKNOWN:rC:NONE:v1 
SW       .v/v_decimal UNKNOWN        : SW:UNKNOWN:rC::v0 (auto-composite)
VSH      .v/v_decimal UNKNOWN        : VSH:UNKNOWN:rC::v0 (auto-composite)
~A     DEPTH         TVD       TVDSS           DT          DTS           GR        KLOGH         NPHI         PHIF         RHOB           SW          VSH
# ...
   3113.0508   2958.6892  -2934.6892      90.7262     173.3544      75.1096       1.8437       0.3086       0.2311       2.3298       0.7344       0.4686
   3113.1758   2958.8140  -2934.8140      91.3185     174.5223      69.1169       0.0435       0.3009       0.1866       2.3834       0.9034       0.3926
   3113.3008   2958.9387  -2934.9387      91.6710     174.2120      65.7883       0.0598       0.2946       0.1771       2.3704       0.8861       0.3460
   3113.4258   2959.0637  -2935.0637      91.7358     172.4863      65.6403       0.0897       0.2900       0.1862       2.3539       0.8648       0.3347
   3113.5508   2959.1885  -2935.1885      91.4737     169.6394      67.2728       0.1602       0.2880       0.1973       2.3351       0.8381       0.3421
   3113.6758   2959.3132  -2935.3132      90.8665     166.2843      60.7218       0.2628       0.2860       0.2090       2.3022       0.8140       0.2857
   3113.8008   2959.4382  -2935.4382      90.0239     163.2763      57.2540       0.2961       0.2928       0.2115       2.3076       0.8235       0.2532
   3113.9258   2959.5630  -2935.5630      89.1371     160.8278      60.3274       0.2775       0.3002       0.2110       2.3100       0.8470       0.2763
   3114.0508   2959.6877  -2935.6877      88.2956     158.9171      61.3674       0.2589       0.3006       0.2069       2.3140       0.8713       0.2846
   3114.1758   2959.8127  -2935.8127      87.5692     157.4814      59.8988       0.1768       0.2936       0.1983       2.3312       0.9276       0.2730
   3114.3008   2959.9375  -2935.9375      87.0114     156.4557      64.1197       0.0869       0.2875       0.1853       2.3700       0.9890       0.3073
   3114.4258   2960.0623  -2936.0623      86.7267     155.8838      63.8773       0.0690       0.2980       0.1808       2.3700       1.0000       0.3145
   3114.5508   2960.1873  -2936.1873      86.6553     155.5973      63.3395       0.0690       0.3086       0.1800       2.3700       1.0000       0.3113
   3114.6758   2960.3120  -2936.3120      86.6935     155.4332      63.3028       0.0690       0.3101       0.1800       2.3700       1.0000       0.3105
   3114.8008   2960.4370  -2936.4370      86.7339     155.2454      62.9077       0.0690       0.3058       0.1788       2.3700       1.0000       0.3105
   3114.9258   2960.5618  -2936.5618      86.6778     154.8856      62.8809       0.0578       0.3036       0.1745       2.3744       1.0000       0.3171
   3115.0508   2960.6865  -2936.6865      86.4571     154.1857      69.5476       0.0356       0.3112       0.1649       2.3989       1.0000       0.3690
   3115.1758   2960.8115  -2936.8115      86.0443     153.0050      69.4691       0.0244       0.3186       0.1567       2.4079       1.0000       0.3889
   3115.3008   2960.9363  -2936.9363      85.5269     151.6185      70.8008       0.0173       0.3281       0.1478       2.4221       1.0000       0.4103
   3115.4258   2961.0610  -2937.0610      84.9610     150.2701      74.2071       0.0107       0.3356       0.1372       2.4407       1.0000       0.4495
   3115.5508   2961.1860  -2937.1860      84.3966     149.1605      77.6708       0.0061       0.3407       0.1291       2.4612       1.0000       0.4895
   3115.6758   2961.3108  -2937.3108      83.8792     148.4245      77.9580       0.0090       0.3433       0.1317       2.4733       1.0000       0.4944
   3115.8008   2961.4355  -2937.4355      83.5043     148.1382      76.6293       0.0331       0.3184       0.1582       2.3914       1.0000       0.4885
   3115.9258   2961.5605  -2937.5605      83.3730     148.1443      77.3885       0.0674       0.2936       0.1765       2.3729       1.0000       0.5046
   3116.0508   2961.6853  -2937.6853      83.5021     148.3478      82.3644       0.1062       0.2742       0.1884       2.3542       0.9789       0.5605
   3116.1758   2961.8101  -2937.8101      83.8769     148.7307      86.5209       0.1497       0.2612       0.1955       2.3383       0.9461       0.6017
   3116.3008   2961.9351  -2937.9351      84.4480     149.2788      85.4339       0.1660       0.2530       0.1997       2.3342       0.9424       0.5808
   3116.4258   2962.0598  -2938.0598      85.1400     149.9700      79.6240       0.1896       0.2447       0.2025       2.3300       0.9398       0.5023
   3116.5508   2962.1848  -2938.1848      85.7834     150.7121      68.6620       0.2217       0.2493       0.2058       2.3219       0.9382       0.3898
   3116.6758   2962.3096  -2938.3096      86.3318     151.3995      62.1446       0.2456       0.2540       0.2084       2.3200       0.9441       0.3131
   3116.8008   2962.4343  -2938.4343      86.7751     151.9371      63.7399       0.2783       0.2566       0.2114       2.3155       0.9516       0.3203
   3116.9258   2962.5593  -2938.5593      87.1146     152.2572      66.8685       0.3334       0.2573       0.2148       2.3087       0.9555       0.3520
   3117.0508   2962.6841  -2938.6841      87.3477     152.3201      62.5434       0.3799       0.2577       0.2180       2.3046       0.9650       0.3147
   3117.1758   2962.8088  -2938.8088      87.4273     152.1199      64.5038       0.4404       0.2581       0.2213       2.3005       0.9738       0.3057
   3117.3008   2962.9338  -2938.9338      87.3514     151.7361      60.3798       0.5125       0.2635       0.2238       2.2927       0.9821       0.2697
   3117.4258   2963.0586  -2939.0586      87.1677     151.2255      57.2306       0.5042       0.2695       0.2210       2.2955       0.9931       0.2389
   3117.5508   2963.1833  -2939.1833      86.9231     150.6234      62.3301       0.3330       0.2718       0.2121       2.3148       1.0000       0.2817
   3117.6758   2963.3083  -2939.3083      86.6692     149.9823      69.3556       0.1597       0.2699       0.2000       2.3419       1.0000       0.3488
   3117.8008   2963.4331  -2939.4331      86.4580     149.3810      53.2340       0.1186       0.2688       0.1920       2.3500       1.0000       0.2199
   3117.9258   2963.5579  -2939.5579      86.3124     148.9285      49.7217       0.0951       0.2677       0.1875       2.3583       1.0000       0.1545
   3118.0508   2963.6829  -2939.6829      86.2257     148.6755      49.9243       0.0855       0.2552       0.1896       2.3665       1.0000       0.1344
   3118.1758   2963.8076  -2939.8076      86.2068     148.6300      46.3558       0.2236       0.2396       0.2057       2.3370       1.0000       0.0869
   3118.3008   2963.9326  -2939.9326      86.2745     148.7699      41.1488       1.0497       0.2329       0.2320       2.2796       1.0000       0.0294
   3118.4258   2964.0574  -2940.0574      86.4467     149.0482      39.2716       2.5331       0.2416       0.2575       2.2289       0.9907       0.0116
   3118.5508   2964.1821  -2940.1821      86.7372     149.4158      37.0127       3.6654       0.2464       0.2678       2.2207       0.9742       0.0296
   3118.6758   2964.3071  -2940.3071      87.1235     149.8032      49.7423       4.0813       0.2511       0.2688       2.2125       0.9726       0.1677
   3118.8008   2964.4319  -2940.4319      87.5714     150.1996      69.7703       3.1722       0.2706       0.2566       2.2272       0.9860       0.3969
   3118.9258   2964.5566  -2940.5566      88.0812     150.6813      87.9091       1.2099       0.2966       0.2272       2.2831       1.0000       0.6126
   3119.0508   2964.6816  -2940.6816      88.6646     151.3606      98.5275       0.1111       0.3122       0.1880       2.3669       1.0000       0.7382
   3119.1758   2964.8064  -2940.8064      89.3424     152.3709     101.0458       0.0253       0.2977       0.1590       2.4287       1.0000       0.7511
   3119.3008   2964.9312  -2940.9312      90.1575     153.9053      90.6466       0.0358       0.2832       0.1661       2.3959       1.0000       0.6159
   3119.4258   2965.0562  -2941.0562      91.0356     155.9741      68.9276       0.0985       0.2710       0.1894       2.3698       1.0000       0.4442
