#------------------------------------------------------------------------------
#
#   Created by  : [OpenWorks] Log Export Utility (LEXP)
#   Created on  : 2007-05-07 11:58:04
#   Project     : NORNE
#   User        : JSE
#   Interpreter : JSE
#
#------------------------------------------------------------------------------
~VERSION INFORMATION
VERS. 2.0 : CWLS Log ASCII Standard - version 2.0
WRAP.  NO : One line per depth step
~WELL INFORMATION
#MNEMONIC   .UNIT                                           VALUE :DESCRIPTION
#------------------------------------------------------------------------------
STRT        .M                                           461.1250 :START DEPTH
STOP        .M                                          3010.0000 :STOP DEPTH
STEP        .M                                             0.1250 :STEP
NULL        .                                           -999.2500 :NULL VALUE
COMP        .                                             STATOIL :COMPANY
WELL        .                                       6608/10-E-3 H :WELL
FLD         .                                               NORNE :FIELD
LOC         .                                             UNKNOWN :LOCATION
CNTY        .                                             UNKNOWN :COUNTY
STAT        .                                             UNKNOWN :STATE
CTRY        .                                              Norway :COUNTRY
SRVC        .                                             UNKNOWN :SERVICE COMPANY
DATE        .                                             UNKNOWN :LOG DATE
UWI         .                                    NO 6608/10-E-3 H :UNIQUE WELL ID
XCOORD      .                                       459189.815835 :SURFACE X
YCOORD      .                                      7325451.234448 :SURFACE Y
LAT         .                                           66.045417 :LATITUDE
LON         .                                            8.099250 :LONGITUDE
ELEV        .M                                            22.0000 :SURFACE ELEV
ELEV_TYPE   .                                                  KB :ELEV TYPE
~CURVE INFORMATION
#MNEMONIC.UNIT        API CODE       : CURVE DESCRIPTION
#------------------------------------------------------------------------------
DEPTH    .M                          : Measured Depth
TVD      .M                          : True Vertical Depth (TVD)
TVDSS    .M                          : True Vertical Depth (TVDSS)
DT       .us/ft       UNKNOWN        : DT:DT:rC:NONE:v1 
DTS      .us/ft       UNKNOWN        : DTS:DTS:rC:NONE:v1 
GR       .API         UNKNOWN        : GR:GR:rC:NONE:v1 
KLOGH    .mD          UNKNOWN        : KLOGH:UNKNOWN:rC::v0 (auto-composite)
NPHI     .v/v_decimal UNKNOWN        : NPHI:NPHI:rC:NONE:v1 
PHIF     .v/v_decimal UNKNOWN        : PHIF:UNKNOWN:rC::v0 (auto-composite)
RHOB     .g/cm3       UNKNOWN        : RHOB:RHOB:rC:NONE:v1 
SW       .v/v_decimal UNKNOWN        : SW:UNKNOWN:rC::v0 (auto-composite)
VSH      .v/v_decimal UNKNOWN        : VSH:UNKNOWN:rC::v0 (auto-composite)
~A     DEPTH         TVD       TVDSS           DT          DTS           GR        KLOGH         NPHI         PHIF         RHOB           SW          VSH
# ...
   2632.1250   2547.7380  -2525.7380      98.1272     161.4689      77.9312    -999.2500       0.2970    -999.2500       2.3525    -999.2500    -999.2500
   2632.2500   2547.8584  -2525.8584      97.6267     160.7567      75.3417    -999.2500       0.2821    -999.2500       2.3501    -999.2500    -999.2500
   2632.3750   2547.9788  -2525.9788      96.9652     160.0124      73.9525    -999.2500       0.2873    -999.2500       2.3500    -999.2500    -999.2500
   2632.5000   2548.0991  -2526.0991      96.2736     159.2854      76.0760    -999.2500       0.2856    -999.2500       2.3531    -999.2500    -999.2500
   2632.6250   2548.2192  -2526.2192      95.6092     158.6058      77.0248    -999.2500       0.2773    -999.2500       2.3528    -999.2500    -999.2500
   2632.7500   2548.3396  -2526.3396      95.0218     158.0074      76.4123    -999.2500       0.2689    -999.2500       2.3484    -999.2500    -999.2500
   2632.8750   2548.4600  -2526.4600      94.5528     157.5297      76.6479    -999.2500       0.2667    -999.2500       2.3445    -999.2500    -999.2500
   2633.0000   2548.5803  -2526.5803      94.2501     157.2655      76.9724    -999.2500       0.2572    -999.2500       2.3494    -999.2500    -999.2500
   2633.1250   2548.7007  -2526.7007      94.0521     157.2499      79.0564    -999.2500       0.2585    -999.2500       2.3543    -999.2500    -999.2500
   2633.2500   2548.8208  -2526.8208      93.8770     157.3875      80.2414    -999.2500       0.2531    -999.2500       2.3576    -999.2500    -999.2500
   2633.3750   2548.9412  -2526.9412      93.6894     157.5848      80.8476    -999.2500       0.2519    -999.2500       2.3626    -999.2500    -999.2500
   2633.5000   2549.0615  -2527.0615      93.4731     157.7383      81.5446    -999.2500       0.2639    -999.2500       2.3718    -999.2500    -999.2500
   2633.6250   2549.1819  -2527.1819      93.2320     157.7440      82.5450    -999.2500       0.2848    -999.2500       2.3840    -999.2500    -999.2500
   2633.7500   2549.3020  -2527.3020      92.9313     157.4722      84.4601    -999.2500       0.2874    -999.2500       2.4219    -999.2500    -999.2500
   2633.8750   2549.4224  -2527.4224      92.6074     157.0126      85.9375    -999.2500       0.2670    -999.2500       2.4300    -999.2500    -999.2500
   2634.0000   2549.5427  -2527.5427      92.3285     156.4402      84.5198    -999.2500       0.2552    -999.2500       2.4300    -999.2500    -999.2500
   2634.1250   2549.6631  -2527.6631      92.1626     155.8745      82.0995    -999.2500       0.2584    -999.2500       2.4157    -999.2500    -999.2500
   2634.2500   2549.7832  -2527.7832      92.1761     155.4794      82.1316    -999.2500       0.2671    -999.2500       2.3751    -999.2500    -999.2500
   2634.3750   2549.9036  -2527.9036      92.4682     155.5615      84.5308    -999.2500       0.2679    -999.2500       2.3375    -999.2500    -999.2500
   2634.5000   2550.0239  -2528.0239      92.9980     156.4305      83.2345    -999.2500       0.2871    -999.2500       2.3459    -999.2500    -999.2500
   2634.6250   2550.1443  -2528.1443      93.6292     157.9560      80.8882    -999.2500       0.2913    -999.2500       2.3591    -999.2500    -999.2500
   2634.7500   2550.2644  -2528.2644      94.3134     159.9225      78.9169    -999.2500       0.2919    -999.2500       2.3764    -999.2500    -999.2500
   2634.8750   2550.3848  -2528.3848      95.0309     162.0351      77.0912    -999.2500       0.2954    -999.2500       2.3980    -999.2500    -999.2500
   2635.0000   2550.5051  -2528.5051      95.7886     163.9534      73.8383    -999.2500       0.2934    -999.2500       2.4163    -999.2500    -999.2500
   2635.1250   2550.6255  -2528.6255      96.6075     165.1808      83.2882    -999.2500       0.2949    -999.2500       2.3942    -999.2500    -999.2500
   2635.2500   2550.7456  -2528.7456      97.3610     165.7490      87.1713    -999.2500       0.2897    -999.2500       2.3900    -999.2500    -999.2500
   2635.3750   2550.8660  -2528.8660      97.9276     165.8285      89.7743    -999.2500       0.2892    -999.2500       2.3949    -999.2500    -999.2500
   2635.5000   2550.9863  -2528.9863      98.2549     165.6018      90.0105    -999.2500       0.2910    -999.2500       2.3969    -999.2500    -999.2500
   2635.6250   2551.1067  -2529.1067      98.3476     165.2657      87.3746    -999.2500       0.2893    -999.2500       2.3881    -999.2500    -999.2500
   2635.7500   2551.2268  -2529.2268      98.2738     165.0302      90.6452    -999.2500       0.2859    -999.2500       2.3758    -999.2500    -999.2500
   2635.8750   2551.3472  -2529.3472      98.1124     165.0342      94.1622    -999.2500       0.2846    -999.2500       2.3635    -999.2500    -999.2500
   2636.0000   2551.4675  -2529.4675      97.8759     165.1974      87.7671    -999.2500       0.2885    -999.2500       2.3541    -999.2500    -999.2500
   2636.1250   2551.5879  -2529.5879      97.5932     165.4435      76.9633    -999.2500       0.3072    -999.2500       2.3496    -999.2500    -999.2500
   2636.2500   2551.7080  -2529.7080      97.3406     165.7070      69.3720    -999.2500       0.3309    -999.2500       2.3474    -999.2500    -999.2500
   2636.3750   2551.8284  -2529.8284      97.2379     165.9443      71.4740    -999.2500       0.3343    -999.2500       2.3408    -999.2500    -999.2500
   2636.5000   2551.9487  -2529.9487      97.4759     166.1716      75.8260    -999.2500       0.3378    -999.2500       2.3203    -999.2500    -999.2500
   2636.6250   2552.0691  -2530.0691      98.0094     166.4251      81.1531    -999.2500       0.3319    -999.2500       2.3411    -999.2500    -999.2500
   2636.7500   2552.1892  -2530.1892      98.7004     166.6761      85.1918    -999.2500       0.3001    -999.2500       2.3703    -999.2500    -999.2500
   2636.8750   2552.3096  -2530.3096      99.4496     166.8930      89.4382    -999.2500       0.2721    -999.2500       2.3830    -999.2500    -999.2500
   2637.0000   2552.4299  -2530.4299     100.1714     167.0584      95.3117    -999.2500       0.2734    -999.2500       2.3713    -999.2500    -999.2500
   2637.1250   2552.5503  -2530.5503     100.7958     167.1930     101.1069    -999.2500       0.2826    -999.2500       2.3623    -999.2500    -999.2500
   2637.2500   2552.6704  -2530.6704     101.1888     167.4303      96.8550    -999.2500       0.2976    -999.2500       2.3628    -999.2500    -999.2500
   2637.3750   2552.7908  -2530.7908     101.3571     167.8078      93.7184    -999.2500       0.3326    -999.2500       2.3520    -999.2500    -999.2500
   2637.5000   2552.9111  -2530.9111     101.3333     168.2716      90.6944    -999.2500       0.3536    -999.2500       2.3420    -999.2500    -999.2500
   2637.6250   2553.0315  -2531.0315     101.1880     168.7248      89.4827    -999.2500       0.3501    -999.2500       2.3418    -999.2500    -999.2500
   2637.7500   2553.1516  -2531.1516     101.0138     169.0428      92.3226    -999.2500       0.3322    -999.2500       2.3541    -999.2500    -999.2500
   2637.8750   2553.2720  -2531.2720     100.8718     169.0518      85.4057    -999.2500       0.3002    -999.2500       2.3664    -999.2500    -999.2500
   2638.0000   2553.3923  -2531.3923     100.7450     168.7404      83.5449    -999.2500       0.2827    -999.2500       2.3744    -999.2500    -999.2500
   2638.1250   2553.5127  -2531.5127     100.6628     168.2061      78.7028    -999.2500       0.2728    -999.2500       2.3887    -999.2500    -999.2500
   2638.2500   2553.6328  -2531.6328     100.6241     167.5431      79.5264    -999.2500       0.2814    -999.2500       2.3958    -999.2500    -999.2500
   2638.3750   2553.7532  -2531.7532     100.5930     166.8549      89.8997    -999.2500       0.3073    -999.2500       2.3854    -999.2500    -999.2500
   2638.5000   2553.8735  -2531.8735     100.4870     166.2360      97.8030    -999.2500       0.3208    -999.2500       2.3630    -999.2500    -999.2500
