#------------------------------------------------------------------------------
#
#   Created by  : [OpenWorks] Log Export Utility (LEXP)
#   Created on  : 2007-05-07 11:57:13
#   Project     : NORNE
#   User        : JSE
#   Interpreter : JSE
#
#------------------------------------------------------------------------------
~VERSION INFORMATION
VERS. 2.0 : CWLS Log ASCII Standard - version 2.0
WRAP.  NO : One line per depth step
~WELL INFORMATION
#MNEMONIC   .UNIT                                           VALUE :DESCRIPTION
#------------------------------------------------------------------------------
STRT        .M                                          1325.1250 :START DEPTH
STOP        .M                                          3789.8750 :STOP DEPTH
STEP        .M                                             0.1250 :STEP
NULL        .                                           -999.2500 :NULL VALUE
COMP        .                                             STATOIL :COMPANY
WELL        .                                       6608/10-C-3 H :WELL
FLD         .                                               NORNE :FIELD
LOC         .                                             UNKNOWN :LOCATION
CNTY        .                                             UNKNOWN :COUNTY
STAT        .                                             UNKNOWN :STATE
CTRY        .                                              Norway :COUNTRY
SRVC        .                                             UNKNOWN :SERVICE COMPANY
DATE        .                                             UNKNOWN :LOG DATE
UWI         .                                    NO 6608/10-C-3 H :UNIQUE WELL ID
XCOORD      .                                       457175.596094 :SURFACE X
YCOORD      .                                      7322029.604515 :SURFACE Y
LAT         .                                           66.014460 :LATITUDE
LON         .                                            8.055937 :LONGITUDE
ELEV        .M                                            22.0000 :SURFACE ELEV
ELEV_TYPE   .                                                  KB :ELEV TYPE
~CURVE INFORMATION
#MNEMONIC.UNIT        API CODE       : CURVE DESCRIPTION
#------------------------------------------------------------------------------
DEPTH    .M                          : Measured Depth
TVD      .M                          : True Vertical Depth (TVD)
TVDSS    .M                          : True Vertical Depth (TVDSS)
DT       .us/ft       UNKNOWN        : DT:UNKNOWN:rC:NONE:v1 
DTS      .us/ft       UNKNOWN        : DTS:UNKNOWN:rC:NONE:v1 
GR       .API         UNKNOWN        : GR:UNKNOWN:rC:NONE:v1 
KLOGH    .mD          UNKNOWN        : KLOGH:UNKNOWN:rC::v0 (auto-composite)
NPHI     .v/v_decimal UNKNOWN        : NPHI:UNKNOWN:rC:NONE:v1 
PHIF     .v/v_decimal UNKNOWN        : PHIF:UNKNOWN:rC::v0 (auto-composite)
RHOB     .g/cm3       UNKNOWN        : RHOB:UNKNOWN:rC:NONE:v1 
SW       .v/v_decimal UNKNOWN        : SW:UNKNOWN:rC::v0 (auto-composite)
VSH      .v/v_decimal UNKNOWN        : VSH:UNKNOWN:rC::v0 (auto-composite)
~A     DEPTH         TVD       TVDSS           DT          DTS           GR        KLOGH         NPHI         PHIF         RHOB           SW          VSH
# ...
   3743.1250   2969.8276  -2947.8276      86.0247     149.0504     101.4868       0.0109       0.2769       0.1389       2.4385       0.7735       0.5226
   3743.2500   2969.9507  -2947.9507      85.9410     148.4800      98.2100       0.0175       0.2686       0.1494       2.4190       0.7356       0.4817
   3743.3750   2970.0740  -2948.0740      85.7836     147.9075      96.3649       0.0077       0.2373       0.1312       2.4513       0.8149       0.4591
   3743.5000   2970.1973  -2948.1973      85.5576     147.4067     104.1173       0.0136       0.2711       0.1438       2.4288       0.7720       0.5552
   3743.6250   2970.3206  -2948.3206      85.3067     147.0012     108.6862       0.0171       0.2790       0.1490       2.4177       0.7876       0.6118
   3743.7500   2970.4438  -2948.4438      85.0891     146.7065     110.0241       0.0316       0.2452       0.1626       2.3913       0.7815       0.6284
   3743.8750   2970.5671  -2948.5671      84.9614     146.5309     112.3903       0.1910       0.2060       0.2027       2.3182       0.7190       0.6577
   3744.0000   2970.6904  -2948.6904      84.9647     146.4997     108.5298       0.0774       0.2426       0.1826       2.3576       0.8198       0.6099
   3744.1250   2970.8137  -2948.8137      85.0580     146.5983     100.9766       0.0076       0.2540       0.1310       2.4516       1.0000       0.5162
   3744.2500   2970.9370  -2948.9370      85.1717     146.7444      88.6777       0.0075       0.2440       0.1306       2.4524       1.0000       0.3637
   3744.3750   2971.0605  -2949.0605      85.2836     146.8821      86.2510       0.0121       0.2477       0.1412       2.4347       1.0000       0.3337
   3744.5000   2971.1841  -2949.1841      85.3881     146.9719      95.9758       0.0133       0.2607       0.1433       2.4311       0.9673       0.4542
   3744.6250   2971.3074  -2949.3074      85.4933     146.9962     102.9594       0.0393       0.2317       0.1675       2.3903       0.8268       0.5408
   3744.7500   2971.4309  -2949.4309      85.5828     146.9469     109.0321       0.0302       0.2687       0.1616       2.3993       0.8239       0.6161
   3744.8750   2971.5544  -2949.5544      85.5822     146.8319     103.6091       0.0334       0.2519       0.1639       2.3950       0.7893       0.5488
   3745.0000   2971.6777  -2949.6777      85.4315     146.6297     104.5131       0.0294       0.2524       0.1610       2.4013       0.8069       0.5601
   3745.1250   2971.8013  -2949.8013      85.1149     146.3102     106.2370       0.0184       0.2508       0.1506       2.4191       0.8715       0.5815
   3745.2500   2971.9248  -2949.9248      84.6510     145.8478     100.6382       0.0106       0.2166       0.1382       2.4396       0.9480       0.5120
   3745.3750   2972.0481  -2950.0481      84.0956     145.2283     101.1642       0.0068       0.2004       0.1284       2.4560       1.0000       0.5186
   3745.5000   2972.1716  -2950.1716      83.5524     144.4984      95.7442       0.0078       0.2124       0.1315       2.4508       0.9885       0.4514
   3745.6250   2972.2952  -2950.2952      83.0782     143.7434     101.7826       0.0132       0.2078       0.1432       2.4313       0.8733       0.5263
   3745.7500   2972.4185  -2950.4185      82.6820     143.0094     107.7612       0.0173       0.2336       0.1492       2.4198       0.7847       0.6003
   3745.8750   2972.5420  -2950.5420      82.3692     142.3415     108.3590       0.0123       0.2707       0.1416       2.4317       0.7674       0.6078
   3746.0000   2972.6655  -2950.6655      82.1449     141.7817     106.2897       0.0052       0.2427       0.1226       2.4657       0.8340       0.5822
   3746.1250   2972.7888  -2950.7888      82.0341     141.3739      93.9198       0.0089       0.2239       0.1344       2.4461       0.7851       0.4287
   3746.2500   2972.9124  -2950.9124      82.0170     141.0945      88.8626       0.0232       0.2218       0.1557       2.4105       0.7671       0.3660
   3746.3750   2973.0359  -2951.0359      82.0617     140.9214      88.5940       0.0260       0.2195       0.1582       2.4063       0.8487       0.3627
   3746.5000   2973.1592  -2951.1592      82.1440     140.8363      89.8023       0.0327       0.2225       0.1634       2.3977       0.9135       0.3777
   3746.6250   2973.2827  -2951.2827      82.2462     140.8182      88.7693       0.0636       0.2323       0.1782       2.3730       0.9178       0.3649
   3746.7500   2973.4062  -2951.4062      82.3643     140.8461      81.7201       0.0114       0.2244       0.1398       2.4369       1.0000       0.2774
   3746.8750   2973.5295  -2951.5295      82.5007     140.9026      75.0772       0.0078       0.2421       0.1315       2.4509       1.0000       0.1951
   3747.0000   2973.6531  -2951.6531      82.6327     140.9705      77.5028       0.0207       0.2329       0.1532       2.4147       1.0000       0.2253
   3747.1250   2973.7766  -2951.7766      82.7526     141.0340      79.4959       0.0240       0.2291       0.1565       2.4091       1.0000       0.2500
   3747.2500   2973.8999  -2951.8999      82.8723     141.1069      78.9345       0.0199       0.2327       0.1523       2.4162       1.0000       0.2430
   3747.3750   2974.0234  -2952.0234      83.0207     141.2316      80.2256       0.0770       0.2226       0.1825       2.3659       0.9860       0.2589
   3747.5000   2974.1470  -2952.1470      83.2570     141.5106      87.9343       0.0443       0.2026       0.1702       2.3864       1.0000       0.3546
   3747.6250   2974.2703  -2952.2703      83.6017     142.0266      85.5408       0.1191       0.2143       0.1922       2.3497       0.9405       0.3249
   3747.7500   2974.3938  -2952.3938      84.0203     142.7575      83.5847       0.1342       0.2161       0.1948       2.3452       0.9472       0.3006
   3747.8750   2974.5173  -2952.5173      84.4703     143.6440      82.9063       0.1082       0.2103       0.1901       2.3532       0.9937       0.2922
   3748.0000   2974.6406  -2952.6406      84.9070     144.5960      80.0749       0.1163       0.2134       0.1917       2.3505       1.0000       0.2572
   3748.1250   2974.7642  -2952.7642      85.2950     145.5070      68.1220       0.1089       0.2483       0.1902       2.3530       1.0000       0.1097
   3748.2500   2974.8877  -2952.8877      85.5892     146.1551      74.4315       0.1448       0.2564       0.1966       2.3424       1.0000       0.1872
   3748.3750   2975.0110  -2953.0110      85.8034     146.5853     109.6968       0.0399       0.2665       0.1678       2.3903       1.0000       0.6243
   3748.5000   2975.1345  -2953.1345      85.9204     146.8393     122.1046       0.0109       0.2706       0.1388       2.4386       1.0000       0.7782
   3748.6250   2975.2581  -2953.2581      85.9238     146.9810     109.2166       0.0033       0.2726       0.1120       2.4833       1.0000       0.6184
   3748.7500   2975.3813  -2953.3813      85.7935     147.0770      97.9215       0.0008       0.2826       0.0803       2.5361       1.0000       0.4784
   3748.8750   2975.5049  -2953.5049      85.4702     147.1607     104.7949       0.0015       0.3059       0.0945       2.5115       1.0000       0.5636
   3749.0000   2975.6284  -2953.6284      84.9593     147.1624     112.4874       0.0005       0.3308       0.0701       2.5532       1.0000       0.6589
   3749.1250   2975.7517  -2953.7517      84.3635     147.0881     106.6496       0.0004       0.3237       0.0639       2.5634       1.0000       0.5866
   3749.2500   2975.8752  -2953.8752      83.7552     146.9735     100.7364       0.0007       0.2943       0.0763       2.5427       1.0000       0.5132
   3749.3750   2975.9988  -2953.9988      83.1979     146.8625     100.5989       0.0012       0.2694       0.0890       2.5194       0.8673       0.5116
   3749.5000   2976.1221  -2954.1221      82.7385     146.7952      95.5708       0.0008       0.2842       0.0814       2.5333       0.9307       0.4493
