#------------------------------------------------------------------------------
#
#   Created by  : [OpenWorks] Log Export Utility (LEXP)
#   Created on  : 2007-05-07 11:58:04
#   Project     : NORNE
#   User        : JSE
#   Interpreter : JSE
#
#------------------------------------------------------------------------------
~VERSION INFORMATION
VERS. 2.0 : CWLS Log ASCII Standard - version 2.0
WRAP.  NO : One line per depth step
~WELL INFORMATION
#MNEMONIC   .UNIT                                           VALUE :DESCRIPTION
#------------------------------------------------------------------------------
STRT        .M                                           461.1250 :START DEPTH
STOP        .M                                          3010.0000 :STOP DEPTH
STEP        .M                                             0.1250 :STEP
NULL        .                                           -999.2500 :NULL VALUE
COMP        .                                             STATOIL :COMPANY
WELL        .                                       6608/10-E-3 H :WELL
FLD         .                                               NORNE :FIELD
LOC         .                                             UNKNOWN :LOCATION
CNTY        .                                             UNKNOWN :COUNTY
STAT        .                                             UNKNOWN :STATE
CTRY        .                                              Norway :COUNTRY
SRVC        .                                             UNKNOWN :SERVICE COMPANY
DATE        .                                             UNKNOWN :LOG DATE
UWI         .                                    NO 6608/10-E-3 H :UNIQUE WELL ID
XCOORD      .                                       459189.815835 :SURFACE X
YCOORD      .                                      7325451.234448 :SURFACE Y
LAT         .                                           66.045417 :LATITUDE
LON         .                                            8.099250 :LONGITUDE
ELEV        .M                                            22.0000 :SURFACE ELEV
ELEV_TYPE   .                                                  KB :ELEV TYPE
~CURVE INFORMATION
#MNEMONIC.UNIT        API CODE       : CURVE DESCRIPTION
#------------------------------------------------------------------------------
DEPTH    .M                          : Measured Depth
TVD      .M                          : True Vertical Depth (TVD)
TVDSS    .M                          : True Vertical Depth (TVDSS)
DT       .us/ft       UNKNOWN        : DT:DT:rC:NONE:v1 
DTS      .us/ft       UNKNOWN        : DTS:DTS:rC:NONE:v1 
GR       .API         UNKNOWN        : GR:GR:rC:NONE:v1 
KLOGH    .mD          UNKNOWN        : KLOGH:UNKNOWN:rC::v0 (auto-composite)
NPHI     .v/v_decimal UNKNOWN        : NPHI:NPHI:rC:NONE:v1 
PHIF     .v/v_decimal UNKNOWN        : PHIF:UNKNOWN:rC::v0 (auto-composite)
RHOB     .g/cm3       UNKNOWN        : RHOB:RHOB:rC:NONE:v1 
SW       .v/v_decimal UNKNOWN        : SW:UNKNOWN:rC::v0 (auto-composite)
VSH      .v/v_decimal UNKNOWN        : VSH:UNKNOWN:rC::v0 (auto-composite)
~A     DEPTH         TVD       TVDSS           DT          DTS           GR        KLOGH         NPHI         PHIF         RHOB           SW          VSH
# ...
   2742.6250   2654.0154  -2632.0154      92.5120     162.6944     126.1060       1.2257       0.3029       0.1663       2.3862       0.5795       0.7895
   2742.7500   2654.1355  -2632.1355      93.0758     164.2176     116.4242       2.1417       0.2952       0.1774       2.3699       0.5834       0.6427
   2742.8750   2654.2556  -2632.2556      93.7781     165.4467     112.6146       2.1472       0.2823       0.1775       2.3683       0.6519       0.5850
   2743.0000   2654.3757  -2632.3757      94.3217     166.3906     114.1516       1.3131       0.3146       0.1676       2.3824       0.7141       0.6084
   2743.1250   2654.4956  -2632.4956      94.5971     167.0962     117.4145       0.8563       0.3528       0.1591       2.3966       0.7407       0.6578
   2743.2500   2654.6157  -2632.6157      94.6593     167.6024     122.0972       0.6802       0.3636       0.1545       2.4050       0.7198       0.7287
   2743.3750   2654.7358  -2632.7358      94.6238     167.9581     127.0938       0.6553       0.3422       0.1537       2.4071       0.6673       0.8045
   2743.5000   2654.8560  -2632.8560      94.6057     168.2255     126.7956       0.6698       0.3488       0.1542       2.4080       0.6003       0.7999
   2743.6250   2654.9761  -2632.9761      94.4741     168.4379     121.4437       0.7265       0.3301       0.1558       2.4056       0.5834       0.7188
   2743.7500   2655.0962  -2633.0962      94.1899     168.6485     116.8931       0.6542       0.3307       0.1537       2.4080       0.5930       0.6499
   2743.8750   2655.2161  -2633.2161      94.1681     168.9381     116.3968       0.4537       0.3397       0.1464       2.4207       0.6341       0.6424
   2744.0000   2655.3362  -2633.3362      94.5274     169.3676     118.3426       0.2551       0.3403       0.1348       2.4437       0.7139       0.6719
   2744.1250   2655.4563  -2633.4563      95.1426     169.9623     118.1911       0.1411       0.3261       0.1230       2.4664       0.8172       0.6696
   2744.2500   2655.5764  -2633.5764      96.1502     170.6450     118.3346       0.4318       0.3862       0.1454       2.4246       0.6952       0.6717
   2744.3750   2655.6965  -2633.6965      97.1606     171.2418     123.1681       0.7750       0.3832       0.1571       2.4020       0.6688       0.7450
   2744.5000   2655.8167  -2633.8167      97.7960     171.7149     127.2929       0.4693       0.3375       0.1470       2.4199       0.7083       0.8074
   2744.6250   2655.9365  -2633.9365      98.2317     172.0837     133.1047       0.1880       0.3114       0.1287       2.4473       0.8199       0.8713
   2744.7500   2656.0566  -2634.0566      98.4991     172.3879     140.0759       0.0834       0.3307       0.1124       2.4591       0.8978       0.8876
   2744.8750   2656.1768  -2634.1768      98.0890     172.6760     138.7950       0.0716       0.3311       0.1094       2.4690       0.9715       0.8906
   2745.0000   2656.2969  -2634.2969      97.0454     172.9055     132.7425       0.0554       0.3140       0.1043       2.4974       1.0000       0.8900
   2745.1250   2656.4170  -2634.4170      95.8261     173.0775     131.2464       0.0013       0.3519       0.0297       2.6208       1.0000       0.8674
   2745.2500   2656.5371  -2634.5371      94.7695     173.2254     127.4442       0.0003       0.3818       0.0010       2.7071       1.0000       0.8098
   2745.3750   2656.6572  -2634.6572      94.0640     173.4131     120.9982       0.0003       0.3728       0.0010       2.6868       1.0000       0.7121
   2745.5000   2656.7771  -2634.7771      93.7088     173.7249     116.4448       0.0073       0.3328       0.0637       2.5646       1.0000       0.6431
   2745.6250   2656.8972  -2634.8972      93.2755     174.2984     121.0954       0.0915       0.3527       0.1143       2.4801       0.9332       0.7136
   2745.7500   2657.0173  -2635.0173      93.7490     175.2366     127.7769       0.2720       0.3717       0.1361       2.4402       0.7960       0.8148
   2745.8750   2657.1375  -2635.1375      95.0800     176.5004     130.3788       0.2999       0.3586       0.1381       2.4378       0.8167       0.8542
   2746.0000   2657.2576  -2635.2576      96.5830     178.0668     130.7220       0.2685       0.3560       0.1359       2.4428       0.8657       0.8594
   2746.1250   2657.3777  -2635.3777      98.0126     179.9021     131.1082       0.3041       0.3914       0.1384       2.4371       0.8700       0.8616
   2746.2500   2657.4976  -2635.4976      99.9220     181.9270     132.2640       0.3260       0.4477       0.1398       2.4290       0.8520       0.8602
   2746.3750   2657.6177  -2635.6177     101.1678     184.1612     134.2173       0.1413       0.4275       0.1230       2.4582       0.9798       0.8770
   2746.5000   2657.7378  -2635.7378     102.1762     186.2929     134.8872       0.0768       0.3896       0.1108       2.4797       1.0000       0.8892
   2746.6250   2657.8579  -2635.8579     103.1747     188.2050     133.4205       0.0917       0.3659       0.1144       2.4776       1.0000       0.8856
   2746.7500   2657.9780  -2635.9780     103.9093     189.7943     131.0515       0.1186       0.3660       0.1195       2.4722       1.0000       0.8644
   2746.8750   2658.0981  -2636.0981     104.0383     191.0058     130.5503       0.0748       0.3808       0.1103       2.4875       1.0000       0.8569
   2747.0000   2658.2180  -2636.2180     103.7306     191.8124     136.9199       0.0495       0.3739       0.1020       2.4907       1.0000       0.8980
   2747.1250   2658.3381  -2636.3381     103.6902     192.1460     139.6740       0.0569       0.3680       0.1048       2.4782       1.0000       0.8952
   2747.2500   2658.4583  -2636.4583     103.4165     191.9724     134.5307       0.1031       0.3606       0.1167       2.4694       1.0000       0.8833
   2747.3750   2658.5784  -2636.5784     102.9726     191.2355     128.7219       0.1948       0.3577       0.1294       2.4557       1.0000       0.8291
   2747.5000   2658.6985  -2636.6985     102.3619     189.9437     127.5277       0.2982       0.3637       0.1380       2.4379       0.9300       0.8111
   2747.6250   2658.8186  -2636.8186     101.4535     188.1807     131.4723       0.3326       0.3783       0.1402       2.4293       0.8703       0.8598
   2747.7500   2658.9387  -2636.9387     100.3236     186.1500     132.9213       0.4059       0.3738       0.1441       2.4137       0.7828       0.8559
   2747.8750   2659.0586  -2637.0586      99.2479     184.1010     137.8937       0.2696       0.3694       0.1359       2.4096       0.7351       0.8641
   2748.0000   2659.1787  -2637.1787      98.2976     181.9891     138.7334       0.2223       0.3761       0.1321       2.4150       0.7212       0.8679
   2748.1250   2659.2988  -2637.2988      97.5200     179.7088     137.6450       0.2137       0.3883       0.1313       2.4216       0.7225       0.8687
   2748.2500   2659.4189  -2637.4189      96.7245     177.1335     139.3872       0.1708       0.3878       0.1268       2.4261       0.7300       0.8732
   2748.3750   2659.5391  -2637.5391      95.0531     174.1190     145.2736       0.1177       0.3383       0.1194       2.4450       0.7906       0.8806
   2748.5000   2659.6592  -2637.6592      94.0191     170.6612     146.8291       0.0093       0.3115       0.0686       2.5494       1.0000       0.9314
   2748.6250   2659.7791  -2637.7791      92.9585     167.0818     141.2699       0.0046       0.2918       0.0542       2.5760       1.0000       0.9458
   2748.7500   2659.8992  -2637.8992      91.9708     163.6333     122.8284       0.0439       0.2834       0.0996       2.5051       0.9819       0.7395
   2748.8750   2660.0193  -2638.0193      91.1536     160.5115      95.5556       1.6888       0.2792       0.1727       2.3767       0.5262       0.3265
   2749.0000   2660.1394  -2638.1394      90.5321     157.8340      72.4034      35.9765       0.2644       0.2339       2.2705       0.3616       0.1620
