#------------------------------------------------------------------------------
#
#   Created by  : [OpenWorks] Log Export Utility (LEXP)
#   Created on  : 2007-05-07 11:58:04
#   Project     : NORNE
#   User        : JSE
#   Interpreter : JSE
#
#------------------------------------------------------------------------------
~VERSION INFORMATION
VERS. 2.0 : CWLS Log ASCII Standard - version 2.0
WRAP.  NO : One line per depth step
~WELL INFORMATION
#MNEMONIC   .UNIT                                           VALUE :DESCRIPTION
#------------------------------------------------------------------------------
STRT        .M                                           461.1250 :START DEPTH
STOP        .M                                          3010.0000 :STOP DEPTH
STEP        .M                                             0.1250 :STEP
NULL        .                                           -999.2500 :NULL VALUE
COMP        .                                             STATOIL :COMPANY
WELL        .                                       6608/10-E-3 H :WELL
FLD         .                                               NORNE :FIELD
LOC         .                                             UNKNOWN :LOCATION
CNTY        .                                             UNKNOWN :COUNTY
STAT        .                                             UNKNOWN :STATE
CTRY        .                                              Norway :COUNTRY
SRVC        .                                             UNKNOWN :SERVICE COMPANY
DATE        .                                             UNKNOWN :LOG DATE
UWI         .                                    NO 6608/10-E-3 H :UNIQUE WELL ID
XCOORD      .                                       459189.815835 :SURFACE X
YCOORD      .                                      7325451.234448 :SURFACE Y
LAT         .                                           66.045417 :LATITUDE
LON         .                                            8.099250 :LONGITUDE
ELEV        .M                                            22.0000 :SURFACE ELEV
ELEV_TYPE   .                                                  KB :ELEV TYPE
~CURVE INFORMATION
#MNEMONIC.UNIT        API CODE       : CURVE DESCRIPTION
#------------------------------------------------------------------------------
DEPTH    .M                          : Measured Depth
TVD      .M                          : True Vertical Depth (TVD)
TVDSS    .M                          : True Vertical Depth (TVDSS)
DT       .us/ft       UNKNOWN        : DT:DT:rC:NONE:v1 
DTS      .us/ft       UNKNOWN        : DTS:DTS:rC:NONE:v1 
GR       .API         UNKNOWN        : GR:GR:rC:NONE:v1 
KLOGH    .mD          UNKNOWN        : KLOGH:UNKNOWN:rC::v0 (auto-composite)
NPHI     .v/v_decimal UNKNOWN        : NPHI:NPHI:rC:NONE:v1 
PHIF     .v/v_decimal UNKNOWN        : PHIF:UNKNOWN:rC::v0 (auto-composite)
RHOB     .g/cm3       UNKNOWN        : RHOB:RHOB:rC:NONE:v1 
SW       .v/v_decimal UNKNOWN        : SW:UNKNOWN:rC::v0 (auto-composite)
VSH      .v/v_decimal UNKNOWN        : VSH:UNKNOWN:rC::v0 (auto-composite)
~A     DEPTH         TVD       TVDSS           DT          DTS           GR        KLOGH         NPHI         PHIF         RHOB           SW          VSH
# ...
   2931.1250   2833.6094  -2811.6094      88.2116     150.3682      94.0106       0.1917       0.2318       0.2028       2.3458       1.0000       0.4298
   2931.2500   2833.7278  -2811.7278      87.4568     148.6336     102.3803       0.0352       0.2336       0.1650       2.3991       1.0000       0.5337
   2931.3750   2833.8462  -2811.8462      86.7354     146.7161     107.7381       0.0184       0.2265       0.1505       2.4286       1.0000       0.6001
   2931.5000   2833.9644  -2811.9644      85.9683     144.5907     109.2659       0.0069       0.2334       0.1288       2.4641       1.0000       0.6190
   2931.6250   2834.0828  -2812.0828      84.8217     142.2709     108.1726       0.0033       0.2507       0.1126       2.4900       1.0000       0.6055
   2931.7500   2834.2012  -2812.2012      83.3265     139.8059     106.5152       0.0025       0.2620       0.1060       2.5005       1.0000       0.5849
   2931.8750   2834.3193  -2812.3193      82.0015     137.2781     106.5411       0.0019       0.2423       0.0996       2.5108       1.0000       0.5853
   2932.0000   2834.4377  -2812.4377      80.6534     134.8929     103.5026       0.0009       0.2138       0.0832       2.5370       1.0000       0.5475
   2932.1250   2834.5562  -2812.5562      79.3738     132.8036      96.7811       0.0012       0.1899       0.0894       2.5240       1.0000       0.4642
   2932.2500   2834.6743  -2812.6743      78.3742     131.0846      93.0931       0.0015       0.1801       0.0953       2.5126       1.0000       0.4185
   2932.3750   2834.7927  -2812.7927      77.6170     129.8045      94.5994       0.0015       0.1778       0.0941       2.5161       1.0000       0.4371
   2932.5000   2834.9111  -2812.9111      77.0476     129.0195      99.3182       0.0013       0.1742       0.0907       2.5249       1.0000       0.4957
   2932.6250   2835.0293  -2813.0293      76.9533     128.8259      98.5416       0.0031       0.1753       0.1112       2.4921       0.8706       0.4860
   2932.7500   2835.1477  -2813.1477      77.2182     129.3446      89.2770       0.0040       0.1891       0.1164       2.4839       0.9289       0.3712
   2932.8750   2835.2661  -2813.2661      77.9392     130.4748      86.5809       0.0034       0.1975       0.1131       2.4879       1.0000       0.3378
   2933.0000   2835.3843  -2813.3843      78.8275     132.1726      92.9920       0.0040       0.2030       0.1168       2.4818       1.0000       0.4172
   2933.1250   2835.5027  -2813.5027      79.8458     134.3298     104.3550       0.0078       0.2108       0.1314       2.4599       1.0000       0.5581
   2933.2500   2835.6211  -2813.6211      81.2181     136.7774     111.9457       0.0149       0.2262       0.1459       2.4367       0.9180       0.6523
   2933.3750   2835.7393  -2813.7393      82.5965     139.2381     117.1494       0.0106       0.2484       0.1382       2.4490       0.9588       0.7168
   2933.5000   2835.8577  -2813.8577      83.5378     141.4740     116.6152       0.0082       0.2536       0.1327       2.4579       0.9930       0.7101
   2933.6250   2835.9761  -2813.9761      84.4691     143.4096     115.3773       0.0119       0.2489       0.1409       2.4447       0.9431       0.6948
   2933.7500   2836.0942  -2814.0942      85.1221     145.0158     115.9362       0.0144       0.2458       0.1452       2.4379       0.9179       0.7017
   2933.8750   2836.2126  -2814.2126      85.3310     146.2880     117.6234       0.0091       0.2487       0.1348       2.4545       0.9771       0.7226
   2934.0000   2836.3311  -2814.3311      85.7487     147.2177     113.9591       0.0114       0.2420       0.1399       2.4463       0.9503       0.6772
   2934.1250   2836.4492  -2814.4492      85.8848     147.7917     110.2979       0.0096       0.2339       0.1361       2.4523       0.9744       0.6318
   2934.2500   2836.5676  -2814.5676      85.8646     148.1571     110.6255       0.0057       0.2367       0.1244       2.4711       1.0000       0.6359
   2934.3750   2836.6860  -2814.6860      85.8207     148.3891     110.1428       0.0047       0.2409       0.1203       2.4777       1.0000       0.6299
   2934.5000   2836.8042  -2814.8042      85.8145     148.5492     108.1090       0.0055       0.2536       0.1235       2.4725       1.0000       0.6047
   2934.6250   2836.9226  -2814.9226      85.8303     148.6806     107.3223       0.0051       0.2877       0.1219       2.4751       1.0000       0.5949
   2934.7500   2837.0410  -2815.0410      85.7507     148.7946     108.9805       0.0036       0.2929       0.1142       2.4873       1.0000       0.6155
   2934.8750   2837.1592  -2815.1592      85.7414     148.8945     111.9429       0.0031       0.2714       0.1110       2.4925       1.0000       0.6522
   2935.0000   2837.2776  -2815.2776      85.7552     148.9873     111.4892       0.0038       0.2560       0.1157       2.4850       1.0000       0.6466
   2935.1250   2837.3960  -2815.3960      85.7701     149.0694     109.8521       0.0045       0.2460       0.1192       2.4795       1.0000       0.6263
   2935.2500   2837.5144  -2815.5144      85.7819     149.1167     110.1363       0.0037       0.2387       0.1146       2.4867       1.0000       0.6298
   2935.3750   2837.6326  -2815.6326      85.8110     149.0710     113.7440       0.0025       0.2425       0.1064       2.5000       1.0000       0.6740
   2935.5000   2837.7510  -2815.7510      85.7859     148.7742     116.4208       0.0041       0.2496       0.1170       2.4830       1.0000       0.7077
   2935.6250   2837.8694  -2815.8694      85.7428     148.2108     113.5123       0.0039       0.2423       0.1159       2.4847       1.0000       0.6717
   2935.7500   2837.9875  -2815.9875      85.5598     147.3959     106.5060       0.0046       0.2282       0.1198       2.4785       1.0000       0.5849
   2935.8750   2838.1060  -2816.1060      85.1837     146.3972      96.5238       0.0066       0.2167       0.1276       2.4659       1.0000       0.4611
   2936.0000   2838.2244  -2816.2244      84.6339     145.3232      84.8591       0.0058       0.2151       0.1249       2.4702       1.0000       0.3164
   2936.1250   2838.3425  -2816.3425      84.0317     144.3279      75.9130       0.0009       0.2184       0.0844       2.5350       1.0000       0.2055
   2936.2500   2838.4609  -2816.4609      83.6096     143.5509      83.5449       0.0007       0.2159       0.0764       2.5479       1.0000       0.3001
   2936.3750   2838.5793  -2816.5793      83.2703     143.0405      95.3365       0.0007       0.2248       0.0792       2.5434       1.0000       0.4462
   2936.5000   2838.6975  -2816.6975      82.9798     142.8499     106.3477       0.0010       0.2417       0.0868       2.5313       1.0000       0.5828
   2936.6250   2838.8159  -2816.8159      82.7696     143.0089     113.1633       0.0017       0.2574       0.0970       2.5150       1.0000       0.6673
   2936.7500   2838.9343  -2816.9343      82.7470     143.5000     113.4210       0.0030       0.2608       0.1103       2.4940       1.0000       0.6706
   2936.8750   2839.0525  -2817.0525      83.0545     144.3033     113.6602       0.0054       0.2723       0.1231       2.4732       0.9784       0.6735
   2937.0000   2839.1709  -2817.1709      83.4848     145.1423     119.0257       0.0056       0.2919       0.1241       2.4716       0.9633       0.7400
   2937.1250   2839.2893  -2817.2893      83.9524     145.9067     124.4695       0.0050       0.3053       0.1217       2.4754       0.9579       0.8075
   2937.2500   2839.4075  -2817.4075      84.3972     146.5157     125.4361       0.0058       0.3044       0.1249       2.4677       0.8911       0.8194
   2937.3750   2839.5259  -2817.5259      84.7823     146.9218     118.6773       0.0104       0.2852       0.1379       2.4415       0.7736       0.7356
   2937.5000   2839.6443  -2817.6443      85.0876     147.0933     103.9105       0.0146       0.2437       0.1454       2.4309       0.7581       0.5526
