#------------------------------------------------------------------------------
#
#   Created by  : [OpenWorks] Log Export Utility (LEXP)
#   Created on  : 2007-05-07 11:57:13
#   Project     : NORNE
#   User        : JSE
#   Interpreter : JSE
#
#------------------------------------------------------------------------------
~VERSION INFORMATION
VERS. 2.0 : CWLS Log ASCII Standard - version 2.0
WRAP.  NO : One line per depth step
~WELL INFORMATION
#MNEMONIC   .UNIT                                           VALUE :DESCRIPTION
#------------------------------------------------------------------------------
STRT        .M                                          1325.1250 :START DEPTH
STOP        .M                                          3789.8750 :STOP DEPTH
STEP        .M                                             0.1250 :STEP
NULL        .                                           -999.2500 :NULL VALUE
COMP        .                                             STATOIL :COMPANY
WELL        .                                       6608/10-C-3 H :WELL
FLD         .                                               NORNE :FIELD
LOC         .                                             UNKNOWN :LOCATION
CNTY        .                                             UNKNOWN :COUNTY
STAT        .                                             UNKNOWN :STATE
CTRY        .                                              Norway :COUNTRY
SRVC        .                                             UNKNOWN :SERVICE COMPANY
DATE        .                                             UNKNOWN :LOG DATE
UWI         .                                    NO 6608/10-C-3 H :UNIQUE WELL ID
XCOORD      .                                       457175.596094 :SURFACE X
YCOORD      .                                      7322029.604515 :SURFACE Y
LAT         .                                           66.014460 :LATITUDE
LON         .                                            8.055937 :LONGITUDE
ELEV        .M                                            22.0000 :SURFACE ELEV
ELEV_TYPE   .                                                  KB :ELEV TYPE
~CURVE INFORMATION
#MNEMONIC.UNIT        API CODE       : CURVE DESCRIPTION
#------------------------------------------------------------------------------
DEPTH    .M                          : Measured Depth
TVD      .M                          : True Vertical Depth (TVD)
TVDSS    .M                          : True Vertical Depth (TVDSS)
DT       .us/ft       UNKNOWN        : DT:UNKNOWN:rC:NONE:v1 
DTS      .us/ft       UNKNOWN        : DTS:UNKNOWN:rC:NONE:v1 
GR       .API         UNKNOWN        : GR:UNKNOWN:rC:NONE:v1 
KLOGH    .mD          UNKNOWN        : KLOGH:UNKNOWN:rC::v0 (auto-composite)
NPHI     .v/v_decimal UNKNOWN        : NPHI:UNKNOWN:rC:NONE:v1 
PHIF     .v/v_decimal UNKNOWN        : PHIF:UNKNOWN:rC::v0 (auto-composite)
RHOB     .g/cm3       UNKNOWN        : RHOB:UNKNOWN:rC:NONE:v1 
SW       .v/v_decimal UNKNOWN        : SW:UNKNOWN:rC::v0 (auto-composite)
VSH      .v/v_decimal UNKNOWN        : VSH:UNKNOWN:rC::v0 (auto-composite)
~A     DEPTH         TVD       TVDSS           DT          DTS           GR        KLOGH         NPHI         PHIF         RHOB           SW          VSH
# ...
   3424.6250   2658.6133  -2636.6133      94.1569     162.1577      58.9881    1053.3837       0.2233       0.2919       2.1863       0.1185       0.0010
   3424.7500   2658.7344  -2636.7344      94.2319     162.2923      63.2059     982.2318       0.2570       0.2897       2.1901       0.1227       0.0480
   3424.8750   2658.8552  -2636.8552      94.2533     162.2079      56.5491    1274.1808       0.2310       0.2981       2.1761       0.1191       0.0010
   3425.0000   2658.9761  -2636.9761      94.1729     161.7958      61.4170    1629.8458       0.2537       0.3060       2.1629       0.1161       0.0258
   3425.1250   2659.0972  -2637.0972      93.9527     161.0973      61.3631     943.2903       0.2619       0.2884       2.1923       0.1189       0.0252
   3425.2500   2659.2180  -2637.2180      93.5378     160.1539      59.2422    1015.8727       0.2509       0.2908       2.1883       0.1149       0.0010
   3425.3750   2659.3391  -2637.3391      92.9022     159.0262      55.3812    2134.8149       0.2361       0.3148       2.1485       0.1064       0.0010
   3425.5000   2659.4600  -2637.4600      92.0619     157.7884      45.7877    1506.3184       0.2441       0.3035       2.1672       0.1116       0.0010
   3425.6250   2659.5811  -2637.5811      91.1297     156.5407      53.6301     565.4565       0.2439       0.2718       2.2197       0.1256       0.0010
   3425.7500   2659.7019  -2637.7019      90.3102     155.4169      50.4058     240.7378       0.2536       0.2442       2.2654       0.1421       0.0010
   3425.8750   2659.8230  -2637.8230      89.6865     154.5061      47.2347     432.3383       0.2360       0.2631       2.2341       0.1380       0.0010
   3426.0000   2659.9441  -2637.9441      89.2915     153.8666      48.8368     550.0612       0.2132       0.2709       2.2211       0.1393       0.0010
   3426.1250   2660.0654  -2638.0654      89.1243     153.5242      53.2932     137.9245       0.2176       0.2262       2.2953       0.1679       0.0010
   3426.2500   2660.1865  -2638.1865      89.1686     153.4776      46.2786     296.5236       0.2468       0.2509       2.2542       0.1555       0.0010
   3426.3750   2660.3076  -2638.3076      89.4037     153.7007      50.2906     189.0344       0.2215       0.2364       2.2784       0.1623       0.0010
   3426.5000   2660.4287  -2638.4287      89.7601     154.1189      53.1764     132.7088       0.2140       0.2249       2.2973       0.1664       0.0010
   3426.6250   2660.5500  -2638.5500      90.1848     154.6826      51.4974     199.4770       0.2314       0.2381       2.2755       0.1542       0.0010
   3426.7500   2660.6711  -2638.6711      90.6255     155.3155      50.7017     506.9600       0.2568       0.2683       2.2255       0.1352       0.0010
   3426.8750   2660.7922  -2638.7922      91.0369     155.9191      60.5826     839.0854       0.2595       0.2846       2.1985       0.1263       0.0155
   3427.0000   2660.9136  -2638.9136      91.3717     156.3293      58.1342     731.0750       0.2399       0.2801       2.2059       0.1325       0.0010
   3427.1250   2661.0347  -2639.0347      91.5991     156.5011      58.1327     524.1067       0.2193       0.2694       2.2237       0.1430       0.0010
   3427.2500   2661.1558  -2639.1558      91.7304     156.5148      56.0625     699.3931       0.2327       0.2787       2.2083       0.1434       0.0010
   3427.3750   2661.2769  -2639.2769      91.7952     156.4603      51.7266     661.2010       0.2319       0.2769       2.2112       0.1462       0.0010
   3427.5000   2661.3982  -2639.3982      91.8373     156.4263      47.9007     277.7257       0.1923       0.2488       2.2577       0.1593       0.0010
   3427.6250   2661.5193  -2639.5193      91.9110     156.4796      51.1015     313.9030       0.1947       0.2528       2.2512       0.1535       0.0010
   3427.7500   2661.6404  -2639.6404      92.0742     156.6286      49.5545    1067.6515       0.2486       0.2924       2.1856       0.1313       0.0010
   3427.8750   2661.7617  -2639.7617      92.2894     156.8429      50.7060     438.5665       0.2363       0.2636       2.2332       0.1411       0.0010
   3428.0000   2661.8828  -2639.8828      92.5287     157.1571      53.4027     105.1060       0.2275       0.2174       2.3098       0.1633       0.0010
   3428.1250   2662.0039  -2640.0039      92.7789     157.6181      53.9012     113.6783       0.2326       0.2199       2.3057       0.1572       0.0010
   3428.2500   2662.1250  -2640.1250      93.0439     158.2704      48.8119    1525.1101       0.2226       0.3039       2.1665       0.1151       0.0010
   3428.3750   2662.2463  -2640.2463      93.3663     159.1418      47.3998     291.9330       0.2450       0.2504       2.2551       0.1319       0.0010
   3428.5000   2662.3674  -2640.3674      93.7571     160.0664      50.6964     617.1019       0.2389       0.2746       2.2149       0.1227       0.0010
   3428.6250   2662.4885  -2640.4885      94.1635     160.9045      55.7010     860.2424       0.2448       0.2854       2.1972       0.1210       0.0010
   3428.7500   2662.6099  -2640.6099      94.5273     161.5918      58.9362     963.2725       0.2473       0.2890       2.1911       0.1248       0.0010
   3428.8750   2662.7310  -2640.7310      94.7976     162.0975      57.4115    1282.8250       0.2396       0.2983       2.1757       0.1301       0.0010
   3429.0000   2662.8521  -2640.8521      94.9420     162.4200      49.5100    1427.9325       0.2493       0.3018       2.1700       0.1393       0.0010
   3429.1250   2662.9731  -2640.9731      94.9617     162.5103      50.5512    1589.3613       0.2868       0.3052       2.1643       0.1483       0.0010
   3429.2500   2663.0945  -2641.0945      94.9301     162.3537      50.4014    1178.4851       0.3005       0.2956       2.1803       0.1572       0.0010
   3429.3750   2663.2156  -2641.2156      94.8408     161.9061      50.0225     820.7426       0.2863       0.2839       2.1997       0.1590       0.0010
   3429.5000   2663.3367  -2641.3367      94.6662     161.1661      51.6710     814.8099       0.2654       0.2836       2.2001       0.1495       0.0010
   3429.6250   2663.4578  -2641.4578      94.3678     160.1732      55.8704    1347.2914       0.2612       0.2999       2.1731       0.1316       0.0010
   3429.7500   2663.5791  -2641.5791      93.8870     159.0048      51.5504    1138.4725       0.2393       0.2944       2.1821       0.1211       0.0010
   3429.8750   2663.7002  -2641.7002      93.2259     157.7889      49.2509     781.7460       0.2532       0.2823       2.2023       0.1283       0.0010
   3430.0000   2663.8213  -2641.8213      92.4607     156.5821      50.1828     634.0476       0.2338       0.2755       2.2135       0.1367       0.0010
   3430.1250   2663.9426  -2641.9426      91.6305     155.4028      52.5500     735.3284       0.2140       0.2803       2.2056       0.1389       0.0010
   3430.2500   2664.0637  -2642.0637      90.7728     154.2634      53.8430    1027.8207       0.2198       0.2911       2.1876       0.1359       0.0010
   3430.3750   2664.1848  -2642.1848      89.9250     153.1760      51.7900     955.3240       0.2439       0.2888       2.1915       0.1389       0.0010
   3430.5000   2664.3059  -2642.3059      89.1562     152.2250      52.5933     332.2260       0.2255       0.2546       2.2482       0.1512       0.0010
   3430.6250   2664.4272  -2642.4272      88.5114     151.4459      53.9367     284.9082       0.2463       0.2496       2.2564       0.1551       0.0010
   3430.7500   2664.5483  -2642.5483      88.0401     150.8512      52.7066     170.1736       0.2412       0.2330       2.2839       0.1665       0.0010
   3430.8750   2664.6694  -2642.6694      87.7775     150.4530      53.4096     195.4951       0.2392       0.2375       2.2765       0.1640       0.0010
   3431.0000   2664.7908  -2642.7908      87.7438     150.2556      58.6866     722.7154       0.2740       0.2797       2.2065       0.1412       0.0010
