#------------------------------------------------------------------------------
#
#   Created by  : [OpenWorks] Log Export Utility (LEXP)
#   Created on  : 2007-05-07 11:58:15
#   Project     : NORNE
#   User        : JSE
#   Interpreter : JSE
#
#------------------------------------------------------------------------------
~VERSION INFORMATION
VERS. 2.0 : CWLS Log ASCII Standard - version 2.0
WRAP.  NO : One line per depth step
~WELL INFORMATION
#MNEMONIC   .UNIT                                           VALUE :DESCRIPTION
#------------------------------------------------------------------------------
STRT        .M                                           454.5508 :START DEPTH
STOP        .M                                          3169.8008 :STOP DEPTH
STEP        .M                                             0.1250 :STEP
NULL        .                                           -999.2500 :NULL VALUE
COMP        .                                             STATOIL :COMPANY
WELL        .                                       6608/10-F-1 H :WELL
FLD         .                                               NORNE :FIELD
LOC         .                                             UNKNOWN :LOCATION
CNTY        .                                             UNKNOWN :COUNTY
STAT        .                                             UNKNOWN :STATE
CTRY        .                                              Norway :COUNTRY
SRVC        .                                             UNKNOWN :SERVICE COMPANY
DATE        .                                             UNKNOWN :LOG DATE
UWI         .                                    NO 6608/10-F-1 H :UNIQUE WELL ID
XCOORD      .                                       459309.364262 :SURFACE X
YCOORD      .                                      7325355.161830 :SURFACE Y
LAT         .                                           66.044571 :LATITUDE
LON         .                                            8.101919 :LONGITUDE
ELEV        .M                                            24.0000 :SURFACE ELEV
ELEV_TYPE   .                                                  KB :ELEV TYPE
~CURVE INFORMATION
#MNEMONIC.UNIT        API CODE       : CURVE DESCRIPTION
#------------------------------------------------------------------------------
DEPTH    .M                          : Measured Depth
TVD      .M                          : True Vertical Depth (TVD)
TVDSS    .M                          : True Vertical Depth (TVDSS)
DT       .us/ft       UNKNOWN        : DT:UNKNOWN:rC:NONE:v1 
DTS      .us/ft       UNKNOWN        : DTS:UNKNOWN:rC:NONE:v1 
GR       .API         UNKNOWN        : GR:UNKNOWN:rC:NONE:v1 
KLOGH    .mD          UNKNOWN        : KLOGH:UNKNOWN:rC::v0 (auto-composite)
NPHI     .v/v_decimal UNKNOWN        : NPHI:SFINX:rC:NONE:v1 
PHIF     .v/v_decimal UNKNOWN        : PHIF:UNKNOWN:rC::v0 (auto-composite)
RHOB     .g/cm3       UNKNOWN        : RHOB:UNKNOWN:rC:NONE:v1 
SW       .v/v_decimal UNKNOWN        : SW:UNKNOWN:rC::v0 (auto-composite)
VSH      .v/v_decimal UNKNOWN        : VSH:UNKNOWN:rC::v0 (auto-composite)
~A     DEPTH         TVD       TVDSS           DT          DTS           GR        KLOGH         NPHI         PHIF         RHOB           SW          VSH
# ...
   2918.0508   2763.7795  -2739.7795      89.4044     161.3752      38.7300    1286.2013       0.2999       0.2886       2.1669       1.0000       0.0108
   2918.1758   2763.9045  -2739.9045      89.3881     161.1403      42.1840    1189.1808       0.3040       0.2915       2.1587       1.0000       0.0339
   2918.3008   2764.0295  -2740.0295      89.3766     160.7930      43.3113    1080.1809       0.2935       0.2896       2.1504       1.0000       0.0510
   2918.4258   2764.1545  -2740.1545      89.3124     160.3280      43.4304     984.9073       0.2829       0.2878       2.1655       1.0000       0.0542
   2918.5508   2764.2793  -2740.2793      89.1670     159.7692      43.0810     896.4617       0.2846       0.2859       2.1760       1.0000       0.0503
   2918.6758   2764.4043  -2740.4043      88.9197     159.1088      41.8205     813.5566       0.2910       0.2839       2.1675       1.0000       0.0378
   2918.8008   2764.5293  -2740.5293      88.5496     158.3258      41.3347     738.9632       0.2967       0.2821       2.1524       1.0000       0.0315
   2918.9258   2764.6543  -2740.6543      88.0404     157.3924      44.2366     688.8401       0.3005       0.2807       2.1606       1.0000       0.0538
   2919.0508   2764.7793  -2740.7793      87.4020     156.2872      42.2707     685.9130       0.3041       0.2806       2.1688       1.0000       0.0553
   2919.1758   2764.9043  -2740.9043      86.7692     155.1750      44.9663     702.3159       0.2970       0.2801       2.1630       1.0000       0.0757
   2919.3008   2765.0291  -2741.0291      86.2109     154.1698      45.8779     617.8861       0.2880       0.2768       2.1652       1.0000       0.0850
   2919.4258   2765.1541  -2741.1541      85.7605     153.3162      44.1648     429.4890       0.2844       0.2710       2.1734       1.0000       0.0739
   2919.5508   2765.2791  -2741.2791      85.4325     152.6254      42.2945     308.6449       0.2886       0.2645       2.1831       1.0000       0.0559
   2919.6758   2765.4041  -2741.4041      85.2315     152.0896      46.4299     236.6428       0.2928       0.2587       2.1996       1.0000       0.0801
   2919.8008   2765.5291  -2741.5291      85.2228     151.7621      44.4065     146.0381       0.2836       0.2476       2.2160       1.0000       0.0775
   2919.9258   2765.6541  -2741.6541      85.3989     151.6793      44.7695      71.2800       0.2742       0.2368       2.2447       1.0000       0.0804
   2920.0508   2765.7788  -2741.7788      85.7556     151.8983      44.7248      56.6575       0.2719       0.2344       2.2687       1.0000       0.0748
   2920.1758   2765.9038  -2741.9038      86.2524     152.4192      42.2825     102.0244       0.2759       0.2407       2.2723       1.0000       0.0509
   2920.3008   2766.0288  -2742.0288      86.8193     153.1877      37.8744     150.5749       0.2795       0.2497       2.2492       1.0000       0.0128
   2920.4258   2766.1538  -2742.1538      87.3551     154.1042      41.8596     185.3999       0.2796       0.2544       2.2410       1.0000       0.0283
   2920.5508   2766.2788  -2742.2788      87.7822     155.0150      40.8505     264.6472       0.2797       0.2619       2.2256       1.0000       0.0297
   2920.6758   2766.4038  -2742.4038      88.0402     155.8671      41.1562     472.6751       0.2833       0.2695       2.2146       0.9946       0.0371
   2920.8008   2766.5286  -2742.5286      88.1051     156.6419      42.3722     537.1124       0.2886       0.2711       2.2064       0.9920       0.0474
   2920.9258   2766.6536  -2742.6536      87.9945     157.3244      42.7707     314.7621       0.2928       0.2659       2.1982       1.0000       0.0523
   2921.0508   2766.7786  -2742.7786      87.7730     157.8930      40.8770     266.4582       0.2926       0.2615       2.1900       1.0000       0.0428
   2921.1758   2766.9036  -2742.9036      87.5679     158.2745      42.9266     337.8743       0.2925       0.2664       2.1818       1.0000       0.0456
   2921.3008   2767.0286  -2743.0286      87.4486     158.5131      40.7350     472.7228       0.2925       0.2725       2.1672       1.0000       0.0292
   2921.4258   2767.1533  -2743.1533      87.4310     158.6484      40.8860     623.2355       0.2925       0.2772       2.1600       0.9992       0.0338
   2921.5508   2767.2783  -2743.2783      87.5232     158.7168      41.8664     671.5581       0.2952       0.2788       2.1628       0.9988       0.0406
   2921.6758   2767.4033  -2743.4033      87.7263     158.7453      39.2387     565.0229       0.3031       0.2766       2.1710       1.0000       0.0142
   2921.8008   2767.5283  -2743.5283      88.0372     158.7313      37.4967     478.6661       0.3110       0.2734       2.1792       1.0000       0.0021
   2921.9258   2767.6533  -2743.6533      88.4046     158.6320      38.6560     434.2794       0.3054       0.2722       2.1874       1.0000       0.0084
   2922.0508   2767.7783  -2743.7783      88.7296     158.4585      40.5946     482.4662       0.2983       0.2745       2.1900       1.0000       0.0282
   2922.1758   2767.9031  -2743.9031      88.9419     158.2395      43.0626     649.2910       0.2939       0.2788       2.1862       0.9982       0.0555
   2922.3008   2768.0281  -2744.0281      89.0080     158.0028      44.7665     811.3153       0.2926       0.2830       2.1800       0.9928       0.0744
   2922.4258   2768.1531  -2744.1531      88.9409     157.7667      43.0551     818.9962       0.2913       0.2839       2.1802       0.9913       0.0606
   2922.5508   2768.2781  -2744.2781      88.7899     157.5361      42.1066     674.4335       0.2918       0.2794       2.1884       0.9970       0.0539
   2922.6758   2768.4031  -2744.4031      88.6237     157.2983      43.5346     472.0471       0.2923       0.2733       2.1966       1.0000       0.0622
   2922.8008   2768.5281  -2744.5281      88.4622     157.0260      43.0323     366.2901       0.2907       0.2692       2.1952       1.0000       0.0547
   2922.9258   2768.6528  -2744.6528      88.3189     156.7107      42.4962     358.9540       0.2875       0.2663       2.1900       1.0000       0.0504
   2923.0508   2768.7778  -2744.7778      88.2041     156.3615      44.5718     285.2754       0.2852       0.2617       2.1888       1.0000       0.0719
   2923.1758   2768.9028  -2744.9028      88.1319     156.0194      44.8565     174.0512       0.2874       0.2530       2.1806       1.0000       0.0774
   2923.3008   2769.0278  -2745.0278      88.1140     155.7193      44.6600     141.5906       0.2897       0.2504       2.1800       1.0000       0.0700
   2923.4258   2769.1528  -2745.1528      88.1188     155.4541      42.4842     170.0595       0.2928       0.2524       2.1800       1.0000       0.0485
   2923.5508   2769.2778  -2745.2778      88.1153     155.2097      42.8757     203.6490       0.2962       0.2552       2.1800       1.0000       0.0536
   2923.6758   2769.4026  -2745.4026      88.0880     154.9709      45.5410     210.7479       0.2993       0.2576       2.1800       1.0000       0.0805
   2923.8008   2769.5276  -2745.5276      88.0406     154.7268      45.0088     270.7892       0.3014       0.2615       2.1800       1.0000       0.0778
   2923.9258   2769.6526  -2745.6526      87.9971     154.5036      43.8709     372.1954       0.3036       0.2671       2.1800       1.0000       0.0698
   2924.0508   2769.7776  -2745.7776      87.9516     154.3387      44.2315     369.1440       0.2998       0.2652       2.1868       1.0000       0.0673
   2924.1758   2769.9026  -2745.9026      87.8885     154.2289      42.7353     231.6548       0.2947       0.2581       2.1950       1.0000       0.0486
   2924.3008   2770.0276  -2746.0276      87.7949     154.1578      42.5347     143.0733       0.2893       0.2515       2.2033       1.0000       0.0485
   2924.4258   2770.1523  -2746.1523      87.6608     154.1019      45.8836     147.1698       0.2835       0.2499       2.2115       1.0000       0.0880
