#------------------------------------------------------------------------------
#
#   Created by  : [OpenWorks] Log Export Utility (LEXP)
#   Created on  : 2007-05-07 11:58:15
#   Project     : NORNE
#   User        : JSE
#   Interpreter : JSE
#
#------------------------------------------------------------------------------
~VERSION INFORMATION
VERS. 2.0 : CWLS Log ASCII Standard - version 2.0
WRAP.  NO : One line per depth step
~WELL INFORMATION
#MNEMONIC   .UNIT                                           VALUE :DESCRIPTION
#------------------------------------------------------------------------------
STRT        .M                                           454.5508 :START DEPTH
STOP        .M                                          3169.8008 :STOP DEPTH
STEP        .M                                             0.1250 :STEP
NULL        .                                           -999.2500 :NULL VALUE
COMP        .                                             STATOIL :COMPANY
WELL        .                                       6608/10-F-1 H :WELL
FLD         .                                               NORNE :FIELD
LOC         .                                             UNKNOWN :LOCATION
CNTY        .                                             UNKNOWN :COUNTY
STAT        .                                             UNKNOWN :STATE
CTRY        .                                              Norway :COUNTRY
SRVC        .                                             UNKNOWN :SERVICE COMPANY
DATE        .                                             UNKNOWN :LOG DATE
UWI         .                                    NO 6608/10-F-1 H :UNIQUE WELL ID
XCOORD      .                                       459309.364262 :SURFACE X
YCOORD      .                                      7325355.161830 :SURFACE Y
LAT         .                                           66.044571 :LATITUDE
LON         .                                            8.101919 :LONGITUDE
ELEV        .M                                            24.0000 :SURFACE ELEV
ELEV_TYPE   .                                                  KB :ELEV TYPE
~CURVE INFORMATION
#MNEMONIC.UNIT        API CODE       : CURVE DESCRIPTION
#------------------------------------------------------------------------------
DEPTH    .M                          : Measured Depth
TVD      .M                          : True Vertical Depth (TVD)
TVDSS    .M                          : True Vertical Depth (TVDSS)
DT       .us/ft       UNKNOWN        : DT:UNKNOWN:rC:NONE:v1 
DTS      .us/ft       UNKNOWN        : DTS:UNKNOWN:rC:NONE:v1 
GR       .API         UNKNOWN        : GR:UNKNOWN:rC:NONE:v1 
KLOGH    .mD          UNKNOWN        : KLOGH:UNKNOWN:rC::v0 (auto-composite)
NPHI     .v/v_decimal UNKNOWN        : NPHI:SFINX:rC:NONE:v1 
PHIF     .v/v_decimal UNKNOWN        : PHIF:UNKNOWN:rC::v0 (auto-composite)
RHOB     .g/cm3       UNKNOWN        : RHOB:UNKNOWN:rC:NONE:v1 
SW       .v/v_decimal UNKNOWN        : SW:UNKNOWN:rC::v0 (auto-composite)
VSH      .v/v_decimal UNKNOWN        : VSH:UNKNOWN:rC::v0 (auto-composite)
~A     DEPTH         TVD       TVDSS           DT          DTS           GR        KLOGH         NPHI         PHIF         RHOB           SW          VSH
# ...
   2879.0508   2724.7925  -2700.7925      93.6231     169.4916      75.5531       0.2130       0.2857       0.0939       2.5017       1.0000       0.4131
   2879.1758   2724.9175  -2700.9175      93.2453     168.4655      77.2238       0.0017       0.2868       0.0368       2.6612       1.0000       0.4427
   2879.3008   2725.0425  -2701.0425      92.5450     166.8520      80.9809       0.0003       0.2881       0.0045       2.7891       1.0000       0.5079
   2879.4258   2725.1675  -2701.1675      91.4053     164.5070      90.8221       0.0069       0.2892       0.0383       2.6086       1.0000       0.6320
   2879.5508   2725.2925  -2701.2925      90.0453     161.7503     100.8761       0.0862       0.3263       0.0910       2.4972       1.0000       0.7416
   2879.6758   2725.4175  -2701.4175      88.6684     158.8943      99.0554       0.2350       0.3702       0.1254       2.4498       0.9950       0.7259
   2879.8008   2725.5422  -2701.5422      87.4036     156.2103      85.8934       0.3641       0.3891       0.1410       2.4334       0.9594       0.5808
   2879.9258   2725.6672  -2701.6672      86.3636     153.9490      71.0144       0.5019       0.3711       0.1479       2.4185       0.9000       0.4003
   2880.0508   2725.7922  -2701.7922      85.6858     152.3531      75.7988       0.6241       0.3530       0.1525       2.4103       0.8590       0.4283
   2880.1758   2725.9172  -2701.9172      85.6478     151.8402      83.3556       0.6724       0.3601       0.1527       2.4021       0.8361       0.5177
   2880.3008   2726.0422  -2702.0422      86.2029     152.3830      88.6714       0.5139       0.3650       0.1461       2.4183       0.8596       0.6025
   2880.4258   2726.1672  -2702.1672      87.2732     153.9534      97.8462       0.2703       0.3690       0.1354       2.4429       0.9285       0.7310
   2880.5508   2726.2920  -2702.2920      88.6910     156.4075     108.4970       0.1465       0.3795       0.1253       2.4625       0.9847       0.8551
   2880.6758   2726.4170  -2702.4170      90.2284     159.5150     111.7427       0.1290       0.4050       0.1212       2.4686       0.9849       0.8708
   2880.8008   2726.5420  -2702.5420      91.6102     163.0079     102.2042       0.1728       0.4305       0.1262       2.4521       0.9557       0.8350
   2880.9258   2726.6670  -2702.6670      92.7373     166.4623     104.8407       0.1605       0.4362       0.1237       2.4607       0.9634       0.8485
   2881.0508   2726.7920  -2702.7920      93.6338     169.5221     108.6535       0.1102       0.4389       0.1210       2.4730       0.9940       0.8730
   2881.1758   2726.9170  -2702.9170      94.2810     171.9402     109.2017       0.1562       0.4427       0.1249       2.4624       0.9522       0.8793
   2881.3008   2727.0417  -2703.0417      94.6648     173.5596     106.5816       0.2988       0.4468       0.1355       2.4300       0.8699       0.8624
   2881.4258   2727.1667  -2703.1667      94.7880     174.3460     106.5510       0.3409       0.4463       0.1407       2.4300       0.8464       0.8593
   2881.5508   2727.2917  -2703.2917      94.7375     174.4665     108.4658       0.3727       0.4461       0.1429       2.4219       0.8285       0.8572
   2881.6758   2727.4167  -2703.4167      94.7127     174.6165     105.7996       0.4707       0.4458       0.1440       2.4137       0.8048       0.8461
   2881.8008   2727.5417  -2703.5417      94.8009     175.0387     107.4795       0.3951       0.4496       0.1330       2.4236       0.8461       0.8546
   2881.9258   2727.6667  -2703.6667      95.0256     175.8515     110.3454       0.1161       0.4565       0.1069       2.4756       0.9566       0.8742
   2882.0508   2727.7915  -2703.7915      95.3560     177.0629     106.9659       0.0113       0.4624       0.0718       2.5714       1.0000       0.8826
   2882.1758   2727.9165  -2703.9165      95.7031     178.5981     107.9982       0.0041       0.4593       0.0533       2.5837       1.0000       0.9116
   2882.3008   2728.0415  -2704.0415      95.9744     180.1288     118.6209       0.0033       0.4563       0.0518       2.5960       1.0000       0.9421
   2882.4258   2728.1665  -2704.1665      96.1406     181.3837     115.4109       0.0089       0.4513       0.0663       2.5667       1.0000       0.9301
   2882.5508   2728.2915  -2704.2915      96.1824     182.1796     114.4031       0.0373       0.4474       0.0883       2.5100       1.0000       0.9045
   2882.6758   2728.4165  -2704.4165      96.0935     182.4143     121.7359       0.0750       0.4464       0.1072       2.4600       1.0000       0.8902
   2882.8008   2728.5413  -2704.5413      95.8847     182.0962     120.0758       0.0865       0.4457       0.1132       2.4600       1.0000       0.8868
   2882.9258   2728.6663  -2704.6663      95.6148     181.5440     114.9443       0.0923       0.4451       0.1146       2.4600       1.0000       0.8853
   2883.0508   2728.7913  -2704.7913      95.4088     180.9833     112.0518       0.1032       0.4413       0.1170       2.4666       1.0000       0.8835
   2883.1758   2728.9163  -2704.9163      95.3419     180.6061     107.2758       0.1229       0.4380       0.1204       2.4676       1.0000       0.8519
   2883.3008   2729.0413  -2705.0413      95.4678     180.7587     103.8657       0.1531       0.4357       0.1230       2.4635       1.0000       0.8273
   2883.4258   2729.1663  -2705.1663      95.8207     181.8204     106.6211       0.1438       0.4372       0.1221       2.4612       1.0000       0.8540
   2883.5508   2729.2910  -2705.2910      96.4361     184.1449     113.1023       0.0939       0.4616       0.1140       2.4694       1.0000       0.8845
   2883.6758   2729.4160  -2705.4160      97.3297     187.4837     111.2106       0.0578       0.4860       0.1061       2.4927       1.0000       0.8945
   2883.8008   2729.5410  -2705.5410      98.3803     190.9536     110.1065       0.0473       0.4908       0.1013       2.5000       1.0000       0.8982
   2883.9258   2729.6660  -2705.6660      99.4792     194.0768     113.8667       0.0412       0.4873       0.0994       2.5000       1.0000       0.9011
   2884.0508   2729.7910  -2705.7910     100.5145     196.5402     118.8635       0.0464       0.4828       0.1015       2.4913       1.0000       0.9011
   2884.1758   2729.9158  -2705.9158     101.3839     198.2223     114.8574       0.0760       0.4767       0.1100       2.4604       1.0000       0.8898
   2884.3008   2730.0408  -2706.0408     101.9788     199.1889     112.0279       0.0863       0.4921       0.1122       2.4686       1.0000       0.8877
   2884.4258   2730.1658  -2706.1658     102.3273     199.4242     114.9986       0.0755       0.5011       0.1109       2.4700       1.0000       0.8897
   2884.5508   2730.2908  -2706.2908     102.4310     198.7348     114.8712       0.0726       0.5088       0.1095       2.4700       1.0000       0.8899
   2884.6758   2730.4158  -2706.4158     102.2636     197.1249     114.0600       0.0693       0.5152       0.1077       2.4732       1.0000       0.8910
   2884.8008   2730.5408  -2706.5408     101.8043     194.7042     115.7346       0.0561       0.5194       0.1050       2.4800       1.0000       0.8956
   2884.9258   2730.6655  -2706.6655     101.0413     191.5567     113.3606       0.0536       0.5237       0.1036       2.4800       1.0000       0.8965
   2885.0508   2730.7905  -2706.7905     100.0393     187.9940     120.6780       0.0492       0.5235       0.1023       2.4839       1.0000       0.8981
   2885.1758   2730.9155  -2706.9155      98.9311     184.5143     116.0598       0.0498       0.5231       0.1019       2.4880       1.0000       0.8972
   2885.3008   2731.0405  -2707.0405      97.7457     181.2998     112.1270       0.0494       0.5225       0.1001       2.4942       1.0000       0.8989
   2885.4258   2731.1655  -2707.1655      96.4840     178.3831     113.5155       0.0366       0.5171       0.0959       2.5024       1.0000       0.9041
