#------------------------------------------------------------------------------
#
#   Created by  : [OpenWorks] Log Export Utility (LEXP)
#   Created on  : 2007-05-07 11:57:13
#   Project     : NORNE
#   User        : JSE
#   Interpreter : JSE
#
#------------------------------------------------------------------------------
~VERSION INFORMATION
VERS. 2.0 : CWLS Log ASCII Standard - version 2.0
WRAP.  NO : One line per depth step
~WELL INFORMATION
#MNEMONIC   .UNIT                                           VALUE :DESCRIPTION
#------------------------------------------------------------------------------
STRT        .M                                          1325.1250 :START DEPTH
STOP        .M                                          3789.8750 :STOP DEPTH
STEP        .M                                             0.1250 :STEP
NULL        .                                           -999.2500 :NULL VALUE
COMP        .                                             STATOIL :COMPANY
WELL        .                                       6608/10-C-3 H :WELL
FLD         .                                               NORNE :FIELD
LOC         .                                             UNKNOWN :LOCATION
CNTY        .                                             UNKNOWN :COUNTY
STAT        .                                             UNKNOWN :STATE
CTRY        .                                              Norway :COUNTRY
SRVC        .                                             UNKNOWN :SERVICE COMPANY
DATE        .                                             UNKNOWN :LOG DATE
UWI         .                                    NO 6608/10-C-3 H :UNIQUE WELL ID
XCOORD      .                                       457175.596094 :SURFACE X
YCOORD      .                                      7322029.604515 :SURFACE Y
LAT         .                                           66.014460 :LATITUDE
LON         .                                            8.055937 :LONGITUDE
ELEV        .M                                            22.0000 :SURFACE ELEV
ELEV_TYPE   .                                                  KB :ELEV TYPE
~CURVE INFORMATION
#MNEMONIC.UNIT        API CODE       : CURVE DESCRIPTION
#------------------------------------------------------------------------------
DEPTH    .M                          : Measured Depth
TVD      .M                          : True Vertical Depth (TVD)
TVDSS    .M                          : True Vertical Depth (TVDSS)
DT       .us/ft       UNKNOWN        : DT:UNKNOWN:rC:NONE:v1 
DTS      .us/ft       UNKNOWN        : DTS:UNKNOWN:rC:NONE:v1 
GR       .API         UNKNOWN        : GR:UNKNOWN:rC:NONE:v1 
KLOGH    .mD          UNKNOWN        : KLOGH:UNKNOWN:rC::v0 (auto-composite)
NPHI     .v/v_decimal UNKNOWN        : NPHI:UNKNOWN:rC:NONE:v1 
PHIF     .v/v_decimal UNKNOWN        : PHIF:UNKNOWN:rC::v0 (auto-composite)
RHOB     .g/cm3       UNKNOWN        : RHOB:UNKNOWN:rC:NONE:v1 
SW       .v/v_decimal UNKNOWN        : SW:UNKNOWN:rC::v0 (auto-composite)
VSH      .v/v_decimal UNKNOWN        : VSH:UNKNOWN:rC::v0 (auto-composite)
~A     DEPTH         TVD       TVDSS           DT          DTS           GR        KLOGH         NPHI         PHIF         RHOB           SW          VSH
# ...
   3450.6250   2683.8132  -2661.8132      97.0600     163.7525      55.0072     698.2651       0.2485       0.2878       2.1788       0.1105       0.0010
   3450.7500   2683.9343  -2661.9343      97.0340     163.6092      51.5919    1232.4689       0.2616       0.2976       2.1627       0.1095       0.0010
   3450.8750   2684.0554  -2662.0554      97.0522     163.5442      49.7705    1878.1417       0.2507       0.3049       2.1507       0.1135       0.0010
   3451.0000   2684.1765  -2662.1765      97.1123     163.5609      51.0497    2000.0000       0.2354       0.3087       2.1445       0.1205       0.0010
   3451.1250   2684.2979  -2662.2979      97.2120     163.6541      53.7186    2000.0000       0.2331       0.3068       2.1476       0.1269       0.0010
   3451.2500   2684.4189  -2662.4189      97.3460     163.8120      51.7120     601.6086       0.2433       0.2852       2.1830       0.1354       0.0010
   3451.3750   2684.5400  -2662.5400      97.5071     164.0319      49.5993    2000.0000       0.2523       0.3190       2.1242       0.1182       0.0010
   3451.5000   2684.6614  -2662.6614      97.6636     164.2915      51.1272    2000.0000       0.2306       0.3105       2.1397       0.1103       0.0010
   3451.6250   2684.7825  -2662.7825      97.7939     164.5710      50.3562    2000.0000       0.2260       0.3143       2.1335       0.0960       0.0010
   3451.7500   2684.9036  -2662.9036      97.8901     164.8423      48.2973    2000.0000       0.2395       0.3252       2.1151       0.0866       0.0010
   3451.8750   2685.0247  -2663.0247      97.9563     165.0738      49.3619    2000.0000       0.2470       0.3169       2.1311       0.0927       0.0010
   3452.0000   2685.1460  -2663.1460      98.0088     165.2295      53.8936    2000.0000       0.2436       0.3394       2.0901       0.0907       0.0010
   3452.1250   2685.2671  -2663.2671      98.0672     165.3300      53.8729    2000.0000       0.2429       0.3173       2.1303       0.1014       0.0010
   3452.2500   2685.3882  -2663.3882      98.1224     165.4036      55.3151    2000.0000       0.2249       0.3149       2.1343       0.1077       0.0010
   3452.3750   2685.5095  -2663.5095      98.1628     165.4539      53.8857    2000.0000       0.2348       0.3226       2.1216       0.1106       0.0010
   3452.5000   2685.6306  -2663.6306      98.1798     165.4734      50.4479    2000.0000       0.2757       0.3236       2.1200       0.1133       0.0010
   3452.6250   2685.7517  -2663.7517      98.1701     165.4444      54.3552    2000.0000       0.2810       0.3136       2.1365       0.1166       0.0010
   3452.7500   2685.8728  -2663.8728      98.1340     165.3437      52.8257    1504.0616       0.2462       0.3010       2.1570       0.1161       0.0010
   3452.8750   2685.9941  -2663.9941      98.0781     165.2091      51.0137    1034.8317       0.2468       0.2946       2.1676       0.1139       0.0010
   3453.0000   2686.1152  -2664.1152      98.0044     165.0649      52.4862    2000.0000       0.2364       0.3074       2.1465       0.1101       0.0010
   3453.1250   2686.2363  -2664.2363      97.9201     164.9194      52.9124    2000.0000       0.2436       0.3130       2.1374       0.1133       0.0010
   3453.2500   2686.3574  -2664.3574      97.8346     164.7726      49.0940     832.0708       0.2892       0.2908       2.1738       0.1279       0.0010
   3453.3750   2686.4788  -2664.4788      97.7576     164.6219      55.1354    2000.0000       0.2401       0.3083       2.1451       0.1229       0.0010
   3453.5000   2686.5999  -2664.5999      97.6873     164.4816      60.4925    2000.0000       0.2296       0.3238       2.1179       0.1187       0.0143
   3453.6250   2686.7212  -2664.7212      97.6146     164.3549      61.0895    2000.0000       0.2493       0.3200       2.1251       0.1208       0.0218
   3453.7500   2686.8425  -2664.8425      97.5307     164.2302      57.2801    1715.0782       0.2540       0.3033       2.1533       0.1281       0.0010
   3453.8750   2686.9639  -2664.9639      97.4255     164.0921      52.0207     809.1608       0.2340       0.2903       2.1746       0.1369       0.0010
   3454.0000   2687.0852  -2665.0852      97.2880     163.9249      50.0455    1503.2742       0.2220       0.3010       2.1570       0.1398       0.0010
   3454.1250   2687.2065  -2665.2065      97.0902     163.7255      52.5760    2000.0000       0.2405       0.3213       2.1176       0.1355       0.0010
   3454.2500   2687.3279  -2665.3279      96.8426     163.5425      52.1340    1620.7030       0.2390       0.3023       2.1492       0.1391       0.0010
   3454.3750   2687.4492  -2665.4492      96.5885     163.4141      54.4455    1945.7362       0.2682       0.3055       2.1419       0.1281       0.0010
   3454.5000   2687.5706  -2665.5706      96.3638     163.3534      57.0625    2000.0000       0.2672       0.3157       2.1225       0.1106       0.0010
   3454.6250   2687.6921  -2665.6921      96.1973     163.3558      56.4229    2000.0000       0.2094       0.3147       2.1253       0.0981       0.0010
   3454.7500   2687.8135  -2665.8135      96.1080     163.4000      53.6094    2000.0000       0.2655       0.3435       2.0752       0.0821       0.0010
   3454.8750   2687.9348  -2665.9348      96.0993     163.4647      54.1946    2000.0000       0.2508       0.3270       2.1090       0.0880       0.0010
   3455.0000   2688.0562  -2666.0562      96.1524     163.5346      53.7781    2000.0000       0.2411       0.3106       2.1413       0.1027       0.0010
   3455.1250   2688.1775  -2666.1775      96.2704     163.6021      52.4671    2000.0000       0.2382       0.3063       2.1484       0.1170       0.0010
   3455.2500   2688.2988  -2666.2988      96.4471     163.6536      52.5907    1909.7826       0.2358       0.3052       2.1502       0.1291       0.0010
   3455.3750   2688.4202  -2666.4202      96.6634     163.6704      56.5842     557.6549       0.2296       0.2839       2.1851       0.1465       0.0010
   3455.5000   2688.5415  -2666.5415      96.8603     163.6245      53.5787    2000.0000       0.2668       0.3064       2.1482       0.1387       0.0010
   3455.6250   2688.6628  -2666.6628      96.9719     163.5193      54.8483    2000.0000       0.2609       0.3076       2.1458       0.1330       0.0010
   3455.7500   2688.7842  -2666.7842      96.9939     163.3755      55.9339    2000.0000       0.2523       0.3115       2.1391       0.1259       0.0010
   3455.8750   2688.9055  -2666.9055      96.9360     163.2073      54.8275    2000.0000       0.2526       0.3062       2.1485       0.1264       0.0010
   3456.0000   2689.0269  -2667.0269      96.8157     163.0270      51.9941     711.8858       0.2520       0.2881       2.1782       0.1376       0.0010
   3456.1250   2689.1484  -2667.1484      96.6499     162.8432      51.6068     978.3683       0.2145       0.2936       2.1692       0.1419       0.0010
   3456.2500   2689.2698  -2667.2698      96.4398     162.6723      52.2175     107.4336       0.2272       0.2553       2.2319       0.1681       0.0010
   3456.3750   2689.3911  -2667.3911      96.2033     162.5211      54.3617     269.8656       0.2586       0.2713       2.2057       0.1624       0.0010
   3456.5000   2689.5125  -2667.5125      95.9454     162.3946      55.4598     969.5982       0.2649       0.2934       2.1650       0.1453       0.0010
   3456.6250   2689.6338  -2667.6338      95.6793     162.2909      54.3304    2000.0000       0.2631       0.3091       2.1365       0.1292       0.0010
   3456.7500   2689.7551  -2667.7551      95.4252     162.2016      51.8036    2000.0000       0.2872       0.3215       2.1155       0.1172       0.0010
   3456.8750   2689.8765  -2667.8765      95.2184     162.1130      54.2553    2000.0000       0.2213       0.3101       2.1393       0.1192       0.0010
   3457.0000   2689.9978  -2667.9978      95.0764     162.0332      56.3359     622.6545       0.2334       0.2858       2.1820       0.1262       0.0010
