#------------------------------------------------------------------------------
#
#   Created by  : [OpenWorks] Log Export Utility (LEXP)
#   Created on  : 2007-05-07 11:57:13
#   Project     : NORNE
#   User        : JSE
#   Interpreter : JSE
#
#------------------------------------------------------------------------------
~VERSION INFORMATION
VERS. 2.0 : CWLS Log ASCII Standard - version 2.0
WRAP.  NO : One line per depth step
~WELL INFORMATION
#MNEMONIC   .UNIT                                           VALUE :DESCRIPTION
#------------------------------------------------------------------------------
STRT        .M                                          1325.1250 :START DEPTH
STOP        .M                                          3789.8750 :STOP DEPTH
STEP        .M                                             0.1250 :STEP
NULL        .                                           -999.2500 :NULL VALUE
COMP        .                                             STATOIL :COMPANY
WELL        .                                       6608/10-C-3 H :WELL
FLD         .                                               NORNE :FIELD
LOC         .                                             UNKNOWN :LOCATION
CNTY        .                                             UNKNOWN :COUNTY
STAT        .                                             UNKNOWN :STATE
CTRY        .                                              Norway :COUNTRY
SRVC        .                                             UNKNOWN :SERVICE COMPANY
DATE        .                                             UNKNOWN :LOG DATE
UWI         .                                    NO 6608/10-C-3 H :UNIQUE WELL ID
XCOORD      .                                       457175.596094 :SURFACE X
YCOORD      .                                      7322029.604515 :SURFACE Y
LAT         .                                           66.014460 :LATITUDE
LON         .                                            8.055937 :LONGITUDE
ELEV        .M                                            22.0000 :SURFACE ELEV
ELEV_TYPE   .                                                  KB :ELEV TYPE
~CURVE INFORMATION
#MNEMONIC.UNIT        API CODE       : CURVE DESCRIPTION
#------------------------------------------------------------------------------
DEPTH    .M                          : Measured Depth
TVD      .M                          : True Vertical Depth (TVD)
TVDSS    .M                          : True Vertical Depth (TVDSS)
DT       .us/ft       UNKNOWN        : DT:UNKNOWN:rC:NONE:v1 
DTS      .us/ft       UNKNOWN        : DTS:UNKNOWN:rC:NONE:v1 
GR       .API         UNKNOWN        : GR:UNKNOWN:rC:NONE:v1 
KLOGH    .mD          UNKNOWN        : KLOGH:UNKNOWN:rC::v0 (auto-composite)
NPHI     .v/v_decimal UNKNOWN        : NPHI:UNKNOWN:rC:NONE:v1 
PHIF     .v/v_decimal UNKNOWN        : PHIF:UNKNOWN:rC::v0 (auto-composite)
RHOB     .g/cm3       UNKNOWN        : RHOB:UNKNOWN:rC:NONE:v1 
SW       .v/v_decimal UNKNOWN        : SW:UNKNOWN:rC::v0 (auto-composite)
VSH      .v/v_decimal UNKNOWN        : VSH:UNKNOWN:rC::v0 (auto-composite)
~A     DEPTH         TVD       TVDSS           DT          DTS           GR        KLOGH         NPHI         PHIF         RHOB           SW          VSH
# ...
   3684.6250   2912.1982  -2890.1982      82.1479     142.8518      77.6536       0.0028       0.2017       0.1086       2.4891       0.8607       0.2272
   3684.7500   2912.3213  -2890.3213      82.2880     143.3253      85.8880       0.0013       0.2110       0.0910       2.5186       1.0000       0.3292
   3684.8750   2912.4443  -2890.4443      82.5223     143.7734      84.5285       0.0021       0.2211       0.1023       2.4997       1.0000       0.3123
   3685.0000   2912.5674  -2890.5674      82.8944     144.1558      95.2995       0.0062       0.2527       0.1264       2.4595       1.0000       0.4458
   3685.1250   2912.6902  -2890.6902      83.3659     144.4881     104.1849       0.0057       0.2744       0.1243       2.4630       1.0000       0.5559
   3685.2500   2912.8132  -2890.8132      83.8930     144.7755     108.7746       0.0028       0.2721       0.1089       2.4888       1.0000       0.6129
   3685.3750   2912.9363  -2890.9363      84.4250     145.0311     106.8013       0.0024       0.2576       0.1050       2.4952       1.0000       0.5884
   3685.5000   2913.0593  -2891.0593      84.9121     145.2754      97.6304       0.0085       0.2536       0.1333       2.4480       1.0000       0.4748
   3685.6250   2913.1824  -2891.1824      85.3084     145.5478      94.7611       0.0085       0.2113       0.1333       2.4480       1.0000       0.4392
   3685.7500   2913.3054  -2891.3054      85.6122     145.8821      89.5672       0.0137       0.2466       0.1440       2.4302       1.0000       0.3748
   3685.8750   2913.4285  -2891.4285      85.8310     146.2456      85.1826       0.0101       0.2611       0.1372       2.4416       1.0000       0.3204
   3686.0000   2913.5515  -2891.5515      85.9745     146.5968      82.0453       0.0106       0.2505       0.1383       2.4397       1.0000       0.2815
   3686.1250   2913.6746  -2891.6746      86.0616     146.9060      79.3305       0.0262       0.2341       0.1585       2.4062       1.0000       0.2479
   3686.2500   2913.7976  -2891.7976      86.1220     147.1740      75.0570       0.0256       0.2335       0.1580       2.4070       1.0000       0.1954
   3686.3750   2913.9207  -2891.9207      86.1634     147.4486      90.2475       0.0193       0.2116       0.1516       2.4176       1.0000       0.3831
   3686.5000   2914.0435  -2892.0435      86.1971     147.7886      86.5943       0.0229       0.2188       0.1555       2.4112       1.0000       0.3379
   3686.6250   2914.1665  -2892.1665      86.2387     148.2016      82.7717       0.0328       0.2283       0.1635       2.3979       1.0000       0.2906
   3686.7500   2914.2896  -2892.2896      86.3065     148.6849      85.1705       0.0574       0.2308       0.1759       2.3771       1.0000       0.3203
   3686.8750   2914.4126  -2892.4126      86.4174     149.2267      89.4750       0.1107       0.2301       0.1906       2.3527       0.9863       0.3737
   3687.0000   2914.5356  -2892.5356      86.5889     149.8159      80.8063       0.0358       0.2379       0.1654       2.3946       1.0000       0.2662
   3687.1250   2914.6587  -2892.6587      86.7934     150.3977      88.0861       0.0472       0.2579       0.1716       2.3843       1.0000       0.3563
   3687.2500   2914.7817  -2892.7817      86.9791     150.9098      85.9501       0.1375       0.2637       0.1954       2.3447       1.0000       0.3300
   3687.3750   2914.9048  -2892.9048      87.1126     151.3052      83.0193       0.1617       0.2309       0.1990       2.3387       1.0000       0.2936
   3687.5000   2915.0278  -2893.0278      87.1762     151.5585      84.3323       0.0988       0.1902       0.1880       2.3570       1.0000       0.3099
   3687.6250   2915.1509  -2893.1509      87.1713     151.6724      81.3724       0.7385       0.2431       0.2329       2.2823       0.8296       0.2732
   3687.7500   2915.2737  -2893.2737      87.0770     151.6379      73.2625       0.4441       0.2191       0.2215       2.3012       0.8144       0.1727
   3687.8750   2915.3967  -2893.3967      86.9217     151.5615      83.9069       1.1969       0.2408       0.2436       2.2644       0.6773       0.3047
   3688.0000   2915.5198  -2893.5198      86.7520     151.4736      85.8589       0.7839       0.2470       0.2342       2.2719       0.6243       0.3288
   3688.1250   2915.6428  -2893.6428      86.6147     151.3963      83.4901       0.2069       0.2425       0.2045       2.3193       0.6266       0.2995
   3688.2500   2915.7659  -2893.7659      86.5569     151.3761      90.3228       0.0708       0.2529       0.1806       2.3589       0.6298       0.3842
   3688.3750   2915.8889  -2893.8889      86.6414     151.5828      93.8133       0.0402       0.2557       0.1680       2.3794       0.6106       0.4274
   3688.5000   2916.0120  -2894.0120      86.9120     152.2366      88.9786       0.0332       0.2485       0.1637       2.3855       0.5860       0.3675
   3688.6250   2916.1350  -2894.1350      87.3385     153.2428      95.8406       0.0127       0.2347       0.1423       2.4244       0.6207       0.4527
   3688.7500   2916.2581  -2894.2581      87.8763     154.4478     104.3431       0.0054       0.2264       0.1235       2.4587       0.6515       0.5580
   3688.8750   2916.3811  -2894.3811      88.4562     155.6791     109.7773       0.0044       0.2277       0.1189       2.4684       0.6803       0.6253
   3689.0000   2916.5042  -2894.5042      88.9895     156.7690     117.0746       0.0050       0.2330       0.1217       2.4663       0.7595       0.7158
   3689.1250   2916.6270  -2894.6270      89.3128     157.4803     113.9484       0.0043       0.2643       0.1184       2.4729       0.8694       0.6771
   3689.2500   2916.7500  -2894.7500      89.3439     157.7125     114.5265       0.0046       0.3374       0.1198       2.4706       0.9348       0.6842
   3689.3750   2916.8730  -2894.8730      89.1185     157.3654     111.5397       0.0319       0.3527       0.1628       2.3990       0.7761       0.6472
   3689.5000   2916.9961  -2894.9961      88.6948     156.3642     111.6049       0.2250       0.3228       0.2064       2.3264       0.6762       0.6480
   3689.6250   2917.1191  -2895.1191      88.1511     154.7375     118.3864       0.2541       0.2950       0.2091       2.3219       0.7065       0.7321
   3689.7500   2917.2422  -2895.2422      87.5800     152.7223     112.2268       0.3032       0.2900       0.2130       2.3153       0.7731       0.6558
   3689.8750   2917.3652  -2895.3652      87.0541     150.8878     106.4692       0.0560       0.2807       0.1754       2.3780       0.9792       0.5843
   3690.0000   2917.4883  -2895.4883      86.5893     149.5713     102.5873       0.0105       0.2706       0.1380       2.4402       1.0000       0.5362
   3690.1250   2917.6113  -2895.6113      86.2129     148.8473      96.4112       0.0053       0.2793       0.1226       2.4658       1.0000       0.4596
   3690.2500   2917.7344  -2895.7344      85.9612     148.6410      91.4466       0.0058       0.2765       0.1250       2.4619       1.0000       0.3981
   3690.3750   2917.8574  -2895.8574      85.8826     148.7646      95.4128       0.0056       0.2070       0.1242       2.4631       1.0000       0.4473
   3690.5000   2917.9802  -2895.9802      86.1124     149.0214      86.3459       0.0345       0.2126       0.1646       2.3960       1.0000       0.3348
   3690.6250   2918.1033  -2896.1033      86.6796     149.5009      76.2430       0.0941       0.2044       0.1870       2.3587       1.0000       0.2095
   3690.7500   2918.2263  -2896.2263      87.5351     150.4159      71.2022       0.1757       0.2248       0.2009       2.3356       0.9797       0.1471
   3690.8750   2918.3494  -2896.3494      88.6056     151.8341      68.6262       0.2212       0.2326       0.2060       2.3270       0.9925       0.1152
   3691.0000   2918.4724  -2896.4724      89.7870     153.7551      67.6423       0.1920       0.2008       0.2028       2.3323       1.0000       0.1029
