#------------------------------------------------------------------------------
#
#   Created by  : [OpenWorks] Log Export Utility (LEXP)
#   Created on  : 2007-05-07 11:58:04
#   Project     : NORNE
#   User        : JSE
#   Interpreter : JSE
#
#------------------------------------------------------------------------------
~VERSION INFORMATION
VERS. 2.0 : CWLS Log ASCII Standard - version 2.0
WRAP.  NO : One line per depth step
~WELL INFORMATION
#MNEMONIC   .UNIT                                           VALUE :DESCRIPTION
#------------------------------------------------------------------------------
STRT        .M                                           461.1250 :START DEPTH
STOP        .M                                          3010.0000 :STOP DEPTH
STEP        .M                                             0.1250 :STEP
NULL        .                                           -999.2500 :NULL VALUE
COMP        .                                             STATOIL :COMPANY
WELL        .                                       6608/10-E-3 H :WELL
FLD         .                                               NORNE :FIELD
LOC         .                                             UNKNOWN :LOCATION
CNTY        .                                             UNKNOWN :COUNTY
STAT        .                                             UNKNOWN :STATE
CTRY        .                                              Norway :COUNTRY
SRVC        .                                             UNKNOWN :SERVICE COMPANY
DATE        .                                             UNKNOWN :LOG DATE
UWI         .                                    NO 6608/10-E-3 H :UNIQUE WELL ID
XCOORD      .                                       459189.815835 :SURFACE X
YCOORD      .                                      7325451.234448 :SURFACE Y
LAT         .                                           66.045417 :LATITUDE
LON         .                                            8.099250 :LONGITUDE
ELEV        .M                                            22.0000 :SURFACE ELEV
ELEV_TYPE   .                                                  KB :ELEV TYPE
~CURVE INFORMATION
#MNEMONIC.UNIT        API CODE       : CURVE DESCRIPTION
#------------------------------------------------------------------------------
DEPTH    .M                          : Measured Depth
TVD      .M                          : True Vertical Depth (TVD)
TVDSS    .M                          : True Vertical Depth (TVDSS)
DT       .us/ft       UNKNOWN        : DT:DT:rC:NONE:v1 
DTS      .us/ft       UNKNOWN        : DTS:DTS:rC:NONE:v1 
GR       .API         UNKNOWN        : GR:GR:rC:NONE:v1 
KLOGH    .mD          UNKNOWN        : KLOGH:UNKNOWN:rC::v0 (auto-composite)
NPHI     .v/v_decimal UNKNOWN        : NPHI:NPHI:rC:NONE:v1 
PHIF     .v/v_decimal UNKNOWN        : PHIF:UNKNOWN:rC::v0 (auto-composite)
RHOB     .g/cm3       UNKNOWN        : RHOB:RHOB:rC:NONE:v1 
SW       .v/v_decimal UNKNOWN        : SW:UNKNOWN:rC::v0 (auto-composite)
VSH      .v/v_decimal UNKNOWN        : VSH:UNKNOWN:rC::v0 (auto-composite)
~A     DEPTH         TVD       TVDSS           DT          DTS           GR        KLOGH         NPHI         PHIF         RHOB           SW          VSH
# ...
   2515.1250   2435.2839  -2413.2839     106.2679    -999.2500      98.2743    -999.2500       0.3909    -999.2500       2.4450    -999.2500    -999.2500
   2515.2500   2435.4041  -2413.4041     104.9542    -999.2500      98.0647    -999.2500       0.3451    -999.2500       2.4373    -999.2500    -999.2500
   2515.3750   2435.5239  -2413.5239     103.0053    -999.2500      95.3276    -999.2500       0.2784    -999.2500       2.4317    -999.2500    -999.2500
   2515.5000   2435.6440  -2413.6440     100.3231    -999.2500      91.3342    -999.2500       0.2193    -999.2500       2.4481    -999.2500    -999.2500
   2515.6250   2435.7642  -2413.7642      97.1373    -999.2500      99.2959    -999.2500       0.2058    -999.2500       2.4493    -999.2500    -999.2500
   2515.7500   2435.8843  -2413.8843      93.8960    -999.2500     100.3203    -999.2500       0.2236    -999.2500       2.4332    -999.2500    -999.2500
   2515.8750   2436.0042  -2414.0042      91.0133    -999.2500      95.0552    -999.2500       0.2492    -999.2500       2.4156    -999.2500    -999.2500
   2516.0000   2436.1243  -2414.1243      88.8769    -999.2500      90.8319    -999.2500       0.2701    -999.2500       2.4203    -999.2500    -999.2500
   2516.1250   2436.2444  -2414.2444      87.7950    -999.2500      98.6660    -999.2500       0.2962    -999.2500       2.4740    -999.2500    -999.2500
   2516.2500   2436.3645  -2414.3645      88.5001    -999.2500      93.5713    -999.2500       0.3112    -999.2500       2.6171    -999.2500    -999.2500
   2516.3750   2436.4844  -2414.4844      90.7157    -999.2500      93.4010    -999.2500       0.3754    -999.2500       2.6787    -999.2500    -999.2500
   2516.5000   2436.6045  -2414.6045      94.1765    -999.2500      82.0684    -999.2500       0.4116    -999.2500       2.7072    -999.2500    -999.2500
   2516.6250   2436.7246  -2414.7246      98.3515    -999.2500      69.1216    -999.2500       0.4084    -999.2500       2.7165    -999.2500    -999.2500
   2516.7500   2436.8447  -2414.8447     102.5404    -999.2500      70.8280    -999.2500       0.3925    -999.2500       2.7047    -999.2500    -999.2500
   2516.8750   2436.9646  -2414.9646     105.8372    -999.2500      73.7318    -999.2500       0.3932    -999.2500       2.6792    -999.2500    -999.2500
   2517.0000   2437.0847  -2415.0847     107.8441    -999.2500      92.7299    -999.2500       0.3916    -999.2500       2.7219    -999.2500    -999.2500
   2517.1250   2437.2048  -2415.2048     109.1534    -999.2500     100.5862    -999.2500       0.4106    -999.2500       2.6448    -999.2500    -999.2500
   2517.2500   2437.3250  -2415.3250     110.2298    -999.2500     100.8786    -999.2500       0.4195    -999.2500       2.5225    -999.2500    -999.2500
   2517.3750   2437.4448  -2415.4448     111.3697    -999.2500      98.9072    -999.2500       0.4100    -999.2500       2.4460    -999.2500    -999.2500
   2517.5000   2437.5649  -2415.5649     112.6092    -999.2500      96.8026    -999.2500       0.4086    -999.2500       2.4687    -999.2500    -999.2500
   2517.6250   2437.6851  -2415.6851     113.5259    -999.2500      98.0998    -999.2500       0.4023    -999.2500       2.4614    -999.2500    -999.2500
   2517.7500   2437.8052  -2415.8052     113.8330    -999.2500     100.1956    -999.2500       0.3790    -999.2500       2.4721    -999.2500    -999.2500
   2517.8750   2437.9250  -2415.9250     113.5109    -999.2500      97.8067    -999.2500       0.3655    -999.2500       2.4545    -999.2500    -999.2500
   2518.0000   2438.0452  -2416.0452     112.6415    -999.2500      92.0868    -999.2500       0.3627    -999.2500       2.4300    -999.2500    -999.2500
   2518.1250   2438.1653  -2416.1653     111.3637    -999.2500      87.2864    -999.2500       0.3619    -999.2500       2.4255    -999.2500    -999.2500
   2518.2500   2438.2854  -2416.2854     109.8007    -999.2500      89.0587    -999.2500       0.3577    -999.2500       2.3967    -999.2500    -999.2500
   2518.3750   2438.4053  -2416.4053     107.9068    -999.2500      88.2903    -999.2500       0.3549    -999.2500       2.3834    -999.2500    -999.2500
   2518.5000   2438.5254  -2416.5254     105.6147    -999.2500      82.4342    -999.2500       0.3501    -999.2500       2.3634    -999.2500    -999.2500
   2518.6250   2438.6455  -2416.6455     103.1162    -999.2500      76.8010    -999.2500       0.3375    -999.2500       2.4108    -999.2500    -999.2500
   2518.7500   2438.7656  -2416.7656     100.6798    -999.2500      79.1505    -999.2500       0.3295    -999.2500       2.4832    -999.2500    -999.2500
   2518.8750   2438.8855  -2416.8855      98.6111    -999.2500      95.4833    -999.2500       0.3492    -999.2500       2.4449    -999.2500    -999.2500
   2519.0000   2439.0056  -2417.0056      97.4126    -999.2500      97.2647    -999.2500       0.3507    -999.2500       2.4597    -999.2500    -999.2500
   2519.1250   2439.1257  -2417.1257      97.0641    -999.2500     104.6624    -999.2500       0.3312    -999.2500       2.4703    -999.2500    -999.2500
   2519.2500   2439.2458  -2417.2458      97.1147    -999.2500     106.0195    -999.2500       0.3494    -999.2500       2.4714    -999.2500    -999.2500
   2519.3750   2439.3657  -2417.3657      97.2960    -999.2500     106.4037    -999.2500       0.3783    -999.2500       2.4660    -999.2500    -999.2500
   2519.5000   2439.4858  -2417.4858      97.4553    -999.2500     110.0280    -999.2500       0.3861    -999.2500       2.4618    -999.2500    -999.2500
   2519.6250   2439.6060  -2417.6060      97.6076    -999.2500     106.4605    -999.2500       0.3938    -999.2500       2.4717    -999.2500    -999.2500
   2519.7500   2439.7261  -2417.7261      97.9962    -999.2500      93.0976    -999.2500       0.3925    -999.2500       2.4839    -999.2500    -999.2500
   2519.8750   2439.8459  -2417.8459      98.5249    -999.2500      81.7427    -999.2500       0.3887    -999.2500       2.4815    -999.2500    -999.2500
   2520.0000   2439.9661  -2417.9661      99.0889     174.2166      80.1932    -999.2500       0.3622    -999.2500       2.4680    -999.2500    -999.2500
   2520.1250   2440.0862  -2418.0862      99.4588     174.0448      85.3914    -999.2500       0.3191    -999.2500       2.4530    -999.2500    -999.2500
   2520.2500   2440.2061  -2418.2061      99.3257     173.6239      87.4984    -999.2500       0.2858    -999.2500       2.4477    -999.2500    -999.2500
   2520.3750   2440.3262  -2418.3262      98.3090     172.7547      88.5486    -999.2500       0.2793    -999.2500       2.4550    -999.2500    -999.2500
   2520.5000   2440.4463  -2418.4463      96.8674     171.9336      72.3975    -999.2500       0.2878    -999.2500       2.4610    -999.2500    -999.2500
   2520.6250   2440.5662  -2418.5662      95.2972     171.5546      69.4904    -999.2500       0.3068    -999.2500       2.4561    -999.2500    -999.2500
   2520.7500   2440.6863  -2418.6863      93.8215     171.6229      75.4234    -999.2500       0.3138    -999.2500       2.5286    -999.2500    -999.2500
   2520.8750   2440.8062  -2418.8062      92.6503     171.9165      80.1425    -999.2500       0.2985    -999.2500       2.6573    -999.2500    -999.2500
   2521.0000   2440.9263  -2418.9263      91.9700     172.0040      78.6470    -999.2500       0.2797    -999.2500       2.5880    -999.2500    -999.2500
   2521.1250   2441.0464  -2419.0464      91.7209     171.3470      79.2773    -999.2500       0.2807    -999.2500       2.4917    -999.2500    -999.2500
   2521.2500   2441.1663  -2419.1663      91.5320     170.4437      83.1532    -999.2500       0.2942    -999.2500       2.4325    -999.2500    -999.2500
   2521.3750   2441.2864  -2419.2864      91.3154     169.8111      85.0945    -999.2500       0.3015    -999.2500       2.4037    -999.2500    -999.2500
   2521.5000   2441.4065  -2419.4065      90.9877     169.8251      84.7093    -999.2500       0.2950    -999.2500       2.3936    -999.2500    -999.2500
