#------------------------------------------------------------------------------
#
#   Created by  : [OpenWorks] Log Export Utility (LEXP)
#   Created on  : 2007-05-07 11:57:13
#   Project     : NORNE
#   User        : JSE
#   Interpreter : JSE
#
#------------------------------------------------------------------------------
~VERSION INFORMATION
VERS. 2.0 : CWLS Log ASCII Standard - version 2.0
WRAP.  NO : One line per depth step
~WELL INFORMATION
#MNEMONIC   .UNIT                                           VALUE :DESCRIPTION
#------------------------------------------------------------------------------
STRT        .M                                          1325.1250 :START DEPTH
STOP        .M                                          3789.8750 :STOP DEPTH
STEP        .M                                             0.1250 :STEP
NULL        .                                           -999.2500 :NULL VALUE
COMP        .                                             STATOIL :COMPANY
WELL        .                                       6608/10-C-3 H :WELL
FLD         .                                               NORNE :FIELD
LOC         .                                             UNKNOWN :LOCATION
CNTY        .                                             UNKNOWN :COUNTY
STAT        .                                             UNKNOWN :STATE
CTRY        .                                              Norway :COUNTRY
SRVC        .                                             UNKNOWN :SERVICE COMPANY
DATE        .                                             UNKNOWN :LOG DATE
UWI         .                                    NO 6608/10-C-3 H :UNIQUE WELL ID
XCOORD      .                                       457175.596094 :SURFACE X
YCOORD      .                                      7322029.604515 :SURFACE Y
LAT         .                                           66.014460 :LATITUDE
LON         .                                            8.055937 :LONGITUDE
ELEV        .M                                            22.0000 :SURFACE ELEV
ELEV_TYPE   .                                                  KB :ELEV TYPE
~CURVE INFORMATION
#MNEMONIC.UNIT        API CODE       : CURVE DESCRIPTION
#------------------------------------------------------------------------------
DEPTH    .M                          : Measured Depth
TVD      .M                          : True Vertical Depth (TVD)
TVDSS    .M                          : True Vertical Depth (TVDSS)
DT       .us/ft       UNKNOWN        : DT:UNKNOWN:rC:NONE:v1 
DTS      .us/ft       UNKNOWN        : DTS:UNKNOWN:rC:NONE:v1 
GR       .API         UNKNOWN        : GR:UNKNOWN:rC:NONE:v1 
KLOGH    .mD          UNKNOWN        : KLOGH:UNKNOWN:rC::v0 (auto-composite)
NPHI     .v/v_decimal UNKNOWN        : NPHI:UNKNOWN:rC:NONE:v1 
PHIF     .v/v_decimal UNKNOWN        : PHIF:UNKNOWN:rC::v0 (auto-composite)
RHOB     .g/cm3       UNKNOWN        : RHOB:UNKNOWN:rC:NONE:v1 
SW       .v/v_decimal UNKNOWN        : SW:UNKNOWN:rC::v0 (auto-composite)
VSH      .v/v_decimal UNKNOWN        : VSH:UNKNOWN:rC::v0 (auto-composite)
~A     DEPTH         TVD       TVDSS           DT          DTS           GR        KLOGH         NPHI         PHIF         RHOB           SW          VSH
# ...
   3600.1250   2829.3669  -2807.3669      79.5935     145.2124     126.9462       0.4351       0.2456       0.1116       2.4668       0.8040       0.8382
   3600.2500   2829.4893  -2807.4893      79.4659     145.0383     127.3139       0.0280       0.2552       0.0504       2.5672       1.0000       0.8427
   3600.3750   2829.6116  -2807.6116      79.2860     144.7090     132.5980       0.0167       0.2808       0.0389       2.5860       1.0000       0.9082
   3600.5000   2829.7339  -2807.7339      79.0707     144.2370     135.6069       0.0290       0.2956       0.0512       2.5659       1.0000       0.9456
   3600.6250   2829.8562  -2807.8562      78.8641     143.6826     129.0746       0.0163       0.2776       0.0384       2.5869       1.0000       0.8645
   3600.7500   2829.9785  -2807.9785      78.7435     143.1739     126.3235       0.0078       0.2512       0.0220       2.6139       1.0000       0.8304
   3600.8750   2830.1006  -2808.1006      78.8131     142.8726     121.8140       0.0030       0.2749       0.0010       2.7088       1.0000       0.7746
   3601.0000   2830.2229  -2808.2229      79.0480     142.7787     122.5988       0.0030       0.2721       0.0010       2.6975       1.0000       0.7843
   3601.1250   2830.3452  -2808.3452      79.4570     142.9603     119.6909       0.0051       0.2444       0.0125       2.6293       1.0000       0.7482
   3601.2500   2830.4675  -2808.4675      80.0610     143.5330     109.9165       0.0340       0.2054       0.0548       2.5600       1.0000       0.6269
   3601.3750   2830.5898  -2808.5898      80.8863     144.6386      95.7373       0.1116       0.1761       0.0813       2.5166       1.0000       0.4512
   3601.5000   2830.7122  -2808.7122      81.9717     146.4728      78.9283       8.6353       0.1943       0.1782       2.3575       1.0000       0.2429
   3601.6250   2830.8345  -2808.8345      83.2156     148.7341      65.6171      70.4094       0.2141       0.2249       2.2806       1.0000       0.0779
   3601.7500   2830.9565  -2808.9565      84.4809     150.9664      58.8703     387.2832       0.2212       0.2629       2.2182       0.9810       0.0010
   3601.8750   2831.0789  -2809.0789      85.6838     152.8945      57.3895    1074.8337       0.2292       0.2857       2.1809       0.9561       0.0010
   3602.0000   2831.2012  -2809.2012      86.7564     154.3696      58.2404    1059.3267       0.2452       0.2853       2.1814       0.9658       0.0010
   3602.1250   2831.3235  -2809.3235      87.6540     155.4180      57.9000     591.4611       0.2503       0.2723       2.2030       0.9940       0.0010
   3602.2500   2831.4458  -2809.4458      88.2638     156.0927      55.1543     956.5410       0.2291       0.2831       2.1852       0.9591       0.0010
   3602.3750   2831.5681  -2809.5681      88.6750     156.5543      48.9538     617.2368       0.2082       0.2733       2.2012       0.9879       0.0010
   3602.5000   2831.6904  -2809.6904      88.8921     156.7722      46.8969     362.4668       0.2161       0.2614       2.2207       1.0000       0.0010
   3602.6250   2831.8127  -2809.8127      88.9443     156.7592      50.7404     289.3492       0.2299       0.2564       2.2289       1.0000       0.0010
   3602.7500   2831.9348  -2809.9348      88.8708     156.5671      56.9443     321.2699       0.2156       0.2587       2.2251       1.0000       0.0010
   3602.8750   2832.0571  -2810.0571      88.7103     156.3295      54.6919     401.9778       0.2584       0.2637       2.2169       1.0000       0.0010
   3603.0000   2832.1794  -2810.1794      88.5429     156.2212      50.3780     437.2335       0.2599       0.2656       2.2138       1.0000       0.0010
   3603.1250   2832.3018  -2810.3018      88.4349     156.2513      51.6616     527.6415       0.2492       0.2698       2.2069       1.0000       0.0010
   3603.2500   2832.4241  -2810.4241      88.4185     156.3851      53.6273     648.2180       0.2458       0.2744       2.1994       1.0000       0.0010
   3603.3750   2832.5464  -2810.5464      88.4994     156.5841      53.3128     746.4273       0.2457       0.2775       2.1942       1.0000       0.0010
   3603.5000   2832.6687  -2810.6687      88.6510     156.8180      54.0050     802.7183       0.2142       0.2791       2.1910       1.0000       0.0010
   3603.6250   2832.7908  -2810.7908      88.8402     157.1505      48.8700     299.4017       0.1982       0.2572       2.2277       1.0000       0.0010
   3603.7500   2832.9131  -2810.9131      89.0284     157.5590      53.4203     325.9471       0.2237       0.2591       2.2245       1.0000       0.0010
   3603.8750   2833.0354  -2811.0354      89.2218     157.9919      54.8726     491.3131       0.2293       0.2682       2.2095       1.0000       0.0010
   3604.0000   2833.1577  -2811.1577      89.4229     158.3792      54.4332     775.3716       0.2239       0.2784       2.1928       1.0000       0.0010
   3604.1250   2833.2800  -2811.2800      89.6278     158.6568      56.8713    1023.4559       0.2359       0.2846       2.1827       1.0000       0.0010
   3604.2500   2833.4023  -2811.4023      89.8113     158.7903      53.1093     408.2865       0.2309       0.2641       2.2163       1.0000       0.0010
   3604.3750   2833.5247  -2811.5247      89.9309     158.8674      53.3182     596.8567       0.2075       0.2725       2.2024       1.0000       0.0010
   3604.5000   2833.6470  -2811.6470      89.9972     158.9586      55.4105     861.8898       0.2108       0.2807       2.1890       1.0000       0.0010
   3604.6250   2833.7690  -2811.7690      90.0254     159.0650      59.8980     695.2552       0.2256       0.2759       2.1968       1.0000       0.0070
   3604.7500   2833.8914  -2811.8914      90.0296     159.1747      61.8592     415.7323       0.2386       0.2645       2.2156       1.0000       0.0313
   3604.8750   2834.0137  -2812.0137      90.0205     159.2721      51.9379     536.0636       0.2455       0.2701       2.2063       1.0000       0.0010
   3605.0000   2834.1360  -2812.1360      90.0090     159.3664      54.2871     820.6277       0.2019       0.2796       2.1907       1.0000       0.0010
   3605.1250   2834.2583  -2812.2583      90.0016     159.5122      52.4428    1188.5610       0.2353       0.2879       2.1772       1.0000       0.0010
   3605.2500   2834.3806  -2812.3806      90.0084     159.7350      55.3478     469.6158       0.2394       0.2672       2.2112       1.0000       0.0010
   3605.3750   2834.5029  -2812.5029      90.0465     160.0488      59.8577     229.2671       0.2258       0.2512       2.2374       1.0000       0.0065
   3605.5000   2834.6252  -2812.6252      90.1322     160.4614      60.8342     521.7143       0.2316       0.2695       2.2073       1.0000       0.0186
   3605.6250   2834.7473  -2812.7473      90.2783     160.9882      60.9499     583.5643       0.2363       0.2720       2.2032       1.0000       0.0200
   3605.7500   2834.8696  -2812.8696      90.4842     161.6300      58.9725     484.9621       0.2353       0.2679       2.2100       1.0000       0.0010
   3605.8750   2834.9919  -2812.9919      90.7239     162.3105      68.6487    1461.3722       0.2268       0.2925       2.1696       1.0000       0.1155
   3606.0000   2835.1143  -2813.1143      90.9716     162.9641      82.3375    1746.0862       0.2579       0.2965       2.1631       1.0000       0.2853
   3606.1250   2835.2366  -2813.2366      91.1903     163.5173      93.6812     849.0493       0.2879       0.2804       2.1895       1.0000       0.4258
   3606.2500   2835.3589  -2813.3589      91.3318     163.8895      99.2474    1095.1228       0.2194       0.2861       2.1802       1.0000       0.4948
   3606.3750   2835.4812  -2813.4812      91.2858     163.8969      92.9097     145.6901       0.2257       0.2411       2.2540       1.0000       0.4163
   3606.5000   2835.6033  -2813.6033      90.9918     163.4075     101.8268     365.5133       0.2375       0.2616       2.2204       1.0000       0.5268
