#------------------------------------------------------------------------------
#
#   Created by  : [OpenWorks] Log Export Utility (LEXP)
#   Created on  : 2007-05-07 11:58:15
#   Project     : NORNE
#   User        : JSE
#   Interpreter : JSE
#
#------------------------------------------------------------------------------
~VERSION INFORMATION
VERS. 2.0 : CWLS Log ASCII Standard - version 2.0
WRAP.  NO : One line per depth step
~WELL INFORMATION
#MNEMONIC   .UNIT                                           VALUE :DESCRIPTION
#------------------------------------------------------------------------------
STRT        .M                                           454.5508 :START DEPTH
STOP        .M                                          3169.8008 :STOP DEPTH
STEP        .M                                             0.1250 :STEP
NULL        .                                           -999.2500 :NULL VALUE
COMP        .                                             STATOIL :COMPANY
WELL        .                                       6608/10-F-1 H :WELL
FLD         .                                               NORNE :FIELD
LOC         .                                             UNKNOWN :LOCATION
CNTY        .                                             UNKNOWN :COUNTY
STAT        .                                             UNKNOWN :STATE
CTRY        .                                              Norway :COUNTRY
SRVC        .                                             UNKNOWN :SERVICE COMPANY
DATE        .                                             UNKNOWN :LOG DATE
UWI         .                                    NO 6608/10-F-1 H :UNIQUE WELL ID
XCOORD      .                                       459309.364262 :SURFACE X
YCOORD      .                                      7325355.161830 :SURFACE Y
LAT         .                                           66.044571 :LATITUDE
LON         .                                            8.101919 :LONGITUDE
ELEV        .M                                            24.0000 :SURFACE ELEV
ELEV_TYPE   .                                                  KB :ELEV TYPE
~CURVE INFORMATION
#MNEMONIC.UNIT        API CODE       : CURVE DESCRIPTION
#------------------------------------------------------------------------------
DEPTH    .M                          : Measured Depth
TVD      .M                          : True Vertical Depth (TVD)
TVDSS    .M                          : True Vertical Depth (TVDSS)
DT       .us/ft       UNKNOWN        : DT:UNKNOWN:rC:NONE:v1 
DTS      .us/ft       UNKNOWN        : DTS:UNKNOWN:rC:NONE:v1 
GR       .API         UNKNOWN        : GR:UNKNOWN:rC:NONE:v1 
KLOGH    .mD          UNKNOWN        : KLOGH:UNKNOWN:rC::v0 (auto-composite)
NPHI     .v/v_decimal UNKNOWN        : NPHI:SFINX:rC:NONE:v1 
PHIF     .v/v_decimal UNKNOWN        : PHIF:UNKNOWN:rC::v0 (auto-composite)
RHOB     .g/cm3       UNKNOWN        : RHOB:UNKNOWN:rC:NONE:v1 
SW       .v/v_decimal UNKNOWN        : SW:UNKNOWN:rC::v0 (auto-composite)
VSH      .v/v_decimal UNKNOWN        : VSH:UNKNOWN:rC::v0 (auto-composite)
~A     DEPTH         TVD       TVDSS           DT          DTS           GR        KLOGH         NPHI         PHIF         RHOB           SW          VSH
# ...
   2638.5508   2484.4131  -2460.4131     119.6434     238.6416     144.0673    -999.2500       0.6198    -999.2500       2.3998    -999.2500    -999.2500
   2638.6758   2484.5381  -2460.5381     120.1826     240.1539     137.8240    -999.2500       0.6283    -999.2500       2.4215    -999.2500    -999.2500
   2638.8008   2484.6631  -2460.6631     120.5403     240.2549     140.8845    -999.2500       0.6279    -999.2500       2.4296    -999.2500    -999.2500
   2638.9258   2484.7878  -2460.7878     120.5314     239.4454     136.6656    -999.2500       0.6337    -999.2500       2.4064    -999.2500    -999.2500
   2639.0508   2484.9128  -2460.9128     120.2066     237.9473     134.1715    -999.2500       0.6289    -999.2500       2.4121    -999.2500    -999.2500
   2639.1758   2485.0378  -2461.0378     119.6355     235.6631     135.9203    -999.2500       0.6206    -999.2500       2.4243    -999.2500    -999.2500
   2639.3008   2485.1628  -2461.1628     118.8989     232.6188     139.7038    -999.2500       0.6149    -999.2500       2.4275    -999.2500    -999.2500
   2639.4258   2485.2878  -2461.2878     118.0798     228.9984     140.2643    -999.2500       0.6157    -999.2500       2.4187    -999.2500    -999.2500
   2639.5508   2485.4126  -2461.4126     117.2486     225.2733     136.5369    -999.2500       0.6295    -999.2500       2.4023    -999.2500    -999.2500
   2639.6758   2485.5376  -2461.5376     116.4285     222.1509     138.9671    -999.2500       0.6427    -999.2500       2.4000    -999.2500    -999.2500
   2639.8008   2485.6626  -2461.6626     115.6441     219.4187     142.6997    -999.2500       0.6421    -999.2500       2.4211    -999.2500    -999.2500
   2639.9258   2485.7876  -2461.7876     114.9398     216.4722     142.8287    -999.2500       0.6357    -999.2500       2.4191    -999.2500    -999.2500
   2640.0508   2485.9126  -2461.9126     114.3583     212.6962     138.4720    -999.2500       0.6323    -999.2500       2.3834    -999.2500    -999.2500
   2640.1758   2486.0374  -2462.0374     113.9250     207.6310     136.6000    -999.2500       0.6306    -999.2500       2.4000    -999.2500    -999.2500
   2640.3008   2486.1624  -2462.1624     113.6753     202.0873     135.2350    -999.2500       0.6055    -999.2500       2.4404    -999.2500    -999.2500
   2640.4258   2486.2874  -2462.2874     113.5739     197.7665     135.7895    -999.2500       0.5950    -999.2500       2.4500    -999.2500    -999.2500
   2640.5508   2486.4124  -2462.4124     113.6711     195.4465     135.5921    -999.2500       0.5937    -999.2500       2.4321    -999.2500    -999.2500
   2640.6758   2486.5374  -2462.5374     114.0116     195.1117     135.1273    -999.2500       0.5955    -999.2500       2.4127    -999.2500    -999.2500
   2640.8008   2486.6621  -2462.6621     114.6260     196.1087     136.3281    -999.2500       0.5970    -999.2500       2.4191    -999.2500    -999.2500
   2640.9258   2486.7871  -2462.7871     115.5130     196.9933     136.9507    -999.2500       0.6105    -999.2500       2.4109    -999.2500    -999.2500
   2641.0508   2486.9121  -2462.9121     116.4790     197.1578     136.2762    -999.2500       0.6063    -999.2500       2.3881    -999.2500    -999.2500
   2641.1758   2487.0371  -2463.0371     117.3776     197.2682     137.2917    -999.2500       0.6090    -999.2500       2.3910    -999.2500    -999.2500
   2641.3008   2487.1621  -2463.1621     118.1195     197.4553     137.1136    -999.2500       0.6216    -999.2500       2.3926    -999.2500    -999.2500
   2641.4258   2487.2869  -2463.2869     118.6346     197.6893     135.6593    -999.2500       0.6321    -999.2500       2.3914    -999.2500    -999.2500
   2641.5508   2487.4119  -2463.4119     118.8750     197.8350     138.4200    -999.2500       0.6143    -999.2500       2.4400    -999.2500    -999.2500
   2641.6758   2487.5369  -2463.5369     118.6807     197.6972     137.7891    -999.2500       0.6185    -999.2500       2.3653    -999.2500    -999.2500
   2641.8008   2487.6619  -2463.6619     118.1940     197.4211     140.2821    -999.2500       0.6080    -999.2500       2.3890    -999.2500    -999.2500
   2641.9258   2487.7869  -2463.7869     117.4777     197.0967     139.1034    -999.2500       0.6054    -999.2500       2.3723    -999.2500    -999.2500
   2642.0508   2487.9116  -2463.9116     116.5402     196.6600     137.7783    -999.2500       0.6070    -999.2500       2.3242    -999.2500    -999.2500
   2642.1758   2488.0366  -2464.0366     115.3501     195.9845     140.9809    -999.2500       0.6017    -999.2500       2.3122    -999.2500    -999.2500
   2642.3008   2488.1616  -2464.1616     113.8002     194.9858     136.2383    -999.2500       0.6039    -999.2500       2.3286    -999.2500    -999.2500
   2642.4258   2488.2866  -2464.2866     111.9781     194.1429     138.2376    -999.2500       0.6294    -999.2500       2.3826    -999.2500    -999.2500
   2642.5508   2488.4116  -2464.4116     110.1684     193.8634     140.9809    -999.2500       0.5952    -999.2500       2.3943    -999.2500    -999.2500
   2642.6758   2488.5364  -2464.5364     108.5035     194.1690     140.4258    -999.2500       0.5750    -999.2500       2.4135    -999.2500    -999.2500
   2642.8008   2488.6614  -2464.6614     107.0853     194.9107     135.9757    -999.2500       0.5945    -999.2500       2.4458    -999.2500    -999.2500
   2642.9258   2488.7864  -2464.7864     105.9978     195.8202     131.2179    -999.2500       0.5991    -999.2500       2.4322    -999.2500    -999.2500
   2643.0508   2488.9114  -2464.9114     105.5538     196.7762     135.7717    -999.2500       0.5950    -999.2500       2.4897    -999.2500    -999.2500
   2643.1758   2489.0364  -2465.0364     105.9983     198.2356     136.0448    -999.2500       0.6182    -999.2500       2.4596    -999.2500    -999.2500
   2643.3008   2489.1611  -2465.1611     107.4179     200.6981     140.4346    -999.2500       0.6204    -999.2500       2.4844    -999.2500    -999.2500
   2643.4258   2489.2861  -2465.2861     109.6681     204.3043     143.7925    -999.2500       0.6195    -999.2500       2.5018    -999.2500    -999.2500
   2643.5508   2489.4111  -2465.4111     112.4005     208.8914     139.7962    -999.2500       0.6329    -999.2500       2.4360    -999.2500    -999.2500
   2643.6758   2489.5361  -2465.5361     115.0121     213.9410     134.2823    -999.2500       0.5972    -999.2500       2.4114    -999.2500    -999.2500
   2643.8008   2489.6611  -2465.6611     116.8002     217.9556     135.3168    -999.2500       0.5949    -999.2500       2.3868    -999.2500    -999.2500
   2643.9258   2489.7859  -2465.7859     117.8188     219.7319     128.9797    -999.2500       0.6150    -999.2500       2.4513    -999.2500    -999.2500
   2644.0508   2489.9109  -2465.9109     118.2434     219.2758     126.3708    -999.2500       0.6332    -999.2500       2.5083    -999.2500    -999.2500
   2644.1758   2490.0359  -2466.0359     118.3155     217.3252     128.6740    -999.2500       0.6340    -999.2500       2.5060    -999.2500    -999.2500
   2644.3008   2490.1609  -2466.1609     118.2975     215.1679     127.6935    -999.2500       0.6172    -999.2500       2.4573    -999.2500    -999.2500
   2644.4258   2490.2859  -2466.2859     118.3951     214.3531     137.3838    -999.2500       0.6378    -999.2500       2.4162    -999.2500    -999.2500
   2644.5508   2490.4106  -2466.4106     118.4983     214.5155     140.2858    -999.2500       0.6171    -999.2500       2.4100    -999.2500    -999.2500
   2644.6758   2490.5356  -2466.5356     118.4446     214.2086     139.4909    -999.2500       0.5917    -999.2500       2.3997    -999.2500    -999.2500
   2644.8008   2490.6606  -2466.6606     118.1810     212.6887     141.2915    -999.2500       0.5757    -999.2500       2.4000    -999.2500    -999.2500
   2644.9258   2490.7856  -2466.7856     117.7227     209.9913     146.5069    -999.2500       0.5694    -999.2500       2.4153    -999.2500    -999.2500
