#------------------------------------------------------------------------------
#
#   Created by  : [OpenWorks] Log Export Utility (LEXP)
#   Created on  : 2007-05-07 11:58:15
#   Project     : NORNE
#   User        : JSE
#   Interpreter : JSE
#
#------------------------------------------------------------------------------
~VERSION INFORMATION
VERS. 2.0 : CWLS Log ASCII Standard - version 2.0
WRAP.  NO : One line per depth step
~WELL INFORMATION
#MNEMONIC   .UNIT                                           VALUE :DESCRIPTION
#------------------------------------------------------------------------------
STRT        .M                                           454.5508 :START DEPTH
STOP        .M                                          3169.8008 :STOP DEPTH
STEP        .M                                             0.1250 :STEP
NULL        .                                           -999.2500 :NULL VALUE
COMP        .                                             STATOIL :COMPANY
WELL        .                                       6608/10-F-1 H :WELL
FLD         .                                               NORNE :FIELD
LOC         .                                             UNKNOWN :LOCATION
CNTY        .                                             UNKNOWN :COUNTY
STAT        .                                             UNKNOWN :STATE
CTRY        .                                              Norway :COUNTRY
SRVC        .                                             UNKNOWN :SERVICE COMPANY
DATE        .                                             UNKNOWN :LOG DATE
UWI         .                                    NO 6608/10-F-1 H :UNIQUE WELL ID
XCOORD      .                                       459309.364262 :SURFACE X
YCOORD      .                                      7325355.161830 :SURFACE Y
LAT         .                                           66.044571 :LATITUDE
LON         .                                            8.101919 :LONGITUDE
ELEV        .M                                            24.0000 :SURFACE ELEV
ELEV_TYPE   .                                                  KB :ELEV TYPE
~CURVE INFORMATION
#MNEMONIC.UNIT        API CODE       : CURVE DESCRIPTION
#------------------------------------------------------------------------------
DEPTH    .M                          : Measured Depth
TVD      .M                          : True Vertical Depth (TVD)
TVDSS    .M                          : True Vertical Depth (TVDSS)
DT       .us/ft       UNKNOWN        : DT:UNKNOWN:rC:NONE:v1 
DTS      .us/ft       UNKNOWN        : DTS:UNKNOWN:rC:NONE:v1 
GR       .API         UNKNOWN        : GR:UNKNOWN:rC:NONE:v1 
KLOGH    .mD          UNKNOWN        : KLOGH:UNKNOWN:rC::v0 (auto-composite)
NPHI     .v/v_decimal UNKNOWN        : NPHI:SFINX:rC:NONE:v1 
PHIF     .v/v_decimal UNKNOWN        : PHIF:UNKNOWN:rC::v0 (auto-composite)
RHOB     .g/cm3       UNKNOWN        : RHOB:UNKNOWN:rC:NONE:v1 
SW       .v/v_decimal UNKNOWN        : SW:UNKNOWN:rC::v0 (auto-composite)
VSH      .v/v_decimal UNKNOWN        : VSH:UNKNOWN:rC::v0 (auto-composite)
~A     DEPTH         TVD       TVDSS           DT          DTS           GR        KLOGH         NPHI         PHIF         RHOB           SW          VSH
# ...
   2560.5508   2406.4353  -2382.4353     119.0815    -999.0000     128.3871    -999.2500       0.6357    -999.2500       2.3400    -999.2500    -999.2500
   2560.6758   2406.5601  -2382.5601     118.4541    -999.0000     128.3753    -999.2500       0.6244    -999.2500       2.3333    -999.2500    -999.2500
   2560.8008   2406.6851  -2382.6851     117.8327    -999.0000     128.3636    -999.2500       0.5977    -999.2500       2.3231    -999.2500    -999.2500
   2560.9258   2406.8101  -2382.8101     117.2347    -999.0000     128.3518    -999.2500       0.5902    -999.2500       2.3395    -999.2500    -999.2500
   2561.0508   2406.9351  -2382.9351     116.7669    -999.0000     128.3401    -999.2500       0.5719    -999.2500       2.3400    -999.2500    -999.2500
   2561.1758   2407.0598  -2383.0598     116.4307    -999.0000     128.3284    -999.2500       0.5692    -999.2500       2.3400    -999.2500    -999.2500
   2561.3008   2407.1848  -2383.1848     116.1954    -999.0000     128.3166    -999.2500       0.5676    -999.2500       2.3313    -999.2500    -999.2500
   2561.4258   2407.3098  -2383.3098     116.0339    -999.0000     128.3049    -999.2500       0.5638    -999.2500       2.3225    -999.2500    -999.2500
   2561.5508   2407.4348  -2383.4348     115.9378    -999.0000     128.2931    -999.2500       0.5632    -999.2500       2.3292    -999.2500    -999.2500
   2561.6758   2407.5596  -2383.5596     116.0001    -999.0000     128.2814    -999.2500       0.5566    -999.2500       2.3210    -999.2500    -999.2500
   2561.8008   2407.6846  -2383.6846     116.2301    -999.0000     128.2696    -999.2500       0.5547    -999.2500       2.3272    -999.2500    -999.2500
   2561.9258   2407.8096  -2383.8096     116.5483    -999.0000     128.2579    -999.2500       0.5716    -999.2500       2.3407    -999.2500    -999.2500
   2562.0508   2407.9346  -2383.9346     116.9268    -999.0000     128.2461    -999.2500       0.5877    -999.2500       2.3464    -999.2500    -999.2500
   2562.1758   2408.0593  -2384.0593     117.3466    -999.0000     128.2344    -999.2500       0.5888    -999.2500       2.3382    -999.2500    -999.2500
   2562.3008   2408.1843  -2384.1843     117.7940    -999.0000     128.2226    -999.2500       0.5839    -999.2500       2.3300    -999.2500    -999.2500
   2562.4258   2408.3093  -2384.3093     118.2206    -999.0000     128.2109    -999.2500       0.5864    -999.2500       2.3545    -999.2500    -999.2500
   2562.5508   2408.4343  -2384.4343     118.6005    -999.0000     128.1992    -999.2500       0.5834    -999.2500       2.3472    -999.2500    -999.2500
   2562.6758   2408.5591  -2384.5591     118.9000    -999.0000     128.1874    -999.2500       0.5853    -999.2500       2.3400    -999.2500    -999.2500
   2562.8008   2408.6841  -2384.6841     119.0886    -999.0000     128.1757    -999.2500       0.5891    -999.2500       2.3428    -999.2500    -999.2500
   2562.9258   2408.8091  -2384.8091     119.1457    -999.0000     128.1639    -999.2500       0.5866    -999.2500       2.3480    -999.2500    -999.2500
   2563.0508   2408.9341  -2384.9341     119.0678    -999.0000     128.1522    -999.2500       0.5865    -999.2500       2.3316    -999.2500    -999.2500
   2563.1758   2409.0588  -2385.0588     118.8731    -999.0000     128.1404    -999.2500       0.5896    -999.2500       2.3522    -999.2500    -999.2500
   2563.3008   2409.1838  -2385.1838     118.5872    -999.0000     128.1287    -999.2500       0.5876    -999.2500       2.3544    -999.2500    -999.2500
   2563.4258   2409.3088  -2385.3088     118.2400    -999.0000     128.1170    -999.2500       0.5887    -999.2500       2.3500    -999.2500    -999.2500
   2563.5508   2409.4336  -2385.4336     117.8858    -999.0000     128.1052    -999.2500       0.5960    -999.2500       2.3440    -999.2500    -999.2500
   2563.6758   2409.5586  -2385.5586     117.6000    -999.0000     128.0935    -999.2500       0.6012    -999.2500       2.3210    -999.2500    -999.2500
   2563.8008   2409.6836  -2385.6836     117.3867    -999.0000     128.0817    -999.2500       0.5935    -999.2500       2.3620    -999.2500    -999.2500
   2563.9258   2409.8086  -2385.8086     117.1430    -999.0000     128.0700    -999.2500       0.5940    -999.2500       2.3634    -999.2500    -999.2500
   2564.0508   2409.9333  -2385.9333     116.8683    -999.0000     128.0582    -999.2500       0.5955    -999.2500       2.3552    -999.2500    -999.2500
   2564.1758   2410.0583  -2386.0583     116.6166    -999.0000     128.0465    -999.2500       0.5979    -999.2500       2.3530    -999.2500    -999.2500
   2564.3008   2410.1833  -2386.1833     116.4721    -999.0000     128.0347    -999.2500       0.6018    -999.2500       2.3576    -999.2500    -999.2500
   2564.4258   2410.3083  -2386.3083     116.5550    -999.0000     128.0230    -999.2500       0.5967    -999.2500       2.3412    -999.2500    -999.2500
   2564.5508   2410.4331  -2386.4331     116.8472    -999.0000     128.0113    -999.2500       0.5777    -999.2500       2.3400    -999.2500    -999.2500
   2564.6758   2410.5581  -2386.5581     117.2820    -999.0000     127.9995    -999.2500       0.5719    -999.2500       2.3342    -999.2500    -999.2500
   2564.8008   2410.6831  -2386.6831     117.8810    -999.0000     127.9878    -999.2500       0.5647    -999.2500       2.3220    -999.2500    -999.2500
   2564.9258   2410.8081  -2386.8081     118.7076    -999.0000     127.9760    -999.2500       0.5532    -999.2500       2.3100    -999.2500    -999.2500
   2565.0508   2410.9329  -2386.9329     119.8562    -999.0000     127.9643    -999.2500       0.5507    -999.2500       2.3104    -999.2500    -999.2500
   2565.1758   2411.0579  -2387.0579     121.4160    -999.0000     127.9525    -999.2500       0.5580    -999.2500       2.3186    -999.2500    -999.2500
   2565.3008   2411.1829  -2387.1829     122.9881    -999.0000     127.9408    -999.2500       0.5634    -999.2500       2.3268    -999.2500    -999.2500
   2565.4258   2411.3079  -2387.3079     124.2310    -999.0000     127.9291    -999.2500       0.5712    -999.2500       2.3350    -999.2500    -999.2500
   2565.5508   2411.4326  -2387.4326     124.9481    -999.0000     127.9173    -999.2500       0.5765    -999.2500       2.3497    -999.2500    -999.2500
   2565.6758   2411.5576  -2387.5576     125.0397    -999.0000     127.9056    -999.2500       0.5745    -999.2500       2.3657    -999.2500    -999.2500
   2565.8008   2411.6826  -2387.6826     124.4686    -999.0000     127.8938    -999.2500       0.5708    -999.2500       2.3411    -999.2500    -999.2500
   2565.9258   2411.8076  -2387.8076     123.4188    -999.0000     127.8821    -999.2500       0.5731    -999.2500       2.3478    -999.2500    -999.2500
   2566.0508   2411.9324  -2387.9324     122.2654    -999.0000     127.8703    -999.2500       0.5727    -999.2500       2.3500    -999.2500    -999.2500
   2566.1758   2412.0574  -2388.0574     121.1345    -999.0000     127.8586    -999.2500       0.5758    -999.2500       2.3458    -999.2500    -999.2500
   2566.3008   2412.1824  -2388.1824     120.1365    -999.0000     127.8468    -999.2500       0.5812    -999.2500       2.3376    -999.2500    -999.2500
   2566.4258   2412.3071  -2388.3071     119.3744    -999.0000     127.8351    -999.2500       0.5826    -999.2500       2.3300    -999.2500    -999.2500
   2566.5508   2412.4321  -2388.4321     119.0207    -999.0000     127.8233    -999.2500       0.5930    -999.2500       2.3300    -999.2500    -999.2500
   2566.6758   2412.5571  -2388.5571     118.9562    -999.0000     127.8116    -999.2500       0.5924    -999.2500       2.3230    -999.2500    -999.2500
   2566.8008   2412.6821  -2388.6821     119.0051    -999.0000     127.7999    -999.2500       0.5920    -999.2500       2.3305    -999.2500    -999.2500
   2566.9258   2412.8069  -2388.8069     119.0950    -999.0000     127.7881    -999.2500       0.5893    -999.2500       2.3400    -999.2500    -999.2500
