#------------------------------------------------------------------------------
#
#   Created by  : [OpenWorks] Log Export Utility (LEXP)
#   Created on  : 2007-05-07 11:58:15
#   Project     : NORNE
#   User        : JSE
#   Interpreter : JSE
#
#------------------------------------------------------------------------------
~VERSION INFORMATION
VERS. 2.0 : CWLS Log ASCII Standard - version 2.0
WRAP.  NO : One line per depth step
~WELL INFORMATION
#MNEMONIC   .UNIT                                           VALUE :DESCRIPTION
#------------------------------------------------------------------------------
STRT        .M                                           454.5508 :START DEPTH
STOP        .M                                          3169.8008 :STOP DEPTH
STEP        .M                                             0.1250 :STEP
NULL        .                                           -999.2500 :NULL VALUE
COMP        .                                             STATOIL :COMPANY
WELL        .                                       6608/10-F-1 H :WELL
FLD         .                                               NORNE :FIELD
LOC         .                                             UNKNOWN :LOCATION
CNTY        .                                             UNKNOWN :COUNTY
STAT        .                                             UNKNOWN :STATE
CTRY        .                                              Norway :COUNTRY
SRVC        .                                             UNKNOWN :SERVICE COMPANY
DATE        .                                             UNKNOWN :LOG DATE
UWI         .                                    NO 6608/10-F-1 H :UNIQUE WELL ID
XCOORD      .                                       459309.364262 :SURFACE X
YCOORD      .                                      7325355.161830 :SURFACE Y
LAT         .                                           66.044571 :LATITUDE
LON         .                                            8.101919 :LONGITUDE
ELEV        .M                                            24.0000 :SURFACE ELEV
ELEV_TYPE   .                                                  KB :ELEV TYPE
~CURVE INFORMATION
#MNEMONIC.UNIT        API CODE       : CURVE DESCRIPTION
#------------------------------------------------------------------------------
DEPTH    .M                          : Measured Depth
TVD      .M                          : True Vertical Depth (TVD)
TVDSS    .M                          : True Vertical Depth (TVDSS)
DT       .us/ft       UNKNOWN        : DT:UNKNOWN:rC:NONE:v1 
DTS      .us/ft       UNKNOWN        : DTS:UNKNOWN:rC:NONE:v1 
GR       .API         UNKNOWN        : GR:UNKNOWN:rC:NONE:v1 
KLOGH    .mD          UNKNOWN        : KLOGH:UNKNOWN:rC::v0 (auto-composite)
NPHI     .v/v_decimal UNKNOWN        : NPHI:SFINX:rC:NONE:v1 
PHIF     .v/v_decimal UNKNOWN        : PHIF:UNKNOWN:rC::v0 (auto-composite)
RHOB     .g/cm3       UNKNOWN        : RHOB:UNKNOWN:rC:NONE:v1 
SW       .v/v_decimal UNKNOWN        : SW:UNKNOWN:rC::v0 (auto-composite)
VSH      .v/v_decimal UNKNOWN        : VSH:UNKNOWN:rC::v0 (auto-composite)
~A     DEPTH         TVD       TVDSS           DT          DTS           GR        KLOGH         NPHI         PHIF         RHOB           SW          VSH
# ...
   2794.5508   2640.3301  -2616.3301      92.2960     174.8324     126.8643    -999.2500       0.8423    -999.2500       2.9624    -999.2500    -999.2500
   2794.6758   2640.4551  -2616.4551      92.0846     174.8419     128.4774    -999.2500       0.8424    -999.2500       2.9629    -999.2500    -999.2500
   2794.8008   2640.5801  -2616.5801      91.9164     174.7111     127.1879    -999.2500       0.8426    -999.2500       2.9634    -999.2500    -999.2500
   2794.9258   2640.7048  -2616.7048      91.8291     174.4415     123.0922    -999.2500       0.8428    -999.2500       2.9639    -999.2500    -999.2500
   2795.0508   2640.8298  -2616.8298      91.8289     174.0702     125.3750    -999.2500       0.8429    -999.2500       2.9644    -999.2500    -999.2500
   2795.1758   2640.9548  -2616.9548      91.8897     173.6541     146.3197    -999.2500       0.8431    -999.2500       2.9649    -999.2500    -999.2500
   2795.3008   2641.0798  -2617.0798      91.9520     173.2127     132.1495    -999.2500       0.8432    -999.2500       2.9654    -999.2500    -999.2500
   2795.4258   2641.2046  -2617.2046      91.9985     172.7182     131.1479    -999.2500       0.8434    -999.2500       2.9659    -999.2500    -999.2500
   2795.5508   2641.3296  -2617.3296      92.0303     172.1983     137.6577    -999.2500       0.8436    -999.2500       2.9664    -999.2500    -999.2500
   2795.6758   2641.4546  -2617.4546      92.0246     171.7202     136.6322    -999.2500       0.8437    -999.2500       2.9669    -999.2500    -999.2500
   2795.8008   2641.5796  -2617.5796      91.9571     171.3624     123.8439    -999.2500       0.8439    -999.2500       2.9674    -999.2500    -999.2500
   2795.9258   2641.7043  -2617.7043      91.8143     171.2048     129.4808    -999.2500       0.8440    -999.2500       2.9679    -999.2500    -999.2500
   2796.0508   2641.8293  -2617.8293      91.6731     171.2764     117.9971    -999.2500       0.8442    -999.2500       2.9684    -999.2500    -999.2500
   2796.1758   2641.9543  -2617.9543      91.6193     171.4881     118.6023    -999.2500       0.8444    -999.2500       2.9689    -999.2500    -999.2500
   2796.3008   2642.0791  -2618.0791      91.6783     171.8501     123.2382    -999.2500       0.8445    -999.2500       2.9694    -999.2500    -999.2500
   2796.4258   2642.2041  -2618.2041      91.8441     172.3973     123.8400    -999.2500       0.8447    -999.2500       2.9698    -999.2500    -999.2500
   2796.5508   2642.3291  -2618.3291      92.0884     173.1738     116.9763    -999.2500       0.8449    -999.2500       2.9703    -999.2500    -999.2500
   2796.6758   2642.4541  -2618.4541      92.3952     174.2192     120.8902    -999.2500       0.8450    -999.2500       2.9708    -999.2500    -999.2500
   2796.8008   2642.5789  -2618.5789      92.8074     175.3719     123.6371    -999.2500       0.8452    -999.2500       2.9713    -999.2500    -999.2500
   2796.9258   2642.7039  -2618.7039      93.3123     176.5193     126.7285    -999.2500       0.8453    -999.2500       2.9718    -999.2500    -999.2500
   2797.0508   2642.8289  -2618.8289      93.8436     177.6207     129.4532    -999.2500       0.8455    -999.2500       2.9723    -999.2500    -999.2500
   2797.1758   2642.9539  -2618.9539      94.3159     178.6633     129.7248    -999.2500       0.8457    -999.2500       2.9728    -999.2500    -999.2500
   2797.3008   2643.0786  -2619.0786      94.6440     179.6650     123.9500    -999.2500       0.8458    -999.2500       2.9733    -999.2500    -999.2500
   2797.4258   2643.2036  -2619.2036      94.7870     180.5449     128.6706    -999.2500       0.8460    -999.2500       2.9738    -999.2500    -999.2500
   2797.5508   2643.3286  -2619.3286      94.8662     181.2601     130.5247    -999.2500       0.8461    -999.2500       2.9743    -999.2500    -999.2500
   2797.6758   2643.4534  -2619.4534      94.9147     181.7535     135.1548    -999.2500       0.8463    -999.2500       2.9748    -999.2500    -999.2500
   2797.8008   2643.5784  -2619.5784      94.9437     182.0308     136.9090    -999.2500       0.8465    -999.2500       2.9753    -999.2500    -999.2500
   2797.9258   2643.7034  -2619.7034      94.9494     182.1403     128.8477    -999.2500       0.8466    -999.2500       2.9758    -999.2500    -999.2500
   2798.0508   2643.8284  -2619.8284      94.9355     182.1699     135.9780    -999.2500       0.8468    -999.2500       2.9763    -999.2500    -999.2500
   2798.1758   2643.9531  -2619.9531      94.9766     182.1686     135.8125    -999.2500       0.8469    -999.2500       2.9768    -999.2500    -999.2500
   2798.3008   2644.0781  -2620.0781      95.1284     182.1415     145.4780    -999.2500       0.8471    -999.2500       2.9773    -999.2500    -999.2500
   2798.4258   2644.2031  -2620.2031      95.4042     182.1042     144.2573    -999.2500       0.8473    -999.2500       2.9778    -999.2500    -999.2500
   2798.5508   2644.3281  -2620.3281      95.7871     182.0898     131.9571    -999.2500       0.8474    -999.2500       2.9782    -999.2500    -999.2500
   2798.6758   2644.4529  -2620.4529      96.2316     182.1513     145.5993    -999.2500       0.8476    -999.2500       2.9787    -999.2500    -999.2500
   2798.8008   2644.5779  -2620.5779      96.6665     182.3958     146.6988    -999.2500       0.8478    -999.2500       2.9792    -999.2500    -999.2500
   2798.9258   2644.7029  -2620.7029      97.0608     182.7930     134.1330    -999.2500       0.8479    -999.2500       2.9797    -999.2500    -999.2500
   2799.0508   2644.8276  -2620.8276      97.4187     183.3044     132.0856    -999.2500       0.8481    -999.2500       2.9802    -999.2500    -999.2500
   2799.1758   2644.9526  -2620.9526      97.7371     183.8873     132.6941    -999.2500       0.8482    -999.2500       2.9807    -999.2500    -999.2500
   2799.3008   2645.0776  -2621.0776      98.0086     184.4990     121.2104    -999.2500       0.8484    -999.2500       2.9812    -999.2500    -999.2500
   2799.4258   2645.2026  -2621.2026      98.2195     185.1038     117.8709    -999.2500       0.8486    -999.2500       2.9817    -999.2500    -999.2500
   2799.5508   2645.3274  -2621.3274      98.4032     185.6737     121.7938    -999.2500       0.8487    -999.2500       2.9822    -999.2500    -999.2500
   2799.6758   2645.4524  -2621.4524      98.5929     186.1910     122.2467    -999.2500       0.8489    -999.2500       2.9827    -999.2500    -999.2500
   2799.8008   2645.5774  -2621.5774      98.8042     186.6277     129.1285    -999.2500       0.8490    -999.2500       2.9832    -999.2500    -999.2500
   2799.9258   2645.7024  -2621.7024      99.0296     186.9468     140.5180    -999.2500       0.8492    -999.2500       2.9837    -999.2500    -999.2500
   2800.0508   2645.8271  -2621.8271      99.2349     187.1049     140.1590    -999.2500       0.8494    -999.2500       2.9842    -999.2500    -999.2500
   2800.1758   2645.9521  -2621.9521      99.3210     187.0147     142.8093    -999.2500       0.8495    -999.2500       2.9847    -999.2500    -999.2500
   2800.3008   2646.0771  -2622.0771      99.2526     186.7685     131.4666    -999.2500       0.8497    -999.2500       2.9852    -999.2500    -999.2500
   2800.4258   2646.2021  -2622.2021      99.0478     186.4843     129.4516    -999.2500       0.8498    -999.2500       2.9857    -999.2500    -999.2500
   2800.5508   2646.3269  -2622.3269      98.7300     186.2264     128.9030    -999.2500       0.8500    -999.2500       2.9862    -999.2500    -999.2500
   2800.6758   2646.4519  -2622.4519      98.3344     186.0225     119.3063    -999.2500       0.8502    -999.2500       2.9866    -999.2500    -999.2500
   2800.8008   2646.5769  -2622.5769      97.9143     185.8526     116.1883    -999.2500       0.8503    -999.2500       2.9871    -999.2500    -999.2500
   2800.9258   2646.7017  -2622.7017      97.5596     185.6773     127.7407    -999.2500       0.8505    -999.2500       2.9876    -999.2500    -999.2500
