#------------------------------------------------------------------------------
#
#   Created by  : [OpenWorks] Log Export Utility (LEXP)
#   Created on  : 2007-05-07 11:58:15
#   Project     : NORNE
#   User        : JSE
#   Interpreter : JSE
#
#------------------------------------------------------------------------------
~VERSION INFORMATION
VERS. 2.0 : CWLS Log ASCII Standard - version 2.0
WRAP.  NO : One line per depth step
~WELL INFORMATION
#MNEMONIC   .UNIT                                           VALUE :DESCRIPTION
#------------------------------------------------------------------------------
STRT        .M                                           454.5508 :START DEPTH
STOP        .M                                          3169.8008 :STOP DEPTH
STEP        .M                                             0.1250 :STEP
NULL        .                                           -999.2500 :NULL VALUE
COMP        .                                             STATOIL :COMPANY
WELL        .                                       6608/10-F-1 H :WELL
FLD         .                                               NORNE :FIELD
LOC         .                                             UNKNOWN :LOCATION
CNTY        .                                             UNKNOWN :COUNTY
STAT        .                                             UNKNOWN :STATE
CTRY        .                                              Norway :COUNTRY
SRVC        .                                             UNKNOWN :SERVICE COMPANY
DATE        .                                             UNKNOWN :LOG DATE
UWI         .                                    NO 6608/10-F-1 H :UNIQUE WELL ID
XCOORD      .                                       459309.364262 :SURFACE X
YCOORD      .                                      7325355.161830 :SURFACE Y
LAT         .                                           66.044571 :LATITUDE
LON         .                                            8.101919 :LONGITUDE
ELEV        .M                                            24.0000 :SURFACE ELEV
ELEV_TYPE   .                                                  KB :ELEV TYPE
~CURVE INFORMATION
#MNEMONIC.UNIT        API CODE       : CURVE DESCRIPTION
#------------------------------------------------------------------------------
DEPTH    .M                          : Measured Depth
TVD      .M                          : True Vertical Depth (TVD)
TVDSS    .M                          : True Vertical Depth (TVDSS)
DT       .us/ft       UNKNOWN        : DT:UNKNOWN:rC:NONE:v1 
DTS      .us/ft       UNKNOWN        : DTS:UNKNOWN:rC:NONE:v1 
GR       .API         UNKNOWN        : GR:UNKNOWN:rC:NONE:v1 
KLOGH    .mD          UNKNOWN        : KLOGH:UNKNOWN:rC::v0 (auto-composite)
NPHI     .v/v_decimal UNKNOWN        : NPHI:SFINX:rC:NONE:v1 
PHIF     .v/v_decimal UNKNOWN        : PHIF:UNKNOWN:rC::v0 (auto-composite)
RHOB     .g/cm3       UNKNOWN        : RHOB:UNKNOWN:rC:NONE:v1 
SW       .v/v_decimal UNKNOWN        : SW:UNKNOWN:rC::v0 (auto-composite)
VSH      .v/v_decimal UNKNOWN        : VSH:UNKNOWN:rC::v0 (auto-composite)
~A     DEPTH         TVD       TVDSS           DT          DTS           GR        KLOGH         NPHI         PHIF         RHOB           SW          VSH
# ...
   2599.5508   2445.4238  -2421.4238     117.3865    -999.0000     119.3520    -999.2500       0.6440    -999.2500       2.3174    -999.2500    -999.2500
   2599.6758   2445.5488  -2421.5488     117.7790    -999.0000     117.9489    -999.2500       0.6495    -999.2500       2.3072    -999.2500    -999.2500
   2599.8008   2445.6736  -2421.6736     118.2950    -999.0000     116.5460    -999.2500       0.6507    -999.2500       2.3294    -999.2500    -999.2500
   2599.9258   2445.7986  -2421.7986     118.8611    -999.0000     115.1452    -999.2500       0.6458    -999.2500       2.3212    -999.2500    -999.2500
   2600.0508   2445.9236  -2421.9236     119.3068    -999.0000     112.5379    -999.2500       0.6610    -999.2500       2.3200    -999.2500    -999.2500
   2600.1758   2446.0486  -2422.0486     119.5886    -999.0000     110.6142    -999.2500       0.6518    -999.2500       2.3200    -999.2500    -999.2500
   2600.3008   2446.1736  -2422.1736     119.7767    -999.0000     109.7866    -999.2500       0.6338    -999.2500       2.3200    -999.2500    -999.2500
   2600.4258   2446.2986  -2422.2986     119.9720    -999.0000     109.7752    -999.2500       0.6265    -999.2500       2.3232    -999.2500    -999.2500
   2600.5508   2446.4236  -2422.4236     120.2608    -999.0000     109.7506    -999.2500       0.6226    -999.2500       2.3396    -999.2500    -999.2500
   2600.6758   2446.5486  -2422.5486     120.5596    -999.0000     109.7420    -999.2500       0.6149    -999.2500       2.3400    -999.2500    -999.2500
   2600.8008   2446.6736  -2422.6736     120.6575    -999.0000     112.0842    -999.2500       0.6079    -999.2500       2.3524    -999.2500    -999.2500
   2600.9258   2446.7983  -2422.7983     120.4775    -999.0000     115.1819    -999.2500       0.6079    -999.2500       2.3600    -999.2500    -999.2500
   2601.0508   2446.9233  -2422.9233     120.0310    -999.0000     119.2737    -999.2500       0.6106    -999.2500       2.3574    -999.2500    -999.2500
   2601.1758   2447.0483  -2423.0483     119.3995    -999.0000     125.1581    -999.2500       0.6084    -999.2500       2.3525    -999.2500    -999.2500
   2601.3008   2447.1733  -2423.1733     118.7057    -999.0000     128.2514    -999.2500       0.6236    -999.2500       2.3771    -999.2500    -999.2500
   2601.4258   2447.2983  -2423.2983     117.9082    -999.0000     128.3815    -999.2500       0.6370    -999.2500       2.4234    -999.2500    -999.2500
   2601.5508   2447.4233  -2423.4233     117.0359    -999.0000     128.1107    -999.2500       0.6365    -999.2500       2.4074    -999.2500    -999.2500
   2601.6758   2447.5483  -2423.5483     116.2358    -999.0000     127.7163    -999.2500       0.6402    -999.2500       2.3655    -999.2500    -999.2500
   2601.8008   2447.6733  -2423.6733     115.6648    -999.0000     127.2293    -999.2500       0.6557    -999.2500       2.3400    -999.2500    -999.2500
   2601.9258   2447.7983  -2423.7983     115.4380    -999.0000     126.9600    -999.2500       0.6633    -999.2500       2.3400    -999.2500    -999.2500
   2602.0508   2447.9233  -2423.9233     115.4808    -999.0000     126.3587    -999.2500       0.6641    -999.2500       2.3235    -999.2500    -999.2500
   2602.1758   2448.0481  -2424.0481     115.4713    -999.0000     128.9036    -999.2500       0.6557    -999.2500       2.3071    -999.2500    -999.2500
   2602.3008   2448.1731  -2424.1731     115.3035    -999.0000     131.4675    -999.2500       0.6584    -999.2500       2.3325    -999.2500    -999.2500
   2602.4258   2448.2981  -2424.2981     114.9919    -999.0000     127.1066    -999.2500       0.6593    -999.2500       2.3558    -999.2500    -999.2500
   2602.5508   2448.4231  -2424.4231     114.6327    -999.0000     113.9256    -999.2500       0.6432    -999.2500       2.3294    -999.2500    -999.2500
   2602.6758   2448.5481  -2424.5481     114.3747    -999.0000     121.1379    -999.2500       0.6695    -999.2500       2.4032    -999.2500    -999.2500
   2602.8008   2448.6731  -2424.6731     114.2116    -999.0000     123.0668    -999.2500       0.6748    -999.2500       2.4025    -999.2500    -999.2500
   2602.9258   2448.7981  -2424.7981     114.0820    -999.0000     120.5979    -999.2500       0.6528    -999.2500       2.3491    -999.2500    -999.2500
   2603.0508   2448.9231  -2424.9231     114.0418    -999.0000     122.3340    -999.2500       0.6403    -999.2500       2.3216    -999.2500    -999.2500
   2603.1758   2449.0481  -2425.0481     114.1826    -999.0000     128.6500    -999.2500       0.6466    -999.2500       2.3441    -999.2500    -999.2500
   2603.3008   2449.1731  -2425.1731     114.6064    -999.0000     128.6500    -999.2500       0.6387    -999.2500       2.3585    -999.2500    -999.2500
   2603.4258   2449.2979  -2425.2979     115.2907    -999.0000     128.6500    -999.2500       0.6268    -999.2500       2.3092    -999.2500    -999.2500
   2603.5508   2449.4229  -2425.4229     115.9997    -999.0000     125.2033    -999.2500       0.6391    -999.2500       2.3267    -999.2500    -999.2500
   2603.6758   2449.5479  -2425.5479     116.5833    -999.0000     125.9987    -999.2500       0.6432    -999.2500       2.3351    -999.2500    -999.2500
   2603.8008   2449.6729  -2425.6729     116.9454    -999.0000     126.0111    -999.2500       0.6446    -999.2500       2.3269    -999.2500    -999.2500
   2603.9258   2449.7979  -2425.7979     117.0431    -999.0000     120.0613    -999.2500       0.6556    -999.2500       2.3213    -999.2500    -999.2500
   2604.0508   2449.9229  -2425.9229     116.8946    -999.0000     120.0695    -999.2500       0.6575    -999.2500       2.3295    -999.2500    -999.2500
   2604.1758   2450.0479  -2426.0479     116.6140    -999.0000     122.7106    -999.2500       0.6651    -999.2500       2.3377    -999.2500    -999.2500
   2604.3008   2450.1729  -2426.1729     116.3144    -999.0000     123.0101    -999.2500       0.6552    -999.2500       2.3341    -999.2500    -999.2500
   2604.4258   2450.2976  -2426.2976     116.0386    -999.0000     127.1929    -999.2500       0.6492    -999.2500       2.3300    -999.2500    -999.2500
   2604.5508   2450.4226  -2426.4226     115.8161    -999.0000     131.0415    -999.2500       0.6541    -999.2500       2.3277    -999.2500    -999.2500
   2604.6758   2450.5476  -2426.5476     115.6611    -999.0000     121.5329    -999.2500       0.6571    -999.2500       2.3214    -999.2500    -999.2500
   2604.8008   2450.6726  -2426.6726     115.5429    -999.0000     117.3154    -999.2500       0.6409    -999.2500       2.3461    -999.2500    -999.2500
   2604.9258   2450.7976  -2426.7976     115.4592    -999.0000     107.1648    -999.2500       0.6592    -999.2500       2.3362    -999.2500    -999.2500
   2605.0508   2450.9226  -2426.9226     115.4356    -999.0000     102.8900    -999.2500       0.6655    -999.2500       2.3249    -999.2500    -999.2500
   2605.1758   2451.0476  -2427.0476     115.4618    -999.0000     105.7153    -999.2500       0.6643    -999.2500       2.3233    -999.2500    -999.2500
   2605.3008   2451.1726  -2427.1726     115.5107    -999.0000     113.7926    -999.2500       0.6655    -999.2500       2.3330    -999.2500    -999.2500
   2605.4258   2451.2974  -2427.2974     115.5476    -999.0000     126.4696    -999.2500       0.6521    -999.2500       2.3494    -999.2500    -999.2500
   2605.5508   2451.4224  -2427.4224     115.5490    -999.0000     128.2673    -999.2500       0.6434    -999.2500       2.3421    -999.2500    -999.2500
   2605.6758   2451.5474  -2427.5474     115.5612    -999.0000     123.3996    -999.2500       0.6391    -999.2500       2.3400    -999.2500    -999.2500
   2605.8008   2451.6724  -2427.6724     115.6482    -999.0000     118.0471    -999.2500       0.6383    -999.2500       2.3443    -999.2500    -999.2500
   2605.9258   2451.7974  -2427.7974     115.8315    -999.0000     119.9725    -999.2500       0.6332    -999.2500       2.3475    -999.2500    -999.2500
