#------------------------------------------------------------------------------
#
#   Created by  : [OpenWorks] Log Export Utility (LEXP)
#   Created on  : 2007-05-07 11:58:04
#   Project     : NORNE
#   User        : JSE
#   Interpreter : JSE
#
#------------------------------------------------------------------------------
~VERSION INFORMATION
VERS. 2.0 : CWLS Log ASCII Standard - version 2.0
WRAP.  NO : One line per depth step
~WELL INFORMATION
#MNEMONIC   .UNIT                                           VALUE :DESCRIPTION
#------------------------------------------------------------------------------
STRT        .M                                           461.1250 :START DEPTH
STOP        .M                                          3010.0000 :STOP DEPTH
STEP        .M                                             0.1250 :STEP
NULL        .                                           -999.2500 :NULL VALUE
COMP        .                                             STATOIL :COMPANY
WELL        .                                       6608/10-E-3 H :WELL
FLD         .                                               NORNE :FIELD
LOC         .                                             UNKNOWN :LOCATION
CNTY        .                                             UNKNOWN :COUNTY
STAT        .                                             UNKNOWN :STATE
CTRY        .                                              Norway :COUNTRY
SRVC        .                                             UNKNOWN :SERVICE COMPANY
DATE        .                                             UNKNOWN :LOG DATE
UWI         .                                    NO 6608/10-E-3 H :UNIQUE WELL ID
XCOORD      .                                       459189.815835 :SURFACE X
YCOORD      .                                      7325451.234448 :SURFACE Y
LAT         .                                           66.045417 :LATITUDE
LON         .                                            8.099250 :LONGITUDE
ELEV        .M                                            22.0000 :SURFACE ELEV
ELEV_TYPE   .                                                  KB :ELEV TYPE
~CURVE INFORMATION
#MNEMONIC.UNIT        API CODE       : CURVE DESCRIPTION
#------------------------------------------------------------------------------
DEPTH    .M                          : Measured Depth
TVD      .M                          : True Vertical Depth (TVD)
TVDSS    .M                          : True Vertical Depth (TVDSS)
DT       .us/ft       UNKNOWN        : DT:DT:rC:NONE:v1 
DTS      .us/ft       UNKNOWN        : DTS:DTS:rC:NONE:v1 
GR       .API         UNKNOWN        : GR:GR:rC:NONE:v1 
KLOGH    .mD          UNKNOWN        : KLOGH:UNKNOWN:rC::v0 (auto-composite)
NPHI     .v/v_decimal UNKNOWN        : NPHI:NPHI:rC:NONE:v1 
PHIF     .v/v_decimal UNKNOWN        : PHIF:UNKNOWN:rC::v0 (auto-composite)
RHOB     .g/cm3       UNKNOWN        : RHOB:RHOB:rC:NONE:v1 
SW       .v/v_decimal UNKNOWN        : SW:UNKNOWN:rC::v0 (auto-composite)
VSH      .v/v_decimal UNKNOWN        : VSH:UNKNOWN:rC::v0 (auto-composite)
~A     DEPTH         TVD       TVDSS           DT          DTS           GR        KLOGH         NPHI         PHIF         RHOB           SW          VSH
# ...
   2443.6250   2366.6062  -2344.6062     118.0558    -999.2500      82.2568    -999.2500       0.3056    -999.2500       2.3179    -999.2500    -999.2500
   2443.7500   2366.7263  -2344.7263     118.6244    -999.2500      83.4279    -999.2500       0.3052    -999.2500       2.3100    -999.2500    -999.2500
   2443.8750   2366.8464  -2344.8464     119.1470    -999.2500      84.0728    -999.2500       0.3220    -999.2500       2.3100    -999.2500    -999.2500
   2444.0000   2366.9666  -2344.9666     119.5855    -999.2500      81.2831    -999.2500       0.3183    -999.2500       2.3219    -999.2500    -999.2500
   2444.1250   2367.0867  -2345.0867     120.0449    -999.2500      81.1417    -999.2500       0.3238    -999.2500       2.3475    -999.2500    -999.2500
   2444.2500   2367.2065  -2345.2065     120.5087    -999.2500      81.5558    -999.2500       0.3274    -999.2500       2.3520    -999.2500    -999.2500
   2444.3750   2367.3267  -2345.3267     120.8572    -999.2500      80.8789    -999.2500       0.3230    -999.2500       2.3285    -999.2500    -999.2500
   2444.5000   2367.4468  -2345.4468     120.8677    -999.2500      79.6757    -999.2500       0.3184    -999.2500       2.3109    -999.2500    -999.2500
   2444.6250   2367.5669  -2345.5669     120.1850    -999.2500      80.4347    -999.2500       0.3132    -999.2500       2.3085    -999.2500    -999.2500
   2444.7500   2367.6870  -2345.6870     119.1310    -999.2500      80.0490    -999.2500       0.3194    -999.2500       2.3220    -999.2500    -999.2500
   2444.8750   2367.8071  -2345.8071     118.0887    -999.2500      77.4081    -999.2500       0.3232    -999.2500       2.3232    -999.2500    -999.2500
   2445.0000   2367.9272  -2345.9272     117.2851    -999.2500      77.4045    -999.2500       0.3219    -999.2500       2.3176    -999.2500    -999.2500
   2445.1250   2368.0471  -2346.0471     116.8237    -999.2500      83.1754    -999.2500       0.3179    -999.2500       2.3191    -999.2500    -999.2500
   2445.2500   2368.1672  -2346.1672     116.6530    -999.2500      84.0590    -999.2500       0.3136    -999.2500       2.3199    -999.2500    -999.2500
   2445.3750   2368.2874  -2346.2874     116.5115    -999.2500      76.9195    -999.2500       0.3056    -999.2500       2.3200    -999.2500    -999.2500
   2445.5000   2368.4075  -2346.4075     116.3469    -999.2500      78.3222    -999.2500       0.3040    -999.2500       2.3265    -999.2500    -999.2500
   2445.6250   2368.5276  -2346.5276     116.2236    -999.2500      85.6607    -999.2500       0.3029    -999.2500       2.3351    -999.2500    -999.2500
   2445.7500   2368.6477  -2346.6477     116.1818    -999.2500      90.1324    -999.2500       0.3006    -999.2500       2.3403    -999.2500    -999.2500
   2445.8750   2368.7676  -2346.7676     116.2190    -999.2500      81.9887    -999.2500       0.3017    -999.2500       2.3380    -999.2500    -999.2500
   2446.0000   2368.8877  -2346.8877     116.2871    -999.2500      87.8890    -999.2500       0.3236    -999.2500       2.3389    -999.2500    -999.2500
   2446.1250   2369.0078  -2347.0078     116.3207    -999.2500      83.9365    -999.2500       0.3374    -999.2500       2.3411    -999.2500    -999.2500
   2446.2500   2369.1279  -2347.1279     116.3203    -999.2500      80.1609    -999.2500       0.3278    -999.2500       2.3410    -999.2500    -999.2500
   2446.3750   2369.2480  -2347.2480     116.3057    -999.2500      79.4951    -999.2500       0.3132    -999.2500       2.3357    -999.2500    -999.2500
   2446.5000   2369.3682  -2347.3682     116.3113    -999.2500      81.2473    -999.2500       0.3103    -999.2500       2.3238    -999.2500    -999.2500
   2446.6250   2369.4880  -2347.4880     116.3901    -999.2500      81.4746    -999.2500       0.3054    -999.2500       2.3066    -999.2500    -999.2500
   2446.7500   2369.6082  -2347.6082     116.5629    -999.2500      81.4743    -999.2500       0.3001    -999.2500       2.2823    -999.2500    -999.2500
   2446.8750   2369.7283  -2347.7283     116.7513    -999.2500      82.2029    -999.2500       0.3001    -999.2500       2.3212    -999.2500    -999.2500
   2447.0000   2369.8484  -2347.8484     116.8980    -999.2500      82.7503    -999.2500       0.2991    -999.2500       2.3366    -999.2500    -999.2500
   2447.1250   2369.9685  -2347.9685     116.9703    -999.2500      82.0445    -999.2500       0.2999    -999.2500       2.3160    -999.2500    -999.2500
   2447.2500   2370.0886  -2348.0886     116.9717    -999.2500      79.8115    -999.2500       0.3114    -999.2500       2.3083    -999.2500    -999.2500
   2447.3750   2370.2087  -2348.2087     117.0152    -999.2500      82.2263    -999.2500       0.3245    -999.2500       2.3230    -999.2500    -999.2500
   2447.5000   2370.3286  -2348.3286     117.2242    -999.2500      82.5584    -999.2500       0.3042    -999.2500       2.3236    -999.2500    -999.2500
   2447.6250   2370.4487  -2348.4487     117.5478    -999.2500      77.2398    -999.2500       0.2869    -999.2500       2.3267    -999.2500    -999.2500
   2447.7500   2370.5688  -2348.5688     117.8810    -999.2500      77.0379    -999.2500       0.2879    -999.2500       2.3384    -999.2500    -999.2500
   2447.8750   2370.6890  -2348.6890     118.1049    -999.2500      84.7637    -999.2500       0.2994    -999.2500       2.3504    -999.2500    -999.2500
   2448.0000   2370.8091  -2348.8091     118.1140    -999.2500      82.2450    -999.2500       0.2807    -999.2500       2.3330    -999.2500    -999.2500
   2448.1250   2370.9292  -2348.9292     117.8998    -999.2500      82.2296    -999.2500       0.2884    -999.2500       2.3200    -999.2500    -999.2500
   2448.2500   2371.0491  -2349.0491     117.6524    -999.2500      81.6784    -999.2500       0.3063    -999.2500       2.3126    -999.2500    -999.2500
   2448.3750   2371.1692  -2349.1692     117.4475    -999.2500      80.9829    -999.2500       0.3212    -999.2500       2.3213    -999.2500    -999.2500
   2448.5000   2371.2893  -2349.2893     117.3019    -999.2500      80.7431    -999.2500       0.3262    -999.2500       2.3391    -999.2500    -999.2500
   2448.6250   2371.4094  -2349.4094     117.1866    -999.2500      80.9523    -999.2500       0.3197    -999.2500       2.3480    -999.2500    -999.2500
   2448.7500   2371.5295  -2349.5295     117.0413    -999.2500      77.6801    -999.2500       0.3042    -999.2500       2.3308    -999.2500    -999.2500
   2448.8750   2371.6497  -2349.6497     116.8531    -999.2500      81.0555    -999.2500       0.3076    -999.2500       2.3224    -999.2500    -999.2500
   2449.0000   2371.7698  -2349.7698     116.6733    -999.2500      78.7203    -999.2500       0.3008    -999.2500       2.3200    -999.2500    -999.2500
   2449.1250   2371.8896  -2349.8896     116.5405    -999.2500      78.5090    -999.2500       0.2922    -999.2500       2.3163    -999.2500    -999.2500
   2449.2500   2372.0098  -2350.0098     116.4731    -999.2500      83.0292    -999.2500       0.2941    -999.2500       2.3137    -999.2500    -999.2500
   2449.3750   2372.1299  -2350.1299     116.4606    -999.2500      82.6097    -999.2500       0.3128    -999.2500       2.3289    -999.2500    -999.2500
   2449.5000   2372.2500  -2350.2500     116.4402    -999.2500      84.6979    -999.2500       0.3090    -999.2500       2.3232    -999.2500    -999.2500
   2449.6250   2372.3701  -2350.3701     116.3870    -999.2500      78.7641    -999.2500       0.3179    -999.2500       2.3181    -999.2500    -999.2500
   2449.7500   2372.4902  -2350.4902     116.3515    -999.2500      79.4627    -999.2500       0.3252    -999.2500       2.3255    -999.2500    -999.2500
   2449.8750   2372.6101  -2350.6101     116.3938    -999.2500      83.9224    -999.2500       0.3274    -999.2500       2.3354    -999.2500    -999.2500
   2450.0000   2372.7302  -2350.7302     116.5680    -999.2500      83.4074    -999.2500       0.3239    -999.2500       2.3335    -999.2500    -999.2500
