#------------------------------------------------------------------------------
#
#   Created by  : [OpenWorks] Log Export Utility (LEXP)
#   Created on  : 2007-05-07 11:58:15
#   Project     : NORNE
#   User        : JSE
#   Interpreter : JSE
#
#------------------------------------------------------------------------------
~VERSION INFORMATION
VERS. 2.0 : CWLS Log ASCII Standard - version 2.0
WRAP.  NO : One line per depth step
~WELL INFORMATION
#MNEMONIC   .UNIT                                           VALUE :DESCRIPTION
#------------------------------------------------------------------------------
STRT        .M                                           454.5508 :START DEPTH
STOP        .M                                          3169.8008 :STOP DEPTH
STEP        .M                                             0.1250 :STEP
NULL        .                                           -999.2500 :NULL VALUE
COMP        .                                             STATOIL :COMPANY
WELL        .                                       6608/10-F-1 H :WELL
FLD         .                                               NORNE :FIELD
LOC         .                                             UNKNOWN :LOCATION
CNTY        .                                             UNKNOWN :COUNTY
STAT        .                                             UNKNOWN :STATE
CTRY        .                                              Norway :COUNTRY
SRVC        .                                             UNKNOWN :SERVICE COMPANY
DATE        .                                             UNKNOWN :LOG DATE
UWI         .                                    NO 6608/10-F-1 H :UNIQUE WELL ID
XCOORD      .                                       459309.364262 :SURFACE X
YCOORD      .                                      7325355.161830 :SURFACE Y
LAT         .                                           66.044571 :LATITUDE
LON         .                                            8.101919 :LONGITUDE
ELEV        .M                                            24.0000 :SURFACE ELEV
ELEV_TYPE   .                                                  KB :ELEV TYPE
~CURVE INFORMATION
#MNEMONIC.UNIT        API CODE       : CURVE DESCRIPTION
#------------------------------------------------------------------------------
DEPTH    .M                          : Measured Depth
TVD      .M                          : True Vertical Depth (TVD)
TVDSS    .M                          : True Vertical Depth (TVDSS)
DT       .us/ft       UNKNOWN        : DT:UNKNOWN:rC:NONE:v1 
DTS      .us/ft       UNKNOWN        : DTS:UNKNOWN:rC:NONE:v1 
GR       .API         UNKNOWN        : GR:UNKNOWN:rC:NONE:v1 
KLOGH    .mD          UNKNOWN        : KLOGH:UNKNOWN:rC::v0 (auto-composite)
NPHI     .v/v_decimal UNKNOWN        : NPHI:SFINX:rC:NONE:v1 
PHIF     .v/v_decimal UNKNOWN        : PHIF:UNKNOWN:rC::v0 (auto-composite)
RHOB     .g/cm3       UNKNOWN        : RHOB:UNKNOWN:rC:NONE:v1 
SW       .v/v_decimal UNKNOWN        : SW:UNKNOWN:rC::v0 (auto-composite)
VSH      .v/v_decimal UNKNOWN        : VSH:UNKNOWN:rC::v0 (auto-composite)
~A     DEPTH         TVD       TVDSS           DT          DTS           GR        KLOGH         NPHI         PHIF         RHOB           SW          VSH
# ...
   3152.0508   2997.6301  -2973.6301    -999.0000    -999.0000    -999.2500       1.1076       0.2939       0.2421       2.2675       0.9963       0.0010
   3152.1758   2997.7551  -2973.7551    -999.0000    -999.0000    -999.2500       1.0320       0.2932       0.2435       2.2700       0.9938       0.0010
   3152.3008   2997.8799  -2973.8799    -999.0000    -999.0000    -999.2500       1.7499       0.2925       0.2509       2.2506       0.9561       0.0010
   3152.4258   2998.0046  -2974.0046    -999.0000    -999.0000    -999.2500       2.9126       0.2960       0.2612       2.2200       0.9048       0.0010
   3152.5508   2998.1294  -2974.1294    -999.0000    -999.0000    -999.2500       3.3285       0.3122       0.2660       2.2197       0.8885       0.0010
   3152.6758   2998.2542  -2974.2542    -999.0000    -999.0000    -999.2500       2.9713       0.3283       0.2599       2.2115       0.8901       0.0010
   3152.8008   2998.3789  -2974.3789    -999.0000    -999.0000    -999.2500       1.3613       0.3438       0.2324       2.2635       0.9444       0.0010
   3152.9258   2998.5037  -2974.5037    -999.0000    -999.0000    -999.2500       0.2114       0.3592       0.1919       2.3535       1.0000       0.0010
   3153.0508   2998.6284  -2974.6284    -999.0000    -999.0000    -999.2500       0.0162       0.3586       0.1559       2.4262       1.0000       0.0010
   3153.1758   2998.7532  -2974.7532    -999.0000    -999.0000    -999.2500       0.0105       0.3315       0.1389       2.4413       1.0000       0.0010
   3153.3008   2998.8779  -2974.8779    -999.0000    -999.0000    -999.2500       0.0093       0.3044       0.1361       2.4495       1.0000       0.0010
   3153.4258   2999.0027  -2975.0027    -999.0000    -999.0000    -999.2500       0.0138       0.2887       0.1454       2.4346       1.0000       0.0010
   3153.5508   2999.1274  -2975.1274    -999.0000    -999.0000    -999.2500       0.0351       0.2738       0.1634       2.4005       1.0000       0.0010
   3153.6758   2999.2522  -2975.2522    -999.0000    -999.0000    -999.2500       0.1058       0.2625       0.1836       2.3595       1.0000       0.0010
   3153.8008   2999.3770  -2975.3770    -999.0000    -999.0000    -999.2500       0.1840       0.2550       0.1992       2.3300       0.9937       0.0010
   3153.9258   2999.5017  -2975.5017    -999.0000    -999.0000    -999.2500       0.2176       0.2477       0.2055       2.3290       0.9706       0.0010
   3154.0508   2999.6265  -2975.6265    -999.0000    -999.0000    -999.2500       0.2608       0.2452       0.2092       2.3126       0.9414       0.0010
   3154.1758   2999.7512  -2975.7512    -999.0000    -999.0000    -999.2500       0.2656       0.2426       0.2099       2.3169       0.9278       0.0010
   3154.3008   2999.8760  -2975.8760    -999.0000    -999.0000    -999.2500       0.2658       0.2525       0.2118       2.3149       0.9171       0.0010
   3154.4258   3000.0007  -2976.0007    -999.0000    -999.0000    -999.2500       0.3529       0.2701       0.2152       2.3034       0.8869       0.0010
   3154.5508   3000.1255  -2976.1255    -999.0000    -999.0000    -999.2500       0.3992       0.2865       0.2170       2.2930       0.8691       0.0010
   3154.6758   3000.2502  -2976.2502    -999.0000    -999.0000    -999.2500       0.2786       0.2981       0.2096       2.3095       0.8940       0.0010
   3154.8008   3000.3750  -2976.3750    -999.0000    -999.0000    -999.2500       0.1237       0.3097       0.1805       2.3417       0.9525       0.0010
   3154.9258   3000.4998  -2976.4998    -999.0000    -999.0000    -999.2500       0.0199       0.3128       0.1346       2.4541       1.0000       0.0010
   3155.0508   3000.6245  -2976.6245    -999.0000    -999.0000    -999.2500       0.0009       0.3132       0.1082       2.5287       1.0000       0.0010
   3155.1758   3000.7493  -2976.7493    -999.0000    -999.0000    -999.2500       0.0158       0.3152       0.1233       2.4894       1.0000       0.0010
   3155.3008   3000.8740  -2976.8740    -999.0000    -999.0000    -999.2500       0.1077       0.3212       0.1788       2.3378       0.9632       0.0010
   3155.4258   3000.9988  -2976.9988    -999.0000    -999.0000    -999.2500       0.2961       0.3271       0.2090       2.3132       0.8891       0.0010
   3155.5508   3001.1235  -2977.1235    -999.0000    -999.0000    -999.2500       0.5343       0.3303       0.2223       2.2815       0.8477       0.0010
   3155.6758   3001.2483  -2977.2483    -999.0000    -999.0000    -999.2500       0.6052       0.3330       0.2228       2.2807       0.8441       0.0010
   3155.8008   3001.3730  -2977.3730    -999.0000    -999.0000    -999.2500       0.3505       0.3218       0.2130       2.3077       0.8994       0.0010
   3155.9258   3001.4978  -2977.4978    -999.0000    -999.0000    -999.2500       0.1486       0.2921       0.1984       2.3435       0.9705       0.0010
   3156.0508   3001.6226  -2977.6226    -999.0000    -999.0000    -999.2500       0.1055       0.2623       0.1895       2.3600       1.0000       0.0010
   3156.1758   3001.7473  -2977.7473    -999.0000    -999.0000    -999.2500       0.1013       0.2546       0.1881       2.3519       1.0000       0.0010
   3156.3008   3001.8721  -2977.8721    -999.0000    -999.0000    -999.2500       0.0872       0.2469       0.1845       2.3627       1.0000       0.0010
   3156.4258   3001.9968  -2977.9968    -999.0000    -999.0000    -999.2500       0.0686       0.2518       0.1814       2.3700       1.0000       0.0010
   3156.5508   3002.1216  -2978.1216    -999.0000    -999.0000    -999.2500       0.0686       0.2668       0.1802       2.3700       1.0000       0.0010
   3156.6758   3002.2463  -2978.2463    -999.0000    -999.0000    -999.2500       0.0733       0.2808       0.1814       2.3690       1.0000       0.0010
   3156.8008   3002.3711  -2978.3711    -999.0000    -999.0000    -999.2500       0.0804       0.2878       0.1831       2.3608       1.0000       0.0010
   3156.9258   3002.4961  -2978.4961    -999.0000    -999.0000    -999.2500       0.0757       0.2948       0.1820       2.3674       1.0000       0.0010
   3157.0508   3002.6208  -2978.6208    -999.0000    -999.0000    -999.2500       0.0710       0.2909       0.1854       2.3700       1.0000       0.0010
   3157.1758   3002.7456  -2978.7456    -999.0000    -999.0000    -999.2500       0.1775       0.2818       0.1960       2.3436       0.9851       0.0010
   3157.3008   3002.8704  -2978.8704    -999.0000    -999.0000    -999.2500       0.2986       0.2762       0.2083       2.3059       0.9739       0.0010
   3157.4258   3002.9951  -2978.9951    -999.0000    -999.0000    -999.2500       0.2453       0.2815       0.2083       2.3298       0.9936       0.0010
   3157.5508   3003.1199  -2979.1199    -999.0000    -999.0000    -999.2500       0.2268       0.2868       0.2062       2.3216       1.0000       0.0010
   3157.6758   3003.2446  -2979.2446    -999.0000    -999.0000    -999.2500       0.1939       0.2912       0.2024       2.3331       1.0000       0.0010
   3157.8008   3003.3694  -2979.3694    -999.0000    -999.0000    -999.2500       0.1538       0.2955       0.1999       2.3400       1.0000       0.0010
   3157.9258   3003.4941  -2979.4941    -999.0000    -999.0000    -999.2500       0.1685       0.2974       0.2005       2.3370       1.0000       0.0010
   3158.0508   3003.6189  -2979.6189    -999.0000    -999.0000    -999.2500       0.2090       0.2950       0.2046       2.3288       1.0000       0.0010
   3158.1758   3003.7437  -2979.7437    -999.0000    -999.0000    -999.2500       0.2600       0.2926       0.2094       2.3206       0.9988       0.0010
   3158.3008   3003.8684  -2979.8684    -999.0000    -999.0000    -999.2500       0.3192       0.2890       0.2139       2.3124       0.9902       0.0010
   3158.4258   3003.9932  -2979.9932    -999.0000    -999.0000    -999.2500       0.3763       0.2853       0.2155       2.3042       0.9754       0.0010
