#------------------------------------------------------------------------------
#
#   Created by  : [OpenWorks] Log Export Utility (LEXP)
#   Created on  : 2007-05-07 11:58:15
#   Project     : NORNE
#   User        : JSE
#   Interpreter : JSE
#
#------------------------------------------------------------------------------
~VERSION INFORMATION
VERS. 2.0 : CWLS Log ASCII Standard - version 2.0
WRAP.  NO : One line per depth step
~WELL INFORMATION
#MNEMONIC   .UNIT                                           VALUE :DESCRIPTION
#------------------------------------------------------------------------------
STRT        .M                                           454.5508 :START DEPTH
STOP        .M                                          3169.8008 :STOP DEPTH
STEP        .M                                             0.1250 :STEP
NULL        .                                           -999.2500 :NULL VALUE
COMP        .                                             STATOIL :COMPANY
WELL        .                                       6608/10-F-1 H :WELL
FLD         .                                               NORNE :FIELD
LOC         .                                             UNKNOWN :LOCATION
CNTY        .                                             UNKNOWN :COUNTY
STAT        .                                             UNKNOWN :STATE
CTRY        .                                              Norway :COUNTRY
SRVC        .                                             UNKNOWN :SERVICE COMPANY
DATE        .                                             UNKNOWN :LOG DATE
UWI         .                                    NO 6608/10-F-1 H :UNIQUE WELL ID
XCOORD      .                                       459309.364262 :SURFACE X
YCOORD      .                                      7325355.161830 :SURFACE Y
LAT         .                                           66.044571 :LATITUDE
LON         .                                            8.101919 :LONGITUDE
ELEV        .M                                            24.0000 :SURFACE ELEV
ELEV_TYPE   .                                                  KB :ELEV TYPE
~CURVE INFORMATION
#MNEMONIC.UNIT        API CODE       : CURVE DESCRIPTION
#------------------------------------------------------------------------------
DEPTH    .M                          : Measured Depth
TVD      .M                          : True Vertical Depth (TVD)
TVDSS    .M                          : True Vertical Depth (TVDSS)
DT       .us/ft       UNKNOWN        : DT:UNKNOWN:rC:NONE:v1 
DTS      .us/ft       UNKNOWN        : DTS:UNKNOWN:rC:NONE:v1 
GR       .API         UNKNOWN        : GR:UNKNOWN:rC:NONE:v1 
KLOGH    .mD          UNKNOWN        : KLOGH:UNKNOWN:rC::v0 (auto-composite)
NPHI     .v/v_decimal UNKNOWN        : NPHI:SFINX:rC:NONE:v1 
PHIF     .v/v_decimal UNKNOWN        : PHIF:UNKNOWN:rC::v0 (auto-composite)
RHOB     .g/cm3       UNKNOWN        : RHOB:UNKNOWN:rC:NONE:v1 
SW       .v/v_decimal UNKNOWN        : SW:UNKNOWN:rC::v0 (auto-composite)
VSH      .v/v_decimal UNKNOWN        : VSH:UNKNOWN:rC::v0 (auto-composite)
~A     DEPTH         TVD       TVDSS           DT          DTS           GR        KLOGH         NPHI         PHIF         RHOB           SW          VSH
# ...
   2833.5508   2679.3103  -2655.3103     101.3489     200.8112      90.3081    -999.2500       0.8925    -999.2500       3.1166    -999.2500    -999.2500
   2833.6758   2679.4353  -2655.4353     101.8320     201.3644      91.2663    -999.2500       0.8927    -999.2500       3.1170    -999.2500    -999.2500
   2833.8008   2679.5601  -2655.5601     102.4249     202.1435      92.5673    -999.2500       0.8929    -999.2500       3.1175    -999.2500    -999.2500
   2833.9258   2679.6851  -2655.6851     103.0875     203.1126      93.5700    -999.2500       0.8930    -999.2500       3.1180    -999.2500    -999.2500
   2834.0508   2679.8101  -2655.8101     103.7611     204.2178      93.1976    -999.2500       0.8932    -999.2500       3.1185    -999.2500    -999.2500
   2834.1758   2679.9351  -2655.9351     104.3591     205.3688      90.9001    -999.2500       0.8933    -999.2500       3.1190    -999.2500    -999.2500
   2834.3008   2680.0598  -2656.0598     104.7878     206.3698      89.6863    -999.2500       0.8935    -999.2500       3.1195    -999.2500    -999.2500
   2834.4258   2680.1848  -2656.1848     105.0469     207.1151      87.7053    -999.2500       0.8937    -999.2500       3.1200    -999.2500    -999.2500
   2834.5508   2680.3098  -2656.3098     105.1450     207.5217      85.9898    -999.2500       0.8938    -999.2500       3.1205    -999.2500    -999.2500
   2834.6758   2680.4348  -2656.4348     105.0939     207.5265      84.5149    -999.2500       0.8940    -999.2500       3.1210    -999.2500    -999.2500
   2834.8008   2680.5598  -2656.5598     104.9037     207.0914      82.3700    -999.2500       0.8941    -999.2500       3.1215    -999.2500    -999.2500
   2834.9258   2680.6846  -2656.6846     104.5490     206.1608      82.3700    -999.2500       0.8943    -999.2500       3.1220    -999.2500    -999.2500
   2835.0508   2680.8096  -2656.8096     104.0867     204.9639      83.8375    -999.2500       0.8945    -999.2500       3.1225    -999.2500    -999.2500
   2835.1758   2680.9346  -2656.9346     103.5793     203.7057      85.0218    -999.2500       0.8946    -999.2500       3.1230    -999.2500    -999.2500
   2835.3008   2681.0596  -2657.0596     103.0553     202.4946      86.2390    -999.2500       0.8948    -999.2500       3.1235    -999.2500    -999.2500
   2835.4258   2681.1846  -2657.1846     102.5082     201.3882      87.9680    -999.2500       0.8949    -999.2500       3.1240    -999.2500    -999.2500
   2835.5508   2681.3093  -2657.3093     101.8716     200.3912      89.6993    -999.2500       0.8951    -999.2500       3.1245    -999.2500    -999.2500
   2835.6758   2681.4343  -2657.4343     101.0040     199.4691      90.5943    -999.2500       0.8953    -999.2500       3.1249    -999.2500    -999.2500
   2835.8008   2681.5593  -2657.5593      99.9750     198.6296      90.8964    -999.2500       0.8954    -999.2500       3.1254    -999.2500    -999.2500
   2835.9258   2681.6843  -2657.6843      98.8777     197.9271      91.0068    -999.2500       0.8956    -999.2500       3.1259    -999.2500    -999.2500
   2836.0508   2681.8093  -2657.8093      97.8118     197.4288      91.1518    -999.2500       0.8958    -999.2500       3.1264    -999.2500    -999.2500
   2836.1758   2681.9341  -2657.9341      96.8751     197.1936      91.3708    -999.2500       0.8959    -999.2500       3.1269    -999.2500    -999.2500
   2836.3008   2682.0591  -2658.0591      96.2039     197.2428      91.4856    -999.2500       0.8961    -999.2500       3.1274    -999.2500    -999.2500
   2836.4258   2682.1841  -2658.1841      95.9369     197.5039      91.6938    -999.2500       0.8962    -999.2500       3.1279    -999.2500    -999.2500
   2836.5508   2682.3091  -2658.3091      96.1536     197.9685      91.8453    -999.2500       0.8964    -999.2500       3.1284    -999.2500    -999.2500
   2836.6758   2682.4338  -2658.4338      96.8820     198.6331      92.0065    -999.2500       0.8966    -999.2500       3.1289    -999.2500    -999.2500
   2836.8008   2682.5588  -2658.5588      98.0564     199.4783      92.1800    -999.2500       0.8967    -999.2500       3.1294    -999.2500    -999.2500
   2836.9258   2682.6838  -2658.6838      99.5010     200.4690      92.1800    -999.2500       0.8969    -999.2500       3.1299    -999.2500    -999.2500
   2837.0508   2682.8088  -2658.8088     100.8456     201.3772      72.7473    -999.2500       0.8970    -999.2500       3.1304    -999.2500    -999.2500
   2837.1758   2682.9338  -2658.9338     101.8956     201.9597      68.4500    -999.2500       0.8972    -999.2500       3.1309    -999.2500    -999.2500
   2837.3008   2683.0586  -2659.0586     102.5868     202.1005      69.1939    -999.2500       0.8974    -999.2500       3.1314    -999.2500    -999.2500
   2837.4258   2683.1836  -2659.1836     102.9031     201.7946      70.2959    -999.2500       0.8975    -999.2500       3.1319    -999.2500    -999.2500
   2837.5508   2683.3086  -2659.3086     102.8686     201.1221      71.0420    -999.2500       0.8977    -999.2500       3.1324    -999.2500    -999.2500
   2837.6758   2683.4336  -2659.4336     102.5182     200.2064      72.3794    -999.2500       0.8978    -999.2500       3.1329    -999.2500    -999.2500
   2837.8008   2683.5586  -2659.5586     101.9406     199.1826      73.1097    -999.2500       0.8980    -999.2500       3.1333    -999.2500    -999.2500
   2837.9258   2683.6833  -2659.6833     101.2648     198.1011      74.2328    -999.2500       0.8982    -999.2500       3.1338    -999.2500    -999.2500
   2838.0508   2683.8083  -2659.8083     100.5750     196.9962      75.2576    -999.2500       0.8983    -999.2500       3.1343    -999.2500    -999.2500
   2838.1758   2683.9333  -2659.9333      99.9452     195.9409      76.0865    -999.2500       0.8985    -999.2500       3.1348    -999.2500    -999.2500
   2838.3008   2684.0583  -2660.0583      99.4354     195.0553      77.4069    -999.2500       0.8987    -999.2500       3.1353    -999.2500    -999.2500
   2838.4258   2684.1833  -2660.1833      99.1359     194.4777      78.0715    -999.2500       0.8988    -999.2500       3.1358    -999.2500    -999.2500
   2838.5508   2684.3081  -2660.3081      99.0151     194.0874      78.3322    -999.2500       0.8990    -999.2500       3.1363    -999.2500    -999.2500
   2838.6758   2684.4331  -2660.4331      99.0216     193.8070      78.5875    -999.2500       0.8991    -999.2500       3.1368    -999.2500    -999.2500
   2838.8008   2684.5581  -2660.5581      99.1135     193.6279      78.8503    -999.2500       0.8993    -999.2500       3.1373    -999.2500    -999.2500
   2838.9258   2684.6831  -2660.6831      99.2562     193.5810      79.0387    -999.2500       0.8995    -999.2500       3.1378    -999.2500    -999.2500
   2839.0508   2684.8079  -2660.8079      99.4326     193.7492      79.3669    -999.2500       0.8996    -999.2500       3.1383    -999.2500    -999.2500
   2839.1758   2684.9329  -2660.9329      99.5724     194.0005      79.5426    -999.2500       0.8998    -999.2500       3.1388    -999.2500    -999.2500
   2839.3008   2685.0579  -2661.0579      99.6371     194.0756      79.1881    -999.2500       0.8999    -999.2500       3.1393    -999.2500    -999.2500
   2839.4258   2685.1829  -2661.1829      99.6276     193.8857      78.6225    -999.2500       0.9001    -999.2500       3.1398    -999.2500    -999.2500
   2839.5508   2685.3079  -2661.3079      99.5623     193.4781      77.9048    -999.2500       0.9003    -999.2500       3.1403    -999.2500    -999.2500
   2839.6758   2685.4326  -2661.4326      99.4718     193.0284      76.8101    -999.2500       0.9004    -999.2500       3.1408    -999.2500    -999.2500
   2839.8008   2685.5576  -2661.5576      99.3931     192.8265      76.2440    -999.2500       0.9006    -999.2500       3.1412    -999.2500    -999.2500
   2839.9258   2685.6826  -2661.6826      99.3690     192.8019      75.6854    -999.2500       0.9007    -999.2500       3.1417    -999.2500    -999.2500
