#------------------------------------------------------------------------------
#
#   Created by  : [OpenWorks] Log Export Utility (LEXP)
#   Created on  : 2007-05-07 11:57:13
#   Project     : NORNE
#   User        : JSE
#   Interpreter : JSE
#
#------------------------------------------------------------------------------
~VERSION INFORMATION
VERS. 2.0 : CWLS Log ASCII Standard - version 2.0
WRAP.  NO : One line per depth step
~WELL INFORMATION
#MNEMONIC   .UNIT                                           VALUE :DESCRIPTION
#------------------------------------------------------------------------------
STRT        .M                                          1325.1250 :START DEPTH
STOP        .M                                          3789.8750 :STOP DEPTH
STEP        .M                                             0.1250 :STEP
NULL        .                                           -999.2500 :NULL VALUE
COMP        .                                             STATOIL :COMPANY
WELL        .                                       6608/10-C-3 H :WELL
FLD         .                                               NORNE :FIELD
LOC         .                                             UNKNOWN :LOCATION
CNTY        .                                             UNKNOWN :COUNTY
STAT        .                                             UNKNOWN :STATE
CTRY        .                                              Norway :COUNTRY
SRVC        .                                             UNKNOWN :SERVICE COMPANY
DATE        .                                             UNKNOWN :LOG DATE
UWI         .                                    NO 6608/10-C-3 H :UNIQUE WELL ID
XCOORD      .                                       457175.596094 :SURFACE X
YCOORD      .                                      7322029.604515 :SURFACE Y
LAT         .                                           66.014460 :LATITUDE
LON         .                                            8.055937 :LONGITUDE
ELEV        .M                                            22.0000 :SURFACE ELEV
ELEV_TYPE   .                                                  KB :ELEV TYPE
~CURVE INFORMATION
#MNEMONIC.UNIT        API CODE       : CURVE DESCRIPTION
#------------------------------------------------------------------------------
DEPTH    .M                          : Measured Depth
TVD      .M                          : True Vertical Depth (TVD)
TVDSS    .M                          : True Vertical Depth (TVDSS)
DT       .us/ft       UNKNOWN        : DT:UNKNOWN:rC:NONE:v1 
DTS      .us/ft       UNKNOWN        : DTS:UNKNOWN:rC:NONE:v1 
GR       .API         UNKNOWN        : GR:UNKNOWN:rC:NONE:v1 
KLOGH    .mD          UNKNOWN        : KLOGH:UNKNOWN:rC::v0 (auto-composite)
NPHI     .v/v_decimal UNKNOWN        : NPHI:UNKNOWN:rC:NONE:v1 
PHIF     .v/v_decimal UNKNOWN        : PHIF:UNKNOWN:rC::v0 (auto-composite)
RHOB     .g/cm3       UNKNOWN        : RHOB:UNKNOWN:rC:NONE:v1 
SW       .v/v_decimal UNKNOWN        : SW:UNKNOWN:rC::v0 (auto-composite)
VSH      .v/v_decimal UNKNOWN        : VSH:UNKNOWN:rC::v0 (auto-composite)
~A     DEPTH         TVD       TVDSS           DT          DTS           GR        KLOGH         NPHI         PHIF         RHOB           SW          VSH
# ...
   3366.1250   2602.0774  -2580.0774      98.2851     169.9138      86.8605      26.7657       0.2742       0.2280       2.2927       0.6353       0.2118
   3366.2500   2602.1980  -2580.1980      98.4819     169.8182      88.6535       4.3740       0.2610       0.1917       2.3527       0.6002       0.2306
   3366.3750   2602.3184  -2580.3184      98.6283     169.8147      95.6229       1.7309       0.3428       0.1732       2.3834       0.5893       0.3038
   3366.5000   2602.4390  -2580.4390      98.7292     169.8664      90.9592       0.7839       0.2638       0.1573       2.4096       0.5965       0.2548
   3366.6250   2602.5596  -2580.5596      98.8300     169.9867      92.9225       0.6931       0.2794       0.1549       2.4137       0.6035       0.2754
   3366.7500   2602.6799  -2580.6799      98.9506     170.1465      92.8150       0.6546       0.3298       0.1537       2.4156       0.5991       0.2743
   3366.8750   2602.8005  -2580.8005      99.0930     170.3076      92.8167       1.3585       0.3485       0.1683       2.3914       0.5434       0.2743
   3367.0000   2602.9209  -2580.9209      99.2439     170.4248      94.8224       4.4826       0.3244       0.1922       2.3519       0.4864       0.2953
   3367.1250   2603.0415  -2581.0415      99.3740     170.4520      95.8730       1.7072       0.3491       0.1729       2.3840       0.5621       0.3063
   3367.2500   2603.1621  -2581.1621      99.4181     170.3891      98.5102       3.6450       0.3199       0.1881       2.3587       0.5335       0.3340
   3367.3750   2603.2825  -2581.2825      99.3892     170.2547     100.1532       7.5550       0.3011       0.2027       2.3345       0.5033       0.3513
   3367.5000   2603.4031  -2581.4031      99.2766     170.0800      95.8522       8.9262       0.2846       0.2060       2.3290       0.4896       0.3062
   3367.6250   2603.5234  -2581.5234      99.0564     169.9069      94.0526       9.4939       0.2704       0.2073       2.3270       0.4691       0.2872
   3367.7500   2603.6440  -2581.6440      98.6998     169.7536     102.7716      13.6225       0.2674       0.2145       2.3149       0.4324       0.3786
   3367.8750   2603.7646  -2581.7646      98.1689     169.4984      87.3566       1.3633       0.3047       0.1684       2.3912       0.5353       0.2170
   3368.0000   2603.8850  -2581.8850      97.5215     168.9500     101.8881       0.9665       0.3306       0.1615       2.4027       0.5429       0.3695
   3368.1250   2604.0056  -2582.0056      96.8722     168.0819     104.4398       2.9163       0.3239       0.1836       2.3661       0.4598       0.3962
   3368.2500   2604.1260  -2582.1260      96.3056     167.0225     107.6997       2.4484       0.3032       0.1801       2.3719       0.4539       0.4303
   3368.3750   2604.2466  -2582.2466      95.8905     165.9878     114.1551       0.4187       0.2868       0.1448       2.4304       0.5563       0.4982
   3368.5000   2604.3672  -2582.3672      95.6716     165.2516     101.7655       0.4295       0.2824       0.1453       2.4295       0.5574       0.3682
   3368.6250   2604.4875  -2582.4875      95.6962     165.1918     100.5323       0.0511       0.2999       0.1027       2.5001       0.8302       0.3552
   3368.7500   2604.6082  -2582.6082      95.8815     165.5152     108.4682       0.2991       0.3104       0.1380       2.4415       0.6315       0.4385
   3368.8750   2604.7285  -2582.7285      96.1772     165.9775     106.3743       1.0277       0.2810       0.1627       2.4006       0.5339       0.4166
   3369.0000   2604.8491  -2582.8491      96.5328     166.4597     101.8334       1.2785       0.2574       0.1671       2.3934       0.5124       0.3689
   3369.1250   2604.9697  -2582.9697      96.8981     166.9196     107.2995       1.2008       0.2962       0.1659       2.3954       0.5104       0.4262
   3369.2500   2605.0901  -2583.0901      97.2263     167.3676     107.1575       0.1360       0.3664       0.1222       2.4676       0.6853       0.4247
   3369.3750   2605.2107  -2583.2107      97.4696     167.8644     115.6836       0.7413       0.3163       0.1562       2.4115       0.5320       0.5142
   3369.5000   2605.3311  -2583.3311      97.6289     168.3399     107.0348       0.8766       0.2850       0.1596       2.4059       0.5179       0.4235
   3369.6250   2605.4517  -2583.4517      97.7088     168.7130     104.4012       1.0607       0.2745       0.1634       2.3996       0.5077       0.3958
   3369.7500   2605.5723  -2583.5723      97.7184     168.9307     109.9610       2.3342       0.2819       0.1792       2.3735       0.4709       0.4540
   3369.8750   2605.6926  -2583.6926      97.6683     168.9823     100.2196       2.5113       0.3117       0.1806       2.3710       0.4808       0.3520
   3370.0000   2605.8132  -2583.8132      97.5552     168.9085     105.4331       0.3924       0.3328       0.1435       2.4325       0.6121       0.4066
   3370.1250   2605.9336  -2583.9336      97.3800     168.7707     108.4801       1.6080       0.3514       0.1717       2.3858       0.5229       0.4386
   3370.2500   2606.0542  -2584.0542      97.1540     168.5635     106.1368       1.9424       0.3446       0.1755       2.3796       0.5160       0.4141
   3370.3750   2606.1748  -2584.1748      96.8909     168.2727     103.6478       1.2355       0.3050       0.1664       2.3945       0.5396       0.3879
   3370.5000   2606.2952  -2584.2952      96.6082     167.8985     105.8897       1.5728       0.2609       0.1713       2.3865       0.5166       0.4114
   3370.6250   2606.4158  -2584.4158      96.3272     167.4816     108.5646       0.8472       0.3233       0.1589       2.4070       0.5564       0.4395
   3370.7500   2606.5361  -2584.5361      96.0630     167.1539     103.1515       3.5539       0.3492       0.1876       2.3595       0.4665       0.3827
   3370.8750   2606.6570  -2584.6570      95.8303     166.9469     106.5496       1.4981       0.3597       0.1703       2.3882       0.5177       0.4183
   3371.0000   2606.7776  -2584.7776      95.6608     166.8302     113.1645       0.6979       0.3347       0.1550       2.4135       0.5780       0.4877
   3371.1250   2606.8984  -2584.8984      95.5867     166.7703     113.7597       0.8774       0.2995       0.1596       2.4059       0.5686       0.4939
   3371.2500   2607.0190  -2585.0190      95.6329     166.7428     102.1342       1.2746       0.3035       0.1671       2.3935       0.5430       0.3721
   3371.3750   2607.1396  -2585.1396      95.7984     166.7789     113.7297       1.0456       0.2471       0.1631       2.4001       0.5654       0.4937
   3371.5000   2607.2605  -2585.2605      95.9719     166.9339     107.2903       0.8578       0.2728       0.1591       2.4066       0.5872       0.4262
   3371.6250   2607.3811  -2585.3811      96.0754     167.1888     104.7239       2.5289       0.2949       0.1808       2.3708       0.5235       0.3992
   3371.7500   2607.5020  -2585.5020      96.0765     167.5101     104.8946       5.5181       0.2933       0.1964       2.3449       0.4945       0.4010
   3371.8750   2607.6226  -2585.6226      95.9734     167.8544     102.2566       3.9784       0.2775       0.1898       2.3558       0.5345       0.3733
   3372.0000   2607.7434  -2585.7434      95.7965     168.1747      94.7702      10.1892       0.2825       0.2087       2.3246       0.5023       0.2948
   3372.1250   2607.8640  -2585.8640      95.6088     168.4207     108.5827       6.7047       0.2535       0.2003       2.3385       0.5414       0.4396
   3372.2500   2607.9846  -2585.9846      95.4621     168.6040     110.1019       5.1848       0.2552       0.1951       2.3470       0.5750       0.4556
   3372.3750   2608.1055  -2586.1055      95.3769     168.7360     107.2010       2.0889       0.2557       0.1769       2.3771       0.6488       0.4252
   3372.5000   2608.2261  -2586.2261      95.3643     168.8437     103.1170       1.0265       0.2548       0.1627       2.4007       0.7169       0.3823
