#------------------------------------------------------------------------------
#
#   Created by  : [OpenWorks] Log Export Utility (LEXP)
#   Created on  : 2007-05-07 11:58:15
#   Project     : NORNE
#   User        : JSE
#   Interpreter : JSE
#
#------------------------------------------------------------------------------
~VERSION INFORMATION
VERS. 2.0 : CWLS Log ASCII Standard - version 2.0
WRAP.  NO : One line per depth step
~WELL INFORMATION
#MNEMONIC   .UNIT                                           VALUE :DESCRIPTION
#------------------------------------------------------------------------------
STRT        .M                                           454.5508 :START DEPTH
STOP        .M                                          3169.8008 :STOP DEPTH
STEP        .M                                             0.1250 :STEP
NULL        .                                           -999.2500 :NULL VALUE
COMP        .                                             STATOIL :COMPANY
WELL        .                                       6608/10-F-1 H :WELL
FLD         .                                               NORNE :FIELD
LOC         .                                             UNKNOWN :LOCATION
CNTY        .                                             UNKNOWN :COUNTY
STAT        .                                             UNKNOWN :STATE
CTRY        .                                              Norway :COUNTRY
SRVC        .                                             UNKNOWN :SERVICE COMPANY
DATE        .                                             UNKNOWN :LOG DATE
UWI         .                                    NO 6608/10-F-1 H :UNIQUE WELL ID
XCOORD      .                                       459309.364262 :SURFACE X
YCOORD      .                                      7325355.161830 :SURFACE Y
LAT         .                                           66.044571 :LATITUDE
LON         .                                            8.101919 :LONGITUDE
ELEV        .M                                            24.0000 :SURFACE ELEV
ELEV_TYPE   .                                                  KB :ELEV TYPE
~CURVE INFORMATION
#MNEMONIC.UNIT        API CODE       : CURVE DESCRIPTION
#------------------------------------------------------------------------------
DEPTH    .M                          : Measured Depth
TVD      .M                          : True Vertical Depth (TVD)
TVDSS    .M                          : True Vertical Depth (TVDSS)
DT       .us/ft       UNKNOWN        : DT:UNKNOWN:rC:NONE:v1 
DTS      .us/ft       UNKNOWN        : DTS:UNKNOWN:rC:NONE:v1 
GR       .API         UNKNOWN        : GR:UNKNOWN:rC:NONE:v1 
KLOGH    .mD          UNKNOWN        : KLOGH:UNKNOWN:rC::v0 (auto-composite)
NPHI     .v/v_decimal UNKNOWN        : NPHI:SFINX:rC:NONE:v1 
PHIF     .v/v_decimal UNKNOWN        : PHIF:UNKNOWN:rC::v0 (auto-composite)
RHOB     .g/cm3       UNKNOWN        : RHOB:UNKNOWN:rC:NONE:v1 
SW       .v/v_decimal UNKNOWN        : SW:UNKNOWN:rC::v0 (auto-composite)
VSH      .v/v_decimal UNKNOWN        : VSH:UNKNOWN:rC::v0 (auto-composite)
~A     DEPTH         TVD       TVDSS           DT          DTS           GR        KLOGH         NPHI         PHIF         RHOB           SW          VSH
# ...
   3035.0508   2880.7444  -2856.7444      85.4613     150.6171      95.8342       0.0050       0.2976       0.1211       2.4800       1.0000       0.6876
   3035.1758   2880.8694  -2856.8694      85.5467     150.9773      99.8319       0.0034       0.3137       0.1133       2.4800       1.0000       0.7555
   3035.3008   2880.9941  -2856.9941      85.6500     151.3491      99.4407       0.0028       0.3167       0.1120       2.4934       1.0000       0.7672
   3035.4258   2881.1191  -2857.1191      85.7466     151.7529      99.1833       0.0047       0.3167       0.1154       2.4754       1.0000       0.7680
   3035.5508   2881.2441  -2857.2441      85.8214     152.1669      96.4748       0.0055       0.3144       0.1165       2.4687       1.0000       0.7442
   3035.6758   2881.3691  -2857.3691      85.8673     152.5453      91.3744       0.0031       0.3081       0.1124       2.5021       1.0000       0.6970
   3035.8008   2881.4941  -2857.4941      85.8878     152.8185     100.7223       0.0046       0.3019       0.1192       2.4529       1.0000       0.7452
   3035.9258   2881.6191  -2857.6191      85.9044     152.9422      96.3326       0.0041       0.2966       0.1165       2.4809       1.0000       0.7263
   3036.0508   2881.7441  -2857.7441      85.9226     152.9610      92.8418       0.0033       0.2915       0.1170       2.4841       1.0000       0.6952
   3036.1758   2881.8689  -2857.8689      85.9266     152.8834      94.0000       0.0060       0.2922       0.1219       2.4635       0.9811       0.7036
   3036.3008   2881.9939  -2857.9939      85.8963     152.7067      97.2747       0.0073       0.2986       0.1255       2.4493       0.9723       0.7394
   3036.4258   2882.1189  -2858.1189      85.8128     152.4192      96.2432       0.0044       0.3050       0.1188       2.4800       1.0000       0.7390
   3036.5508   2882.2439  -2858.2439      85.6741     152.0007      98.1238       0.0039       0.3090       0.1170       2.4800       1.0000       0.7456
   3036.6758   2882.3689  -2858.3689      85.5183     151.5217      96.6841       0.0050       0.3130       0.1203       2.4661       1.0000       0.7307
   3036.8008   2882.4939  -2858.4939      85.3643     151.0561      93.8798       0.0054       0.3168       0.1216       2.4651       1.0000       0.6989
   3036.9258   2882.6189  -2858.6189      85.2107     150.6436      93.7771       0.0047       0.3205       0.1201       2.4700       1.0000       0.6946
   3037.0508   2882.7437  -2858.7437      85.0479     150.3071      97.2685       0.0041       0.3201       0.1170       2.4731       1.0000       0.7315
   3037.1758   2882.8687  -2858.8687      84.8624     150.0544      96.5795       0.0034       0.3018       0.1133       2.4895       1.0000       0.7245
   3037.3008   2882.9937  -2858.9937      84.6749     149.9190      93.0288       0.0049       0.2835       0.1219       2.4741       1.0000       0.6313
   3037.4258   2883.1187  -2859.1187      84.5234     149.8786      71.1555       0.0114       0.2703       0.1370       2.4392       0.9794       0.4114
   3037.5508   2883.2437  -2859.2437      84.4109     149.9158      61.2225       0.0215       0.2588       0.1500       2.4113       0.9335       0.3073
   3037.6758   2883.3687  -2859.3687      84.3141     149.9995      66.4279       0.0253       0.2526       0.1551       2.4025       0.9177       0.3475
   3037.8008   2883.4937  -2859.4937      84.1919     150.0895      70.1857       0.0191       0.2582       0.1495       2.4130       0.9574       0.4020
   3037.9258   2883.6184  -2859.6184      83.9994     150.1378      76.1410       0.0092       0.2638       0.1310       2.4458       1.0000       0.4765
   3038.0508   2883.7434  -2859.7434      83.7615     150.1275      83.2180       0.0029       0.2773       0.1104       2.5001       1.0000       0.5479
   3038.1758   2883.8684  -2859.8684      83.5245     150.0528      84.1904       0.0017       0.2920       0.1013       2.5093       1.0000       0.5670
   3038.3008   2883.9934  -2859.9934      83.3051     149.8907      85.5157       0.0021       0.3033       0.1006       2.5000       1.0000       0.5986
   3038.4258   2884.1184  -2860.1184      83.1075     149.6223      92.6509       0.0021       0.3103       0.1022       2.5000       1.0000       0.6886
   3038.5508   2884.2434  -2860.2434      82.9250     149.2400     103.7060       0.0021       0.3173       0.1022       2.5000       1.0000       0.8032
   3038.6758   2884.3682  -2860.3682      82.7811     148.8009     107.1910       0.0022       0.3312       0.1032       2.5000       1.0000       0.8554
   3038.8008   2884.4932  -2860.4932      82.7158     148.4192     106.8659       0.0025       0.3336       0.1047       2.4936       1.0000       0.8555
   3038.9258   2884.6182  -2860.6182      82.7566     148.1425     101.6153       0.0025       0.3327       0.1039       2.4946       1.0000       0.7979
   3039.0508   2884.7432  -2860.7432      82.9095     147.9920      95.9773       0.0019       0.3278       0.1009       2.5028       1.0000       0.7265
   3039.1758   2884.8682  -2860.8682      83.1631     147.9671      94.2775       0.0017       0.3152       0.0964       2.5100       1.0000       0.6884
   3039.3008   2884.9932  -2860.9932      83.4940     148.0589      83.7897       0.0012       0.3027       0.0874       2.5100       1.0000       0.6121
   3039.4258   2885.1182  -2861.1182      83.8639     148.2364      85.6986       0.0005       0.2985       0.0772       2.5691       1.0000       0.6194
   3039.5508   2885.2429  -2861.2429      84.2336     148.4677      92.5619       0.0014       0.2952       0.0887       2.5342       1.0000       0.6911
   3039.6758   2885.3679  -2861.3679      84.5708     148.7268     100.7562       0.0045       0.2944       0.1103       2.4749       0.9890       0.7831
   3039.8008   2885.4929  -2861.4929      84.8508     148.9892     106.3071       0.0072       0.2965       0.1276       2.4500       0.9658       0.8412
   3039.9258   2885.6179  -2861.6179      85.0612     149.2344     104.6387       0.0081       0.2988       0.1323       2.4498       0.9493       0.8132
   3040.0508   2885.7429  -2861.7429      85.1991     149.4231      95.0264       0.0098       0.3081       0.1367       2.4416       0.9270       0.7249
   3040.1758   2885.8679  -2861.8679      85.3105     149.5716      90.0735       0.0131       0.3173       0.1422       2.4268       0.8933       0.6560
   3040.3008   2885.9929  -2861.9929      85.4170     149.7030      85.6883       0.0157       0.3164       0.1463       2.4200       0.8730       0.5954
   3040.4258   2886.1177  -2862.1177      85.5227     149.8336      82.9855       0.0170       0.3083       0.1487       2.4170       0.8666       0.5590
   3040.5508   2886.2427  -2862.2427      85.6226     149.9722      83.2726       0.0182       0.3023       0.1495       2.4112       0.8606       0.5596
   3040.6758   2886.3677  -2862.3677      85.7078     150.1147      79.9109       0.0150       0.3088       0.1454       2.4194       0.8870       0.5557
   3040.8008   2886.4927  -2862.4927      85.7772     150.2202      87.1036       0.0105       0.3152       0.1395       2.4428       0.9311       0.6098
   3040.9258   2886.6177  -2862.6177      85.8389     150.2558      90.6972       0.0104       0.3230       0.1396       2.4384       0.9369       0.6509
   3041.0508   2886.7427  -2862.7427      85.8919     150.2097      91.0924       0.0139       0.3312       0.1427       2.4260       0.9038       0.6643
   3041.1758   2886.8677  -2862.8677      85.9322     150.0805      90.6299       0.0148       0.3377       0.1449       2.4222       0.9018       0.6632
   3041.3008   2886.9924  -2862.9924      85.9530     149.8737      91.8677       0.0133       0.3394       0.1436       2.4300       0.9209       0.6805
   3041.4258   2887.1174  -2863.1174      85.9333     149.5529      95.4451       0.0149       0.3411       0.1468       2.4300       0.9181       0.6929
