#------------------------------------------------------------------------------
#
#   Created by  : [OpenWorks] Log Export Utility (LEXP)
#   Created on  : 2007-05-07 11:57:13
#   Project     : NORNE
#   User        : JSE
#   Interpreter : JSE
#
#------------------------------------------------------------------------------
~VERSION INFORMATION
VERS. 2.0 : CWLS Log ASCII Standard - version 2.0
WRAP.  NO : One line per depth step
~WELL INFORMATION
#MNEMONIC   .UNIT                                           VALUE :DESCRIPTION
#------------------------------------------------------------------------------
STRT        .M                                          1325.1250 :START DEPTH
STOP        .M                                          3789.8750 :STOP DEPTH
STEP        .M                                             0.1250 :STEP
NULL        .                                           -999.2500 :NULL VALUE
COMP        .                                             STATOIL :COMPANY
WELL        .                                       6608/10-C-3 H :WELL
FLD         .                                               NORNE :FIELD
LOC         .                                             UNKNOWN :LOCATION
CNTY        .                                             UNKNOWN :COUNTY
STAT        .                                             UNKNOWN :STATE
CTRY        .                                              Norway :COUNTRY
SRVC        .                                             UNKNOWN :SERVICE COMPANY
DATE        .                                             UNKNOWN :LOG DATE
UWI         .                                    NO 6608/10-C-3 H :UNIQUE WELL ID
XCOORD      .                                       457175.596094 :SURFACE X
YCOORD      .                                      7322029.604515 :SURFACE Y
LAT         .                                           66.014460 :LATITUDE
LON         .                                            8.055937 :LONGITUDE
ELEV        .M                                            22.0000 :SURFACE ELEV
ELEV_TYPE   .                                                  KB :ELEV TYPE
~CURVE INFORMATION
#MNEMONIC.UNIT        API CODE       : CURVE DESCRIPTION
#------------------------------------------------------------------------------
DEPTH    .M                          : Measured Depth
TVD      .M                          : True Vertical Depth (TVD)
TVDSS    .M                          : True Vertical Depth (TVDSS)
DT       .us/ft       UNKNOWN        : DT:UNKNOWN:rC:NONE:v1 
DTS      .us/ft       UNKNOWN        : DTS:UNKNOWN:rC:NONE:v1 
GR       .API         UNKNOWN        : GR:UNKNOWN:rC:NONE:v1 
KLOGH    .mD          UNKNOWN        : KLOGH:UNKNOWN:rC::v0 (auto-composite)
NPHI     .v/v_decimal UNKNOWN        : NPHI:UNKNOWN:rC:NONE:v1 
PHIF     .v/v_decimal UNKNOWN        : PHIF:UNKNOWN:rC::v0 (auto-composite)
RHOB     .g/cm3       UNKNOWN        : RHOB:UNKNOWN:rC:NONE:v1 
SW       .v/v_decimal UNKNOWN        : SW:UNKNOWN:rC::v0 (auto-composite)
VSH      .v/v_decimal UNKNOWN        : VSH:UNKNOWN:rC::v0 (auto-composite)
~A     DEPTH         TVD       TVDSS           DT          DTS           GR        KLOGH         NPHI         PHIF         RHOB           SW          VSH
# ...
   3775.6250   3001.9377  -2979.9377    -999.2500    -999.2500    -999.2500       0.0000       0.3037       0.0010       2.7595       1.0000       0.0010
   3775.7500   3002.0613  -2980.0613    -999.2500    -999.2500    -999.2500       0.0000       0.3159       0.0010       2.8535       1.0000       0.0010
   3775.8750   3002.1848  -2980.1848    -999.2500    -999.2500    -999.2500       0.0002       0.3384       0.0518       2.5814       0.4802       0.0010
   3776.0000   3002.3083  -2980.3083    -999.2500    -999.2500    -999.2500       0.0322       0.3591       0.1630       2.3746       0.1834       0.0010
   3776.1250   3002.4319  -2980.4319    -999.2500    -999.2500    -999.2500       0.0058       0.3284       0.1250       2.4454       0.2293       0.0010
   3776.2500   3002.5554  -2980.5554    -999.2500    -999.2500    -999.2500       0.0459       0.2839       0.1709       2.3598       0.1763       0.0010
   3776.3750   3002.6790  -2980.6790    -999.2500    -999.2500    -999.2500       0.1090       0.2405       0.1902       2.3239       0.1612       0.0010
   3776.5000   3002.8025  -2980.8025    -999.2500    -999.2500    -999.2500       0.0074       0.2189       0.1302       2.4357       0.2215       0.0010
   3776.6250   3002.9260  -2980.9260    -999.2500    -999.2500    -999.2500       0.0130       0.2513       0.1428       2.4120       0.2050       0.0010
   3776.7500   3003.0496  -2981.0496    -999.2500    -999.2500    -999.2500       0.0035       0.2742       0.1137       2.4664       0.2482       0.0010
   3776.8750   3003.1731  -2981.1731    -999.2500    -999.2500    -999.2500       0.0046       0.2813       0.1199       2.4548       0.2374       0.0010
   3777.0000   3003.2966  -2981.2966    -999.2500    -999.2500    -999.2500       0.0092       0.2418       0.1350       2.4267       0.2148       0.0010
   3777.1250   3003.4202  -2981.4202    -999.2500    -999.2500    -999.2500       0.0151       0.2147       0.1462       2.4059       0.2010       0.0010
   3777.2500   3003.5437  -2981.5437    -999.2500    -999.2500    -999.2500       0.0174       0.2600       0.1494       2.4000       0.1974       0.0010
   3777.3750   3003.6672  -2981.6672    -999.2500    -999.2500    -999.2500       0.0120       0.2260       0.1410       2.4156       0.2072       0.0010
   3777.5000   3003.7908  -2981.7908    -999.2500    -999.2500    -999.2500       0.0055       0.2634       0.1238       2.4476       0.2311       0.0010
   3777.6250   3003.9143  -2981.9143    -999.2500    -999.2500    -999.2500       0.0023       0.2569       0.1042       2.4840       0.2670       0.0010
   3777.7500   3004.0381  -2982.0381    -999.2500    -999.2500    -999.2500       0.0012       0.2327       0.0906       2.5094       0.3005       0.0010
   3777.8750   3004.1616  -2982.1616    -999.2500    -999.2500    -999.2500       0.0010       0.2208       0.0855       2.5188       0.3154       0.0010
   3778.0000   3004.2852  -2982.2852    -999.2500    -999.2500    -999.2500       0.0008       0.2280       0.0820       2.5252       0.3264       0.0010
   3778.1250   3004.4087  -2982.4087    -999.2500    -999.2500    -999.2500       0.0001       0.2137       0.0272       2.6261       0.7865       0.0010
   3778.2500   3004.5322  -2982.5322    -999.2500    -999.2500    -999.2500       0.0002       0.2136       0.0468       2.5903       0.5224       0.0010
   3778.3750   3004.6558  -2982.6558    -999.2500    -999.2500    -999.2500       0.0005       0.2030       0.0685       2.5503       0.3799       0.0010
   3778.5000   3004.7793  -2982.7793    -999.2500    -999.2500    -999.2500       0.0006       0.1892       0.0744       2.5395       0.3545       0.0010
   3778.6250   3004.9028  -2982.9028    -999.2500    -999.2500    -999.2500       0.0004       0.1910       0.0661       2.5547       0.3914       0.0010
   3778.7500   3005.0264  -2983.0264    -999.2500    -999.2500    -999.2500       0.0001       0.2226       0.0316       2.6179       0.6822       0.0010
   3778.8750   3005.1499  -2983.1499    -999.2500    -999.2500    -999.2500       0.0001       0.2406       0.0422       2.5982       0.5214       0.0010
   3779.0000   3005.2734  -2983.2734    -999.2500    -999.2500    -999.2500       0.0000       0.2170       0.0127       2.6504       1.0000       0.0010
   3779.1250   3005.3970  -2983.3970    -999.2500    -999.2500    -999.2500       0.0001       0.2106       0.0418       2.5990       0.5262       0.0010
   3779.2500   3005.5205  -2983.5205    -999.2500    -999.2500    -999.2500       0.0036       0.2341       0.1142       2.4654       0.2472       0.0010
   3779.3750   3005.6440  -2983.6440    -999.2500    -999.2500    -999.2500       0.0044       0.2454       0.1186       2.4573       0.2395       0.0010
   3779.5000   3005.7676  -2983.7676    -999.2500    -999.2500    -999.2500       0.8059       0.2106       0.2348       2.2407       0.1351       0.0010
   3779.6250   3005.8911  -2983.8911    -999.2500    -999.2500    -999.2500   10000.0000       0.2303       0.4699       1.8015       0.0755       0.0010
   3779.7500   3006.0146  -2984.0146    -999.2500    -999.2500    -999.2500   10000.0000       0.2360       0.4737       1.7945       0.0750       0.0010
   3779.8750   3006.1382  -2984.1382    -999.2500    -999.2500    -999.2500    2606.9685       0.2234       0.4149       1.9045       0.0838       0.0010
   3780.0000   3006.2617  -2984.2617    -999.2500    -999.2500    -999.2500    3624.3557       0.2109       0.4222       1.8905       0.0826       0.0010
   3780.1250   3006.3853  -2984.3853    -999.2500    -999.2500    -999.2500    -999.2500       0.2225    -999.2500       2.4820    -999.2500    -999.2500
   3780.2500   3006.5088  -2984.5088    -999.2500    -999.2500    -999.2500    -999.2500       0.2163    -999.2500       2.4210    -999.2500    -999.2500
   3780.3750   3006.6323  -2984.6323    -999.2500    -999.2500    -999.2500    -999.2500       0.1941    -999.2500       2.3520    -999.2500    -999.2500
   3780.5000   3006.7559  -2984.7559    -999.2500    -999.2500    -999.2500    -999.2500       0.1982    -999.2500       2.3186    -999.2500    -999.2500
   3780.6250   3006.8794  -2984.8794    -999.2500    -999.2500    -999.2500    -999.2500       0.2195    -999.2500       2.2908    -999.2500    -999.2500
   3780.7500   3007.0029  -2985.0029    -999.2500    -999.2500    -999.2500    -999.2500       0.2158    -999.2500       2.2221    -999.2500    -999.2500
   3780.8750   3007.1265  -2985.1265    -999.2500    -999.2500    -999.2500    -999.2500       0.2233    -999.2500       2.2353    -999.2500    -999.2500
   3781.0000   3007.2500  -2985.2500    -999.2500    -999.2500    -999.2500    -999.2500       0.2150    -999.2500       2.2512    -999.2500    -999.2500
   3781.1250   3007.3735  -2985.3735    -999.2500    -999.2500    -999.2500    -999.2500       0.2071    -999.2500       2.2336    -999.2500    -999.2500
   3781.2500   3007.4971  -2985.4971    -999.2500    -999.2500    -999.2500    -999.2500       0.1996    -999.2500       2.2379    -999.2500    -999.2500
   3781.3750   3007.6206  -2985.6206    -999.2500    -999.2500    -999.2500    -999.2500       0.1932    -999.2500       2.2790    -999.2500    -999.2500
   3781.5000   3007.7441  -2985.7441    -999.2500    -999.2500    -999.2500    -999.2500       0.1960    -999.2500       2.2550    -999.2500    -999.2500
   3781.6250   3007.8677  -2985.8677    -999.2500    -999.2500    -999.2500    -999.2500       0.2211    -999.2500       2.2729    -999.2500    -999.2500
   3781.7500   3007.9912  -2985.9912    -999.2500    -999.2500    -999.2500    -999.2500       0.2153    -999.2500       2.3092    -999.2500    -999.2500
   3781.8750   3008.1147  -2986.1147    -999.2500    -999.2500    -999.2500    -999.2500       0.2158    -999.2500       2.3117    -999.2500    -999.2500
   3782.0000   3008.2383  -2986.2383    -999.2500    -999.2500    -999.2500    -999.2500       0.2301    -999.2500       2.3116    -999.2500    -999.2500
