#------------------------------------------------------------------------------
#
#   Created by  : [OpenWorks] Log Export Utility (LEXP)
#   Created on  : 2007-05-07 11:57:13
#   Project     : NORNE
#   User        : JSE
#   Interpreter : JSE
#
#------------------------------------------------------------------------------
~VERSION INFORMATION
VERS. 2.0 : CWLS Log ASCII Standard - version 2.0
WRAP.  NO : One line per depth step
~WELL INFORMATION
#MNEMONIC   .UNIT                                           VALUE :DESCRIPTION
#------------------------------------------------------------------------------
STRT        .M                                          1325.1250 :START DEPTH
STOP        .M                                          3789.8750 :STOP DEPTH
STEP        .M                                             0.1250 :STEP
NULL        .                                           -999.2500 :NULL VALUE
COMP        .                                             STATOIL :COMPANY
WELL        .                                       6608/10-C-3 H :WELL
FLD         .                                               NORNE :FIELD
LOC         .                                             UNKNOWN :LOCATION
CNTY        .                                             UNKNOWN :COUNTY
STAT        .                                             UNKNOWN :STATE
CTRY        .                                              Norway :COUNTRY
SRVC        .                                             UNKNOWN :SERVICE COMPANY
DATE        .                                             UNKNOWN :LOG DATE
UWI         .                                    NO 6608/10-C-3 H :UNIQUE WELL ID
XCOORD      .                                       457175.596094 :SURFACE X
YCOORD      .                                      7322029.604515 :SURFACE Y
LAT         .                                           66.014460 :LATITUDE
LON         .                                            8.055937 :LONGITUDE
ELEV        .M                                            22.0000 :SURFACE ELEV
ELEV_TYPE   .                                                  KB :ELEV TYPE
~CURVE INFORMATION
#MNEMONIC.UNIT        API CODE       : CURVE DESCRIPTION
#------------------------------------------------------------------------------
DEPTH    .M                          : Measured Depth
TVD      .M                          : True Vertical Depth (TVD)
TVDSS    .M                          : True Vertical Depth (TVDSS)
DT       .us/ft       UNKNOWN        : DT:UNKNOWN:rC:NONE:v1 
DTS      .us/ft       UNKNOWN        : DTS:UNKNOWN:rC:NONE:v1 
GR       .API         UNKNOWN        : GR:UNKNOWN:rC:NONE:v1 
KLOGH    .mD          UNKNOWN        : KLOGH:UNKNOWN:rC::v0 (auto-composite)
NPHI     .v/v_decimal UNKNOWN        : NPHI:UNKNOWN:rC:NONE:v1 
PHIF     .v/v_decimal UNKNOWN        : PHIF:UNKNOWN:rC::v0 (auto-composite)
RHOB     .g/cm3       UNKNOWN        : RHOB:UNKNOWN:rC:NONE:v1 
SW       .v/v_decimal UNKNOWN        : SW:UNKNOWN:rC::v0 (auto-composite)
VSH      .v/v_decimal UNKNOWN        : VSH:UNKNOWN:rC::v0 (auto-composite)
~A     DEPTH         TVD       TVDSS           DT          DTS           GR        KLOGH         NPHI         PHIF         RHOB           SW          VSH
# ...
   3717.1250   2944.1897  -2922.1897      85.9530     148.7755      90.5010       0.0094       0.2702       0.1356       2.4442       1.0000       0.3864
   3717.2500   2944.3130  -2922.3130      85.9403     148.7118      89.6747       0.0111       0.2519       0.1393       2.4379       1.0000       0.3761
   3717.3750   2944.4363  -2922.4363      85.9256     148.4878      85.2219       0.0297       0.2421       0.1613       2.4014       0.9488       0.3209
   3717.5000   2944.5596  -2922.5596      85.9140     148.1451      83.6909       0.0215       0.2227       0.1541       2.4133       0.9996       0.3019
   3717.6250   2944.6829  -2922.6829      85.9131     147.8366      87.4371       0.0185       0.2255       0.1506       2.4190       1.0000       0.3484
   3717.7500   2944.8062  -2922.8062      85.9103     147.6426      87.4452       0.0102       0.2418       0.1373       2.4412       1.0000       0.3485
   3717.8750   2944.9292  -2922.9292      85.8862     147.5173      85.1806       0.0107       0.2533       0.1384       2.4394       1.0000       0.3204
   3718.0000   2945.0525  -2923.0525      85.8185     147.4307      84.2325       0.0135       0.2558       0.1437       2.4306       0.9785       0.3087
   3718.1250   2945.1758  -2923.1758      85.6887     147.3793      87.3378       0.0091       0.2486       0.1348       2.4455       0.9661       0.3471
   3718.2500   2945.2991  -2923.2991      85.4901     147.4203      93.1938       0.0022       0.2260       0.1028       2.4988       1.0000       0.4197
   3718.3750   2945.4224  -2923.4224      85.2648     147.6006      90.4856       0.0032       0.2425       0.1118       2.4837       1.0000       0.3862
   3718.5000   2945.5457  -2923.5457      85.0580     147.7115      93.5628       0.0043       0.2632       0.1179       2.4735       0.9622       0.4244
   3718.6250   2945.6689  -2923.6689      84.8772     147.6501      95.2842       0.0047       0.2544       0.1201       2.4700       0.9687       0.4457
   3718.7500   2945.7920  -2923.7920      84.7252     147.4084      93.4364       0.0056       0.2340       0.1242       2.4631       0.9771       0.4228
   3718.8750   2945.9153  -2923.9153      84.6034     147.0682      90.1488       0.0102       0.2497       0.1373       2.4412       0.9215       0.3821
   3719.0000   2946.0386  -2924.0386      84.5230     146.8147      78.5170       0.0132       0.2378       0.1433       2.4314       0.8939       0.2377
   3719.1250   2946.1619  -2924.1619      84.5488     146.8685      84.1678       0.0120       0.2185       0.1411       2.4349       0.8912       0.3079
   3719.2500   2946.2852  -2924.2852      84.7805     147.1484      83.3104       0.0091       0.2272       0.1348       2.4454       0.9336       0.2972
   3719.3750   2946.4084  -2924.4084      85.3207     147.8059      83.9797       0.0069       0.2279       0.1288       2.4554       0.9861       0.3055
   3719.5000   2946.5317  -2924.5317      86.2704     149.2019      90.6557       0.0087       0.2159       0.1339       2.4469       0.9567       0.3883
   3719.6250   2946.6550  -2924.6550      87.7500     152.0240      85.2560       0.0488       0.2826       0.1723       2.3820       0.7633       0.3223
   3719.7500   2946.7781  -2924.7781      89.7587     157.2707      87.2817       1.5259       0.2868       0.2490       2.2366       0.5546       0.3465
   3719.8750   2946.9014  -2924.9014      91.9593     163.9210      91.0941     418.0426       0.3123       0.3741       1.9978       0.3846       0.3937
   3720.0000   2947.0247  -2925.0247      94.0882     170.6812      91.2181   10000.0000       0.3940       0.4683       1.8182       0.3035       0.3953
   3720.1250   2947.1479  -2925.1479      95.9356     176.4643      85.0161    4931.0215       0.4301       0.4291       1.8895       0.3056       0.3185
   3720.2500   2947.2712  -2925.2712      97.3371     180.5008      73.6538       0.4286       0.3041       0.2207       2.2772       0.5046       0.1776
   3720.3750   2947.3945  -2925.3945      98.1239     182.5562      67.3705       0.6762       0.3038       0.2309       2.2608       0.5260       0.0996
   3720.5000   2947.5178  -2925.5178      98.2961     183.6295      64.5389       0.2298       0.2623       0.2068       2.3108       0.6950       0.0645
   3720.6250   2947.6409  -2925.6409      98.0268     184.1853      83.7949       0.1590       0.2519       0.1986       2.3338       0.8203       0.3032
   3720.7500   2947.7642  -2925.7642      97.4331     184.1498      96.6455       0.3152       0.2592       0.2139       2.3137       0.8448       0.4626
   3720.8750   2947.8875  -2925.8875      96.6506     183.4202      89.7246       1.1316       0.2660       0.2424       2.2643       0.7890       0.3768
   3721.0000   2948.0107  -2926.0107      95.8340     182.0080      86.1470       2.8608       0.2703       0.2630       2.2230       0.7346       0.3316
   3721.1250   2948.1340  -2926.1340      95.1229     180.0426      81.2227       1.3368       0.2725       0.2461       2.2537       0.6884       0.2713
   3721.2500   2948.2573  -2926.2573      94.5727     178.0600      78.8883       1.6904       0.3102       0.2513       2.2476       0.6667       0.2424
   3721.3750   2948.3806  -2926.3806      94.1755     176.0779      82.5540       1.4696       0.2793       0.2482       2.2565       0.7118       0.2878
   3721.5000   2948.5039  -2926.5039      93.9189     174.0932      85.7322       1.0088       0.2357       0.2398       2.2705       0.7920       0.3273
   3721.6250   2948.6270  -2926.6270      93.7715     172.0828      81.2776       1.0756       0.2695       0.2412       2.2681       0.8319       0.2720
   3721.7500   2948.7502  -2926.7502      93.6731     170.0405      79.5750       0.3191       0.2731       0.2142       2.3132       0.9858       0.2509
   3721.8750   2948.8735  -2926.8735      93.5454     168.0547      69.7867       0.6351       0.2610       0.2295       2.2877       0.9937       0.1296
   3722.0000   2948.9968  -2926.9968      93.3727     166.3731      70.2542       0.8633       0.2322       0.2363       2.2763       1.0000       0.1354
   3722.1250   2949.1201  -2927.1201      93.1642     165.0897      70.8011       1.3927       0.2218       0.2470       2.2585       0.9758       0.1422
   3722.2500   2949.2434  -2927.2434      92.9387     164.2179      66.5008       2.3737       0.2316       0.2589       2.2387       0.9354       0.0889
   3722.3750   2949.3667  -2927.3667      92.7201     163.7165      63.4706       1.3037       0.2219       0.2455       2.2610       0.9480       0.0514
   3722.5000   2949.4897  -2927.4897      92.5522     163.9229      72.7531       0.6719       0.2114       0.2307       2.2856       0.9706       0.1664
   3722.6250   2949.6130  -2927.6130      92.4581     164.7818      71.7058       0.6074       0.2629       0.2285       2.2893       0.9518       0.1534
   3722.7500   2949.7363  -2927.7363      92.4309     165.9559      72.8174       0.3282       0.2819       0.2148       2.3122       0.9519       0.1671
   3722.8750   2949.8596  -2927.8596      92.4400     167.0579      76.3120       0.1222       0.2646       0.1928       2.3489       0.9967       0.2105
   3723.0000   2949.9829  -2927.9829      92.4445     167.7308      78.6985       0.0649       0.2479       0.1787       2.3723       1.0000       0.2401
   3723.1250   2950.1062  -2928.1062      92.4052     167.7480      79.9047       0.1140       0.2822       0.1912       2.3436       0.9277       0.2550
   3723.2500   2950.2295  -2928.2295      92.3318     166.9955      77.2027      25.5405       0.2694       0.3118       2.1168       0.5452       0.2215
   3723.3750   2950.3528  -2928.3528      92.2200     165.6232      71.8867       1.3942       0.2937       0.2470       2.2365       0.6265       0.1557
   3723.5000   2950.4758  -2928.4758      92.0152     163.6923      73.3822       0.2284       0.3410       0.2067       2.3129       0.6903       0.1742
