#------------------------------------------------------------------------------
#
#   Created by  : [OpenWorks] Log Export Utility (LEXP)
#   Created on  : 2007-05-07 11:58:04
#   Project     : NORNE
#   User        : JSE
#   Interpreter : JSE
#
#------------------------------------------------------------------------------
~VERSION INFORMATION
VERS. 2.0 : CWLS Log ASCII Standard - version 2.0
WRAP.  NO : One line per depth step
~WELL INFORMATION
#MNEMONIC   .UNIT                                           VALUE :DESCRIPTION
#------------------------------------------------------------------------------
STRT        .M                                           461.1250 :START DEPTH
STOP        .M                                          3010.0000 :STOP DEPTH
STEP        .M                                             0.1250 :STEP
NULL        .                                           -999.2500 :NULL VALUE
COMP        .                                             STATOIL :COMPANY
WELL        .                                       6608/10-E-3 H :WELL
FLD         .                                               NORNE :FIELD
LOC         .                                             UNKNOWN :LOCATION
CNTY        .                                             UNKNOWN :COUNTY
STAT        .                                             UNKNOWN :STATE
CTRY        .                                              Norway :COUNTRY
SRVC        .                                             UNKNOWN :SERVICE COMPANY
DATE        .                                             UNKNOWN :LOG DATE
UWI         .                                    NO 6608/10-E-3 H :UNIQUE WELL ID
XCOORD      .                                       459189.815835 :SURFACE X
YCOORD      .                                      7325451.234448 :SURFACE Y
LAT         .                                           66.045417 :LATITUDE
LON         .                                            8.099250 :LONGITUDE
ELEV        .M                                            22.0000 :SURFACE ELEV
ELEV_TYPE   .                                                  KB :ELEV TYPE
~CURVE INFORMATION
#MNEMONIC.UNIT        API CODE       : CURVE DESCRIPTION
#------------------------------------------------------------------------------
DEPTH    .M                          : Measured Depth
TVD      .M                          : True Vertical Depth (TVD)
TVDSS    .M                          : True Vertical Depth (TVDSS)
DT       .us/ft       UNKNOWN        : DT:DT:rC:NONE:v1 
DTS      .us/ft       UNKNOWN        : DTS:DTS:rC:NONE:v1 
GR       .API         UNKNOWN        : GR:GR:rC:NONE:v1 
KLOGH    .mD          UNKNOWN        : KLOGH:UNKNOWN:rC::v0 (auto-composite)
NPHI     .v/v_decimal UNKNOWN        : NPHI:NPHI:rC:NONE:v1 
PHIF     .v/v_decimal UNKNOWN        : PHIF:UNKNOWN:rC::v0 (auto-composite)
RHOB     .g/cm3       UNKNOWN        : RHOB:RHOB:rC:NONE:v1 
SW       .v/v_decimal UNKNOWN        : SW:UNKNOWN:rC::v0 (auto-composite)
VSH      .v/v_decimal UNKNOWN        : VSH:UNKNOWN:rC::v0 (auto-composite)
~A     DEPTH         TVD       TVDSS           DT          DTS           GR        KLOGH         NPHI         PHIF         RHOB           SW          VSH
# ...
   2482.6250   2404.0688  -2382.0688      96.1651    -999.2500      91.5476    -999.2500       0.3697    -999.2500       2.3703    -999.2500    -999.2500
   2482.7500   2404.1890  -2382.1890      97.6490    -999.2500      95.7300    -999.2500       0.3318    -999.2500       2.3760    -999.2500    -999.2500
   2482.8750   2404.3091  -2382.3091      99.8945    -999.2500      88.0513    -999.2500       0.3457    -999.2500       2.3561    -999.2500    -999.2500
   2483.0000   2404.4290  -2382.4290     102.3677    -999.2500      85.6378    -999.2500       0.3398    -999.2500       2.3572    -999.2500    -999.2500
   2483.1250   2404.5491  -2382.5491     104.8513    -999.2500      84.4575    -999.2500       0.3409    -999.2500       2.3647    -999.2500    -999.2500
   2483.2500   2404.6692  -2382.6692     107.1589    -999.2500      83.1109    -999.2500       0.3486    -999.2500       2.3642    -999.2500    -999.2500
   2483.3750   2404.7893  -2382.7893     109.1551    -999.2500      81.7740    -999.2500       0.3494    -999.2500       2.3522    -999.2500    -999.2500
   2483.5000   2404.9094  -2382.9094     110.7288    -999.2500      81.4299    -999.2500       0.3352    -999.2500       2.3687    -999.2500    -999.2500
   2483.6250   2405.0293  -2383.0293     111.9050    -999.2500      89.4401    -999.2500       0.3328    -999.2500       2.3625    -999.2500    -999.2500
   2483.7500   2405.1494  -2383.1494     112.8393    -999.2500      89.5665    -999.2500       0.3363    -999.2500       2.3646    -999.2500    -999.2500
   2483.8750   2405.2695  -2383.2695     113.5634    -999.2500      87.1620    -999.2500       0.3363    -999.2500       2.3637    -999.2500    -999.2500
   2484.0000   2405.3896  -2383.3896     114.0694    -999.2500      83.9996    -999.2500       0.3355    -999.2500       2.3621    -999.2500    -999.2500
   2484.1250   2405.5098  -2383.5098     114.3151    -999.2500      75.4654    -999.2500       0.3502    -999.2500       2.3813    -999.2500    -999.2500
   2484.2500   2405.6296  -2383.6296     114.2667    -999.2500      81.4650    -999.2500       0.3726    -999.2500       2.3887    -999.2500    -999.2500
   2484.3750   2405.7498  -2383.7498     114.1429    -999.2500      85.3316    -999.2500       0.3763    -999.2500       2.3907    -999.2500    -999.2500
   2484.5000   2405.8699  -2383.8699     114.0983    -999.2500      86.3513    -999.2500       0.3675    -999.2500       2.3989    -999.2500    -999.2500
   2484.6250   2405.9900  -2383.9900     114.1944    -999.2500      89.8300    -999.2500       0.3480    -999.2500       2.3998    -999.2500    -999.2500
   2484.7500   2406.1101  -2384.1101     114.4162    -999.2500      96.1784    -999.2500       0.3249    -999.2500       2.3827    -999.2500    -999.2500
   2484.8750   2406.2300  -2384.2300     114.6394    -999.2500      84.0026    -999.2500       0.3273    -999.2500       2.3745    -999.2500    -999.2500
   2485.0000   2406.3501  -2384.3501     114.6760    -999.2500      85.2187    -999.2500       0.3451    -999.2500       2.3709    -999.2500    -999.2500
   2485.1250   2406.4702  -2384.4702     114.5091    -999.2500      93.3407    -999.2500       0.3598    -999.2500       2.3652    -999.2500    -999.2500
   2485.2500   2406.5903  -2384.5903     114.2197    -999.2500      93.0037    -999.2500       0.3638    -999.2500       2.3691    -999.2500    -999.2500
   2485.3750   2406.7104  -2384.7104     113.9167    -999.2500      84.3059    -999.2500       0.3610    -999.2500       2.3686    -999.2500    -999.2500
   2485.5000   2406.8303  -2384.8303     113.7149    -999.2500      81.4963    -999.2500       0.3649    -999.2500       2.3349    -999.2500    -999.2500
   2485.6250   2406.9504  -2384.9504     113.6985    -999.2500      85.8073    -999.2500       0.3732    -999.2500       2.3332    -999.2500    -999.2500
   2485.7500   2407.0706  -2385.0706     113.7676    -999.2500      84.9436    -999.2500       0.3611    -999.2500       2.3497    -999.2500    -999.2500
   2485.8750   2407.1907  -2385.1907     113.8392    -999.2500      82.2985    -999.2500       0.3570    -999.2500       2.3503    -999.2500    -999.2500
   2486.0000   2407.3108  -2385.3108     113.9189    -999.2500      84.5839    -999.2500       0.3599    -999.2500       2.3460    -999.2500    -999.2500
   2486.1250   2407.4307  -2385.4307     114.0460    -999.2500      90.8874    -999.2500       0.3623    -999.2500       2.3519    -999.2500    -999.2500
   2486.2500   2407.5508  -2385.5508     114.2782    -999.2500      80.9560    -999.2500       0.3629    -999.2500       2.3617    -999.2500    -999.2500
   2486.3750   2407.6709  -2385.6709     114.6171    -999.2500      88.7373    -999.2500       0.3693    -999.2500       2.3596    -999.2500    -999.2500
   2486.5000   2407.7910  -2385.7910     114.9441    -999.2500      90.9407    -999.2500       0.3781    -999.2500       2.3750    -999.2500    -999.2500
   2486.6250   2407.9111  -2385.9111     115.1796    -999.2500      85.5242    -999.2500       0.3721    -999.2500       2.3828    -999.2500    -999.2500
   2486.7500   2408.0310  -2386.0310     115.2785    -999.2500      79.1224    -999.2500       0.3616    -999.2500       2.3748    -999.2500    -999.2500
   2486.8750   2408.1511  -2386.1511     115.2355    -999.2500      81.4739    -999.2500       0.3690    -999.2500       2.3592    -999.2500    -999.2500
   2487.0000   2408.2712  -2386.2712     115.1017    -999.2500      85.8251    -999.2500       0.3543    -999.2500       2.3510    -999.2500    -999.2500
   2487.1250   2408.3914  -2386.3914     114.9352    -999.2500      90.5137    -999.2500       0.3430    -999.2500       2.3500    -999.2500    -999.2500
   2487.2500   2408.5112  -2386.5112     114.7139    -999.2500      88.4810    -999.2500       0.3529    -999.2500       2.3548    -999.2500    -999.2500
   2487.3750   2408.6313  -2386.6313     114.4293    -999.2500      86.0430    -999.2500       0.3710    -999.2500       2.3626    -999.2500    -999.2500
   2487.5000   2408.7515  -2386.7515     114.0982    -999.2500      86.9719    -999.2500       0.3820    -999.2500       2.3706    -999.2500    -999.2500
   2487.6250   2408.8716  -2386.8716     113.7710    -999.2500      85.4740    -999.2500       0.3795    -999.2500       2.3780    -999.2500    -999.2500
   2487.7500   2408.9917  -2386.9917     113.5548    -999.2500      83.1770    -999.2500       0.3636    -999.2500       2.3657    -999.2500    -999.2500
   2487.8750   2409.1116  -2387.1116     113.4272    -999.2500      87.4998    -999.2500       0.3535    -999.2500       2.3547    -999.2500    -999.2500
   2488.0000   2409.2317  -2387.2317     113.3348    -999.2500      87.2277    -999.2500       0.3542    -999.2500       2.3532    -999.2500    -999.2500
   2488.1250   2409.3518  -2387.3518     113.2260    -999.2500      84.0462    -999.2500       0.3642    -999.2500       2.3587    -999.2500    -999.2500
   2488.2500   2409.4719  -2387.4719     113.0653    -999.2500      85.7856    -999.2500       0.3782    -999.2500       2.3622    -999.2500    -999.2500
   2488.3750   2409.5920  -2387.5920     112.8701    -999.2500      92.7353    -999.2500       0.3894    -999.2500       2.3556    -999.2500    -999.2500
   2488.5000   2409.7119  -2387.7119     112.7157    -999.2500      85.5844    -999.2500       0.3685    -999.2500       2.3461    -999.2500    -999.2500
   2488.6250   2409.8320  -2387.8320     112.6104    -999.2500      83.2972    -999.2500       0.3679    -999.2500       2.3424    -999.2500    -999.2500
   2488.7500   2409.9521  -2387.9521     112.5479    -999.2500      84.9861    -999.2500       0.3665    -999.2500       2.3439    -999.2500    -999.2500
   2488.8750   2410.0723  -2388.0723     112.5264    -999.2500      87.0649    -999.2500       0.3514    -999.2500       2.3474    -999.2500    -999.2500
   2489.0000   2410.1924  -2388.1924     112.5559    -999.2500      86.7939    -999.2500       0.3360    -999.2500       2.3493    -999.2500    -999.2500
