#------------------------------------------------------------------------------
#
#   Created by  : [OpenWorks] Log Export Utility (LEXP)
#   Created on  : 2007-05-07 11:58:15
#   Project     : NORNE
#   User        : JSE
#   Interpreter : JSE
#
#------------------------------------------------------------------------------
~VERSION INFORMATION
VERS. 2.0 : CWLS Log ASCII Standard - version 2.0
WRAP.  NO : One line per depth step
~WELL INFORMATION
#MNEMONIC   .UNIT                                           VALUE :DESCRIPTION
#------------------------------------------------------------------------------
STRT        .M                                           454.5508 :START DEPTH
STOP        .M                                          3169.8008 :STOP DEPTH
STEP        .M                                             0.1250 :STEP
NULL        .                                           -999.2500 :NULL VALUE
COMP        .                                             STATOIL :COMPANY
WELL        .                                       6608/10-F-1 H :WELL
FLD         .                                               NORNE :FIELD
LOC         .                                             UNKNOWN :LOCATION
CNTY        .                                             UNKNOWN :COUNTY
STAT        .                                             UNKNOWN :STATE
CTRY        .                                              Norway :COUNTRY
SRVC        .                                             UNKNOWN :SERVICE COMPANY
DATE        .                                             UNKNOWN :LOG DATE
UWI         .                                    NO 6608/10-F-1 H :UNIQUE WELL ID
XCOORD      .                                       459309.364262 :SURFACE X
YCOORD      .                                      7325355.161830 :SURFACE Y
LAT         .                                           66.044571 :LATITUDE
LON         .                                            8.101919 :LONGITUDE
ELEV        .M                                            24.0000 :SURFACE ELEV
ELEV_TYPE   .                                                  KB :ELEV TYPE
~CURVE INFORMATION
#MNEMONIC.UNIT        API CODE       : CURVE DESCRIPTION
#------------------------------------------------------------------------------
DEPTH    .M                          : Measured Depth
TVD      .M                          : True Vertical Depth (TVD)
TVDSS    .M                          : True Vertical Depth (TVDSS)
DT       .us/ft       UNKNOWN        : DT:UNKNOWN:rC:NONE:v1 
DTS      .us/ft       UNKNOWN        : DTS:UNKNOWN:rC:NONE:v1 
GR       .API         UNKNOWN        : GR:UNKNOWN:rC:NONE:v1 
KLOGH    .mD          UNKNOWN        : KLOGH:UNKNOWN:rC::v0 (auto-composite)
NPHI     .v/v_decimal UNKNOWN        : NPHI:SFINX:rC:NONE:v1 
PHIF     .v/v_decimal UNKNOWN        : PHIF:UNKNOWN:rC::v0 (auto-composite)
RHOB     .g/cm3       UNKNOWN        : RHOB:UNKNOWN:rC:NONE:v1 
SW       .v/v_decimal UNKNOWN        : SW:UNKNOWN:rC::v0 (auto-composite)
VSH      .v/v_decimal UNKNOWN        : VSH:UNKNOWN:rC::v0 (auto-composite)
~A     DEPTH         TVD       TVDSS           DT          DTS           GR        KLOGH         NPHI         PHIF         RHOB           SW          VSH
# ...
   3074.0508   2919.7266  -2895.7266      86.0147     149.4953      94.2825       0.0190       0.3232       0.1515       2.4200       1.0000       0.6563
   3074.1758   2919.8513  -2895.8513      86.1100     149.6213      88.7997       0.0230       0.3202       0.1559       2.4124       1.0000       0.6327
   3074.3008   2919.9763  -2895.9763      86.2842     149.8344      86.1920       0.0316       0.3172       0.1610       2.3985       0.9874       0.6054
   3074.4258   2920.1011  -2896.1011      86.4903     150.1738      84.1578       0.0354       0.3084       0.1624       2.3940       0.9731       0.5721
   3074.5508   2920.2261  -2896.2261      86.6782     150.6465      80.7681       0.0271       0.2937       0.1585       2.4044       0.9875       0.5295
   3074.6758   2920.3511  -2896.3511      86.8021     151.2158      77.0383       0.0190       0.2800       0.1511       2.4204       1.0000       0.4820
   3074.8008   2920.4758  -2896.4758      86.8250     151.7664      72.8637       0.0149       0.2881       0.1464       2.4286       1.0000       0.4355
   3074.9258   2920.6008  -2896.6008      86.7944     152.2294      70.5368       0.0140       0.2963       0.1456       2.4300       1.0000       0.4164
   3075.0508   2920.7256  -2896.7256      86.7466     152.6273      74.8592       0.0159       0.3054       0.1478       2.4250       1.0000       0.4648
   3075.1758   2920.8506  -2896.8506      86.6952     152.9780      80.3223       0.0197       0.3150       0.1518       2.4168       0.9948       0.5205
   3075.3008   2920.9756  -2896.9756      86.6402     153.2888      80.4759       0.0240       0.3235       0.1562       2.4086       0.9778       0.5198
   3075.4258   2921.1003  -2897.1003      86.5647     153.5350      77.0148       0.0277       0.3262       0.1596       2.4004       0.9597       0.4945
   3075.5508   2921.2253  -2897.2253      86.4603     153.6914      77.4823       0.0285       0.3289       0.1597       2.4000       0.9559       0.4941
   3075.6758   2921.3501  -2897.3501      86.3522     153.7728      78.9746       0.0256       0.3295       0.1579       2.4060       0.9672       0.5114
   3075.8008   2921.4751  -2897.4751      86.2524     153.7706      82.0669       0.0230       0.3293       0.1562       2.4100       0.9777       0.5455
   3075.9258   2921.5999  -2897.5999      86.1697     153.6675      84.1158       0.0230       0.3278       0.1555       2.4100       0.9763       0.5689
   3076.0508   2921.7249  -2897.7249      86.1062     153.4401      80.9260       0.0229       0.3233       0.1555       2.4100       0.9745       0.5436
   3076.1758   2921.8499  -2897.8499      86.0274     153.0372      81.1284       0.0237       0.3187       0.1565       2.4100       0.9687       0.5423
   3076.3008   2921.9746  -2897.9746      85.8885     152.5284      82.5649       0.0270       0.3118       0.1594       2.4030       0.9524       0.5541
   3076.4258   2922.0996  -2898.0996      85.6840     151.9881      83.2123       0.0327       0.3044       0.1633       2.3948       0.9298       0.5612
   3076.5508   2922.2244  -2898.2244      85.4204     151.4550      82.6048       0.0396       0.3005       0.1664       2.3866       0.9087       0.5641
   3076.6758   2922.3494  -2898.3494      85.1178     150.9487      83.5670       0.0400       0.3015       0.1662       2.3832       0.9076       0.5855
   3076.8008   2922.4744  -2898.4744      84.8126     150.4654      94.7958       0.0276       0.3025       0.1586       2.3996       0.9517       0.6831
   3076.9258   2922.5991  -2898.5991      84.5872     149.9981      96.8555       0.0156       0.3088       0.1478       2.4321       0.9958       0.7391
   3077.0508   2922.7241  -2898.7241      84.4658     149.5716     101.0492       0.0124       0.3153       0.1437       2.4338       1.0000       0.7907
   3077.1758   2922.8489  -2898.8489      84.4489     149.2023     103.8328       0.0138       0.3141       0.1428       2.4300       1.0000       0.8196
   3077.3008   2922.9739  -2898.9739      84.5221     148.8845     102.2901       0.0128       0.3063       0.1426       2.4326       1.0000       0.8024
   3077.4258   2923.0986  -2899.0986      84.6592     148.5941      95.6819       0.0125       0.2993       0.1424       2.4384       1.0000       0.7262
   3077.5508   2923.2236  -2899.2236      84.8183     148.2897      90.8015       0.0166       0.2995       0.1481       2.4220       1.0000       0.6477
   3077.6758   2923.3486  -2899.3486      84.9787     147.9907      82.0702       0.0215       0.2996       0.1531       2.4128       1.0000       0.5478
   3077.8008   2923.4734  -2899.4734      85.1400     147.7466      74.2947       0.0237       0.3017       0.1562       2.4100       1.0000       0.4527
   3077.9258   2923.5984  -2899.5984      85.2988     147.5874      70.8171       0.0262       0.3049       0.1599       2.4064       0.9991       0.4053
   3078.0508   2923.7231  -2899.7231      85.4452     147.5294      71.5127       0.0378       0.3056       0.1660       2.3945       0.9782       0.4101
   3078.1758   2923.8481  -2899.8481      85.5610     147.5710      71.2540       0.0524       0.2976       0.1738       2.3700       0.9470       0.4053
   3078.3008   2923.9731  -2899.9731      85.6286     147.7218      69.5514       0.0524       0.2896       0.1732       2.3782       0.9533       0.4059
   3078.4258   2924.0979  -2900.0979      85.6668     147.9692      73.8132       0.0444       0.2841       0.1712       2.3864       0.9749       0.4414
   3078.5508   2924.2229  -2900.2229      85.6870     148.3139      75.1267       0.0447       0.2793       0.1726       2.3854       0.9778       0.4522
   3078.6758   2924.3477  -2900.3477      85.6970     148.7315      73.5523       0.0652       0.2771       0.1776       2.3715       0.9452       0.4426
   3078.8008   2924.4727  -2900.4727      85.7009     149.1790      73.6182       0.0835       0.2795       0.1829       2.3521       0.9181       0.4466
   3078.9258   2924.5974  -2900.5974      85.6928     149.5902      76.9987       0.0677       0.2820       0.1788       2.3685       0.9403       0.4660
   3079.0508   2924.7224  -2900.7224      85.6637     149.8903      74.8327       0.0451       0.2917       0.1693       2.3849       0.9780       0.4737
   3079.1758   2924.8474  -2900.8474      85.6003     150.0728      80.2387       0.0269       0.3021       0.1564       2.4070       1.0000       0.5382
   3079.3008   2924.9722  -2900.9722      85.5022     150.1390      88.4994       0.0130       0.3067       0.1421       2.4354       1.0000       0.6234
   3079.4258   2925.0972  -2901.0972      85.3806     150.1072      92.9724       0.0066       0.3047       0.1307       2.4600       1.0000       0.6738
   3079.5508   2925.2219  -2901.2219      85.2572     150.0138      88.8447       0.0069       0.3027       0.1289       2.4595       1.0000       0.6388
   3079.6758   2925.3469  -2901.3469      85.1728     149.9466      85.7965       0.0104       0.2980       0.1377       2.4431       1.0000       0.5929
   3079.8008   2925.4719  -2901.4719      85.1450     149.9900      81.3963       0.0182       0.2932       0.1487       2.4200       1.0000       0.5468
   3079.9258   2925.5967  -2901.5967      85.1897     150.2031      80.4447       0.0271       0.2931       0.1564       2.4051       1.0000       0.5331
   3080.0508   2925.7217  -2901.7217      85.3304     150.6155      80.1183       0.0284       0.2960       0.1602       2.4031       1.0000       0.5240
   3080.1758   2925.8464  -2901.8464      85.5936     151.2352      77.0118       0.0306       0.2972       0.1632       2.4062       1.0000       0.4847
   3080.3008   2925.9714  -2901.9714      86.0195     152.0683      76.4596       0.0617       0.2891       0.1758       2.3816       1.0000       0.4406
   3080.4258   2926.0962  -2902.0962      86.5767     153.0992      65.1629       0.1579       0.2811       0.1955       2.3416       0.9992       0.3410
