#------------------------------------------------------------------------------
#
#   Created by  : [OpenWorks] Log Export Utility (LEXP)
#   Created on  : 2007-05-07 11:57:13
#   Project     : NORNE
#   User        : JSE
#   Interpreter : JSE
#
#------------------------------------------------------------------------------
~VERSION INFORMATION
VERS. 2.0 : CWLS Log ASCII Standard - version 2.0
WRAP.  NO : One line per depth step
~WELL INFORMATION
#MNEMONIC   .UNIT                                           VALUE :DESCRIPTION
#------------------------------------------------------------------------------
STRT        .M                                          1325.1250 :START DEPTH
STOP        .M                                          3789.8750 :STOP DEPTH
STEP        .M                                             0.1250 :STEP
NULL        .                                           -999.2500 :NULL VALUE
COMP        .                                             STATOIL :COMPANY
WELL        .                                       6608/10-C-3 H :WELL
FLD         .                                               NORNE :FIELD
LOC         .                                             UNKNOWN :LOCATION
CNTY        .                                             UNKNOWN :COUNTY
STAT        .                                             UNKNOWN :STATE
CTRY        .                                              Norway :COUNTRY
SRVC        .                                             UNKNOWN :SERVICE COMPANY
DATE        .                                             UNKNOWN :LOG DATE
UWI         .                                    NO 6608/10-C-3 H :UNIQUE WELL ID
XCOORD      .                                       457175.596094 :SURFACE X
YCOORD      .                                      7322029.604515 :SURFACE Y
LAT         .                                           66.014460 :LATITUDE
LON         .                                            8.055937 :LONGITUDE
ELEV        .M                                            22.0000 :SURFACE ELEV
ELEV_TYPE   .                                                  KB :ELEV TYPE
~CURVE INFORMATION
#MNEMONIC.UNIT        API CODE       : CURVE DESCRIPTION
#------------------------------------------------------------------------------
DEPTH    .M                          : Measured Depth
TVD      .M                          : True Vertical Depth (TVD)
TVDSS    .M                          : True Vertical Depth (TVDSS)
DT       .us/ft       UNKNOWN        : DT:UNKNOWN:rC:NONE:v1 
DTS      .us/ft       UNKNOWN        : DTS:UNKNOWN:rC:NONE:v1 
GR       .API         UNKNOWN        : GR:UNKNOWN:rC:NONE:v1 
KLOGH    .mD          UNKNOWN        : KLOGH:UNKNOWN:rC::v0 (auto-composite)
NPHI     .v/v_decimal UNKNOWN        : NPHI:UNKNOWN:rC:NONE:v1 
PHIF     .v/v_decimal UNKNOWN        : PHIF:UNKNOWN:rC::v0 (auto-composite)
RHOB     .g/cm3       UNKNOWN        : RHOB:UNKNOWN:rC:NONE:v1 
SW       .v/v_decimal UNKNOWN        : SW:UNKNOWN:rC::v0 (auto-composite)
VSH      .v/v_decimal UNKNOWN        : VSH:UNKNOWN:rC::v0 (auto-composite)
~A     DEPTH         TVD       TVDSS           DT          DTS           GR        KLOGH         NPHI         PHIF         RHOB           SW          VSH
# ...
   3509.1250   2740.6335  -2718.6335      93.4724     158.5710      68.3318      42.9950       0.2644       0.2139       2.2993       0.8051       0.1116
   3509.2500   2740.7551  -2718.7551      92.7412     155.5662      67.4226       9.9460       0.2650       0.1813       2.3528       0.9017       0.1003
   3509.3750   2740.8767  -2718.8767      91.4243     152.0648      68.5701       3.3400       0.2559       0.1570       2.3926       0.9909       0.1145
   3509.5000   2740.9980  -2718.9980      89.5724     148.4316      69.6399       2.6073       0.2520       0.1515       2.4017       1.0000       0.1278
   3509.6250   2741.1196  -2719.1196      87.3366     145.0464      69.2501       7.5502       0.2310       0.1752       2.3628       0.9207       0.1229
   3509.7500   2741.2412  -2719.2412      85.0227     142.2386      70.4866      15.8394       0.2188       0.1917       2.3358       0.8259       0.1383
   3509.8750   2741.3628  -2719.3628      83.0092     139.8893      70.0308       0.3578       0.2028       0.1072       2.4744       1.0000       0.1326
   3510.0000   2741.4841  -2719.4841      81.4685     138.0129      68.1868       0.0211       0.2060       0.0441       2.5777       1.0000       0.1097
   3510.1250   2741.6057  -2719.6057      80.5191     136.8013      61.2997       0.0090       0.2030       0.0251       2.6089       1.0000       0.0243
   3510.2500   2741.7273  -2719.7273      80.2296     136.5204      50.5132       0.0157       0.1706       0.0376       2.5884       1.0000       0.0010
   3510.3750   2741.8489  -2719.8489      80.6669     137.5649      55.2245       0.1059       0.1464       0.0801       2.5187       1.0000       0.0010
   3510.5000   2741.9702  -2719.9702      81.8155     140.3023      58.2330       7.7255       0.1646       0.1757       2.3619       0.9598       0.0010
   3510.6250   2742.0918  -2720.0918      83.3795     143.9647      58.6492      11.5677       0.1840       0.1847       2.3472       0.9283       0.0010
   3510.7500   2742.2134  -2720.2134      85.1712     147.9059      65.3131       4.0297       0.2092       0.1612       2.3858       0.9897       0.0742
   3510.8750   2742.3350  -2720.3350      86.9890     151.5601      77.0635       1.7713       0.2240       0.1429       2.4158       1.0000       0.2198
   3511.0000   2742.4563  -2720.4563      88.6338     154.5108      83.9435       1.4138       0.2017       0.1378       2.4240       1.0000       0.3051
   3511.1250   2742.5779  -2720.5779      89.8548     156.4423      87.2641       6.6557       0.2244       0.1724       2.3674       0.8836       0.3462
   3511.2500   2742.6995  -2720.6995      90.6124     157.5346      76.0331      61.1500       0.2142       0.2218       2.2864       0.7833       0.2070
   3511.3750   2742.8210  -2720.8210      90.9789     158.0399      68.6175     140.4540       0.2326       0.2403       2.2560       0.7919       0.1151
   3511.5000   2742.9424  -2720.9424      91.0113     158.0798      61.0659     164.6322       0.2536       0.2438       2.2502       0.8198       0.0214
   3511.6250   2743.0640  -2721.0640      90.7698     157.7488      49.9579     170.7816       0.2466       0.2447       2.2489       0.8297       0.0010
   3511.7500   2743.1855  -2721.1855      90.2931     157.1063      46.9426      31.7045       0.2269       0.2071       2.3104       0.9277       0.0010
   3511.8750   2743.3071  -2721.3071      89.5885     156.3263      60.2488       7.1662       0.2168       0.1740       2.3648       1.0000       0.0115
   3512.0000   2743.4285  -2721.4285      88.8233     155.6512      62.5993       0.6197       0.2287       0.1195       2.4542       1.0000       0.0405
   3512.1250   2743.5500  -2721.5500      88.1152     155.1922      70.4195       0.1761       0.2675       0.0914       2.5001       1.0000       0.1375
   3512.2500   2743.6716  -2721.6716      87.5566     154.9733      79.3991       0.3567       0.2813       0.1071       2.4743       1.0000       0.2488
   3512.3750   2743.7932  -2721.7932      87.2140     154.9618      74.5622       2.1036       0.2133       0.1467       2.4095       1.0000       0.1888
   3512.5000   2743.9146  -2721.9146      87.1623     155.1850      78.1790       0.4469       0.2296       0.1122       2.4661       1.0000       0.2336
   3512.6250   2744.0361  -2722.0361      87.4156     155.8048      78.3261       9.2006       0.2193       0.1796       2.3556       0.9413       0.2354
   3512.7500   2744.1577  -2722.1577      87.9239     156.8676      86.7941       1.8446       0.2183       0.1438       2.4142       1.0000       0.3405
   3512.8750   2744.2793  -2722.2793      88.6657     158.3143      91.2022       0.1534       0.2348       0.0883       2.5052       1.0000       0.3951
   3513.0000   2744.4006  -2722.4006      89.5958     160.0277      87.3284       0.2975       0.2526       0.1031       2.4809       1.0000       0.3470
   3513.1250   2744.5222  -2722.5222      90.6350     161.8580      93.0640       9.6118       0.2277       0.1805       2.3540       0.9499       0.4181
   3513.2500   2744.6438  -2722.6438      91.6076     163.6510      85.1310      11.7670       0.2543       0.1851       2.3466       1.0000       0.3198
   3513.3750   2744.7654  -2722.7654      92.4330     165.2716      78.5330      34.6509       0.2263       0.2091       2.3072       1.0000       0.2380
   3513.5000   2744.8867  -2722.8867      93.0825     166.6145      68.3472     178.7318       0.2406       0.2457       2.2472       0.9624       0.1117
   3513.6250   2745.0083  -2723.0083      93.5376     167.5756      61.8506     359.0111       0.2989       0.2612       2.2217       0.9295       0.0312
   3513.7500   2745.1299  -2723.1299      93.7862     168.0723      67.3327      95.6360       0.3412       0.2317       2.2701       1.0000       0.0992
   3513.8750   2745.2515  -2723.2515      93.7878     168.0428      66.2341     146.5104       0.2841       0.2412       2.2545       0.9834       0.0855
   3514.0000   2745.3728  -2723.3728      93.5330     167.6266      63.8348     198.6800       0.2674       0.2480       2.2433       0.9250       0.0558
   3514.1250   2745.4944  -2723.4944      93.1195     166.9985      66.5076     266.0085       0.2697       0.2545       2.2327       0.8627       0.0890
   3514.2500   2745.6160  -2723.6160      92.6418     166.2623      69.4686     184.0027       0.2531       0.2463       2.2462       0.8291       0.1256
   3514.3750   2745.7375  -2723.7375      92.2051     165.5648      71.7372      54.4796       0.2220       0.2192       2.2906       0.8471       0.1537
   3514.5000   2745.8589  -2723.8589      91.9148     165.1066      79.0115      12.4029       0.2352       0.1862       2.3447       0.9153       0.2439
   3514.6250   2745.9805  -2723.9805      91.8729     165.2633      80.5630       6.4678       0.2298       0.1717       2.3685       1.0000       0.2632
   3514.7500   2746.1021  -2724.1021      92.0193     165.9135      78.9884      32.6874       0.2402       0.2078       2.3093       0.9765       0.2436
   3514.8750   2746.2236  -2724.2236      92.2846     166.8141      79.0331     104.4368       0.2324       0.2337       2.2668       0.9776       0.2442
   3515.0000   2746.3452  -2724.3452      92.6012     167.7155      77.8821     161.8565       0.2333       0.2435       2.2508       1.0000       0.2300
   3515.1250   2746.4670  -2724.4670      92.8994     168.3814      71.0698     259.9033       0.2646       0.2540       2.2335       1.0000       0.1456
   3515.2500   2746.5886  -2724.5886      93.0988     168.6070      59.5027     697.9252       0.2417       0.2760       2.1975       0.9593       0.0020
   3515.3750   2746.7104  -2724.7104      93.1097     168.4244      62.3789     777.9085       0.2406       0.2784       2.1935       0.8953       0.0378
   3515.5000   2746.8320  -2724.8320      92.9778     168.0191      63.5558     252.7572       0.2318       0.2534       2.2345       0.9209       0.0523
