#------------------------------------------------------------------------------
#
#   Created by  : [OpenWorks] Log Export Utility (LEXP)
#   Created on  : 2007-05-07 11:58:04
#   Project     : NORNE
#   User        : JSE
#   Interpreter : JSE
#
#------------------------------------------------------------------------------
~VERSION INFORMATION
VERS. 2.0 : CWLS Log ASCII Standard - version 2.0
WRAP.  NO : One line per depth step
~WELL INFORMATION
#MNEMONIC   .UNIT                                           VALUE :DESCRIPTION
#------------------------------------------------------------------------------
STRT        .M                                           461.1250 :START DEPTH
STOP        .M                                          3010.0000 :STOP DEPTH
STEP        .M                                             0.1250 :STEP
NULL        .                                           -999.2500 :NULL VALUE
COMP        .                                             STATOIL :COMPANY
WELL        .                                       6608/10-E-3 H :WELL
FLD         .                                               NORNE :FIELD
LOC         .                                             UNKNOWN :LOCATION
CNTY        .                                             UNKNOWN :COUNTY
STAT        .                                             UNKNOWN :STATE
CTRY        .                                              Norway :COUNTRY
SRVC        .                                             UNKNOWN :SERVICE COMPANY
DATE        .                                             UNKNOWN :LOG DATE
UWI         .                                    NO 6608/10-E-3 H :UNIQUE WELL ID
XCOORD      .                                       459189.815835 :SURFACE X
YCOORD      .                                      7325451.234448 :SURFACE Y
LAT         .                                           66.045417 :LATITUDE
LON         .                                            8.099250 :LONGITUDE
ELEV        .M                                            22.0000 :SURFACE ELEV
ELEV_TYPE   .                                                  KB :ELEV TYPE
~CURVE INFORMATION
#MNEMONIC.UNIT        API CODE       : CURVE DESCRIPTION
#------------------------------------------------------------------------------
DEPTH    .M                          : Measured Depth
TVD      .M                          : True Vertical Depth (TVD)
TVDSS    .M                          : True Vertical Depth (TVDSS)
DT       .us/ft       UNKNOWN        : DT:DT:rC:NONE:v1 
DTS      .us/ft       UNKNOWN        : DTS:DTS:rC:NONE:v1 
GR       .API         UNKNOWN        : GR:GR:rC:NONE:v1 
KLOGH    .mD          UNKNOWN        : KLOGH:UNKNOWN:rC::v0 (auto-composite)
NPHI     .v/v_decimal UNKNOWN        : NPHI:NPHI:rC:NONE:v1 
PHIF     .v/v_decimal UNKNOWN        : PHIF:UNKNOWN:rC::v0 (auto-composite)
RHOB     .g/cm3       UNKNOWN        : RHOB:RHOB:rC:NONE:v1 
SW       .v/v_decimal UNKNOWN        : SW:UNKNOWN:rC::v0 (auto-composite)
VSH      .v/v_decimal UNKNOWN        : VSH:UNKNOWN:rC::v0 (auto-composite)
~A     DEPTH         TVD       TVDSS           DT          DTS           GR        KLOGH         NPHI         PHIF         RHOB           SW          VSH
# ...
   2599.6250   2516.4666  -2494.4666     105.2532     185.4536     102.7910    -999.2500       0.3416    -999.2500       2.3864    -999.2500    -999.2500
   2599.7500   2516.5867  -2494.5867     106.0472     185.9118     102.1359    -999.2500       0.3492    -999.2500       2.3761    -999.2500    -999.2500
   2599.8750   2516.7070  -2494.7070     106.7231     186.4164      99.8034    -999.2500       0.3538    -999.2500       2.4202    -999.2500    -999.2500
   2600.0000   2516.8271  -2494.8271     107.2485     186.9964     101.2417    -999.2500       0.3676    -999.2500       2.4589    -999.2500    -999.2500
   2600.1250   2516.9473  -2494.9473     107.6436     187.6571     106.4583    -999.2500       0.3867    -999.2500       2.4551    -999.2500    -999.2500
   2600.2500   2517.0676  -2495.0676     107.9540     188.3640     106.5070    -999.2500       0.3746    -999.2500       2.4470    -999.2500    -999.2500
   2600.3750   2517.1877  -2495.1877     108.2046     189.0117      94.2158    -999.2500       0.3758    -999.2500       2.4163    -999.2500    -999.2500
   2600.5000   2517.3081  -2495.3081     108.3587     189.5044      97.9330    -999.2500       0.3748    -999.2500       2.4094    -999.2500    -999.2500
   2600.6250   2517.4282  -2495.4282     108.3784     189.8506      98.5305    -999.2500       0.3613    -999.2500       2.4095    -999.2500    -999.2500
   2600.7500   2517.5486  -2495.5486     108.2665     190.0934      94.0865    -999.2500       0.3435    -999.2500       2.4158    -999.2500    -999.2500
   2600.8750   2517.6687  -2495.6687     108.0603     190.3055      91.0809    -999.2500       0.3347    -999.2500       2.4256    -999.2500    -999.2500
   2601.0000   2517.7888  -2495.7888     107.8367     190.5955      91.7882    -999.2500       0.3277    -999.2500       2.3928    -999.2500    -999.2500
   2601.1250   2517.9092  -2495.9092     107.6598     191.0341      97.1520    -999.2500       0.3327    -999.2500       2.4088    -999.2500    -999.2500
   2601.2500   2518.0293  -2496.0293     107.5091     191.5661      98.9885    -999.2500       0.3194    -999.2500       2.4065    -999.2500    -999.2500
   2601.3750   2518.1497  -2496.1497     107.3540     192.1121     101.0539    -999.2500       0.3083    -999.2500       2.3977    -999.2500    -999.2500
   2601.5000   2518.2698  -2496.2698     107.1685     192.5728     104.7039    -999.2500       0.3178    -999.2500       2.3932    -999.2500    -999.2500
   2601.6250   2518.3901  -2496.3901     106.9390     192.8401     106.4843    -999.2500       0.3518    -999.2500       2.3904    -999.2500    -999.2500
   2601.7500   2518.5103  -2496.5103     106.6822     192.7623     105.7909    -999.2500       0.3556    -999.2500       2.4011    -999.2500    -999.2500
   2601.8750   2518.6304  -2496.6304     106.2572     192.4318     106.4916    -999.2500       0.3592    -999.2500       2.3809    -999.2500    -999.2500
   2602.0000   2518.7507  -2496.7507     105.6066     191.9754     107.8802    -999.2500       0.3705    -999.2500       2.3666    -999.2500    -999.2500
   2602.1250   2518.8708  -2496.8708     104.8159     191.5079     106.1825    -999.2500       0.3805    -999.2500       2.3745    -999.2500    -999.2500
   2602.2500   2518.9912  -2496.9912     104.0602     191.1290     101.1482    -999.2500       0.3795    -999.2500       2.3991    -999.2500    -999.2500
   2602.3750   2519.1113  -2497.1113     103.6055     190.9102     107.3374    -999.2500       0.3797    -999.2500       2.3933    -999.2500    -999.2500
   2602.5000   2519.2314  -2497.2314     103.6034     190.8037      97.5587    -999.2500       0.3519    -999.2500       2.4000    -999.2500    -999.2500
   2602.6250   2519.3518  -2497.3518     103.7364     190.6713      93.6092    -999.2500       0.3441    -999.2500       2.4067    -999.2500    -999.2500
   2602.7500   2519.4719  -2497.4719     103.8284     190.4194      93.4260    -999.2500       0.3519    -999.2500       2.4116    -999.2500    -999.2500
   2602.8750   2519.5923  -2497.5923     103.7889     189.9890      95.2000    -999.2500       0.3580    -999.2500       2.4107    -999.2500    -999.2500
   2603.0000   2519.7124  -2497.7124     103.6284     189.3660      99.0053    -999.2500       0.3433    -999.2500       2.4000    -999.2500    -999.2500
   2603.1250   2519.8328  -2497.8328     103.5545     188.6144     101.3056    -999.2500       0.3484    -999.2500       2.4000    -999.2500    -999.2500
   2603.2500   2519.9529  -2497.9529     103.5970     187.9099     102.0922    -999.2500       0.3509    -999.2500       2.3938    -999.2500    -999.2500
   2603.3750   2520.0730  -2498.0730     103.6702     187.3413      99.5933    -999.2500       0.3620    -999.2500       2.3946    -999.2500    -999.2500
   2603.5000   2520.1934  -2498.1934     103.8278     186.9500      96.8370    -999.2500       0.3575    -999.2500       2.3950    -999.2500    -999.2500
   2603.6250   2520.3135  -2498.3135     104.1525     186.7380      96.8367    -999.2500       0.3280    -999.2500       2.3898    -999.2500    -999.2500
   2603.7500   2520.4338  -2498.4338     104.7047     186.6635      98.9897    -999.2500       0.3232    -999.2500       2.3939    -999.2500    -999.2500
   2603.8750   2520.5540  -2498.5540     105.3830     186.6158     106.7636    -999.2500       0.3304    -999.2500       2.4067    -999.2500    -999.2500
   2604.0000   2520.6743  -2498.6743     105.9687     186.5168     105.8452    -999.2500       0.3348    -999.2500       2.3977    -999.2500    -999.2500
   2604.1250   2520.7944  -2498.7944     106.3836     186.3478     105.9095    -999.2500       0.3519    -999.2500       2.3900    -999.2500    -999.2500
   2604.2500   2520.9146  -2498.9146     106.6064     186.1166     107.1766    -999.2500       0.3778    -999.2500       2.3951    -999.2500    -999.2500
   2604.3750   2521.0349  -2499.0349     106.6576     185.8479     103.2043    -999.2500       0.3957    -999.2500       2.4098    -999.2500    -999.2500
   2604.5000   2521.1550  -2499.1550     106.5304     185.5459      98.5562    -999.2500       0.4064    -999.2500       2.4073    -999.2500    -999.2500
   2604.6250   2521.2754  -2499.2754     106.2646     185.1368      94.3390    -999.2500       0.3785    -999.2500       2.3777    -999.2500    -999.2500
   2604.7500   2521.3955  -2499.3955     105.9199     184.5752      90.9242    -999.2500       0.3480    -999.2500       2.3788    -999.2500    -999.2500
   2604.8750   2521.5159  -2499.5159     105.5710     183.8821      88.3282    -999.2500       0.3470    -999.2500       2.4231    -999.2500    -999.2500
   2605.0000   2521.6360  -2499.6360     105.2781     183.1310      87.1276    -999.2500       0.3762    -999.2500       2.4761    -999.2500    -999.2500
   2605.1250   2521.7561  -2499.7561     105.0610     182.4460      89.0040    -999.2500       0.3824    -999.2500       2.4440    -999.2500    -999.2500
   2605.2500   2521.8765  -2499.8765     104.8383     182.0675     102.4345    -999.2500       0.3373    -999.2500       2.4048    -999.2500    -999.2500
   2605.3750   2521.9966  -2499.9966     104.6499     181.9865     104.7473    -999.2500       0.3511    -999.2500       2.4024    -999.2500    -999.2500
   2605.5000   2522.1169  -2500.1169     104.5505     182.1680     102.7184    -999.2500       0.3641    -999.2500       2.4055    -999.2500    -999.2500
   2605.6250   2522.2371  -2500.2371     104.5635     182.5487     101.4072    -999.2500       0.3699    -999.2500       2.3989    -999.2500    -999.2500
   2605.7500   2522.3574  -2500.3574     104.6767     183.0441     102.8529    -999.2500       0.3869    -999.2500       2.3845    -999.2500    -999.2500
   2605.8750   2522.4775  -2500.4775     104.8023     183.5315     101.5258    -999.2500       0.3841    -999.2500       2.3968    -999.2500    -999.2500
   2606.0000   2522.5977  -2500.5977     104.7980     183.8449      98.0449    -999.2500       0.3630    -999.2500       2.3995    -999.2500    -999.2500
