#------------------------------------------------------------------------------
#
#   Created by  : [OpenWorks] Log Export Utility (LEXP)
#   Created on  : 2007-05-07 11:57:13
#   Project     : NORNE
#   User        : JSE
#   Interpreter : JSE
#
#------------------------------------------------------------------------------
~VERSION INFORMATION
VERS. 2.0 : CWLS Log ASCII Standard - version 2.0
WRAP.  NO : One line per depth step
~WELL INFORMATION
#MNEMONIC   .UNIT                                           VALUE :DESCRIPTION
#------------------------------------------------------------------------------
STRT        .M                                          1325.1250 :START DEPTH
STOP        .M                                          3789.8750 :STOP DEPTH
STEP        .M                                             0.1250 :STEP
NULL        .                                           -999.2500 :NULL VALUE
COMP        .                                             STATOIL :COMPANY
WELL        .                                       6608/10-C-3 H :WELL
FLD         .                                               NORNE :FIELD
LOC         .                                             UNKNOWN :LOCATION
CNTY        .                                             UNKNOWN :COUNTY
STAT        .                                             UNKNOWN :STATE
CTRY        .                                              Norway :COUNTRY
SRVC        .                                             UNKNOWN :SERVICE COMPANY
DATE        .                                             UNKNOWN :LOG DATE
UWI         .                                    NO 6608/10-C-3 H :UNIQUE WELL ID
XCOORD      .                                       457175.596094 :SURFACE X
YCOORD      .                                      7322029.604515 :SURFACE Y
LAT         .                                           66.014460 :LATITUDE
LON         .                                            8.055937 :LONGITUDE
ELEV        .M                                            22.0000 :SURFACE ELEV
ELEV_TYPE   .                                                  KB :ELEV TYPE
~CURVE INFORMATION
#MNEMONIC.UNIT        API CODE       : CURVE DESCRIPTION
#------------------------------------------------------------------------------
DEPTH    .M                          : Measured Depth
TVD      .M                          : True Vertical Depth (TVD)
TVDSS    .M                          : True Vertical Depth (TVDSS)
DT       .us/ft       UNKNOWN        : DT:UNKNOWN:rC:NONE:v1 
DTS      .us/ft       UNKNOWN        : DTS:UNKNOWN:rC:NONE:v1 
GR       .API         UNKNOWN        : GR:UNKNOWN:rC:NONE:v1 
KLOGH    .mD          UNKNOWN        : KLOGH:UNKNOWN:rC::v0 (auto-composite)
NPHI     .v/v_decimal UNKNOWN        : NPHI:UNKNOWN:rC:NONE:v1 
PHIF     .v/v_decimal UNKNOWN        : PHIF:UNKNOWN:rC::v0 (auto-composite)
RHOB     .g/cm3       UNKNOWN        : RHOB:UNKNOWN:rC:NONE:v1 
SW       .v/v_decimal UNKNOWN        : SW:UNKNOWN:rC::v0 (auto-composite)
VSH      .v/v_decimal UNKNOWN        : VSH:UNKNOWN:rC::v0 (auto-composite)
~A     DEPTH         TVD       TVDSS           DT          DTS           GR        KLOGH         NPHI         PHIF         RHOB           SW          VSH
# ...
   3658.6250   2886.6609  -2864.6609      85.0985     149.2481     112.0082       0.0001       0.2669       0.0427       2.5991       1.0000       0.6530
   3658.7500   2886.7834  -2864.7834      84.8724     149.0422     108.3667       0.0004       0.2654       0.0663       2.5596       1.0000       0.6078
   3658.8750   2886.9062  -2864.9062      84.6633     148.8270     108.9938       0.0017       0.2668       0.0970       2.5086       1.0000       0.6157
   3659.0000   2887.0291  -2865.0291      84.4976     148.6280     109.3535       0.0018       0.2649       0.0989       2.5054       1.0000       0.6201
   3659.1250   2887.1519  -2865.1519      84.3830     148.4760      97.9080       0.0045       0.2265       0.1190       2.4720       0.9230       0.4792
   3659.2500   2887.2747  -2865.2747      84.3160     148.4016     108.9135       0.0057       0.2680       0.1245       2.4629       0.8887       0.6146
   3659.3750   2887.3975  -2865.3975      84.2878     148.3685     104.9747       0.0022       0.2406       0.1031       2.4985       1.0000       0.5658
   3659.5000   2887.5203  -2865.5203      84.3081     148.3529     102.8126       0.0009       0.2207       0.0834       2.5311       1.0000       0.5390
   3659.6250   2887.6428  -2865.6428      84.3844     148.3333     104.1921       0.0009       0.2150       0.0836       2.5309       1.0000       0.5561
   3659.7500   2887.7656  -2865.7656      84.5147     148.2912     103.7679       0.0024       0.2062       0.1048       2.4957       0.9963       0.5508
   3659.8750   2887.8884  -2865.8884      84.6731     148.2083     101.5509       0.0025       0.2414       0.1062       2.4932       0.9609       0.5234
   3660.0000   2888.0112  -2866.0112      84.7536     148.0827      96.4884       0.0036       0.2427       0.1140       2.4803       0.8951       0.4607
   3660.1250   2888.1340  -2866.1340      84.7174     147.9019      98.2356       0.0074       0.2528       0.1302       2.4533       0.7947       0.4823
   3660.2500   2888.2568  -2866.2568      84.5746     147.6426     105.9790       0.0076       0.2521       0.1308       2.4523       0.7923       0.5783
   3660.3750   2888.3796  -2866.3796      84.3542     147.2909     111.4956       0.0029       0.2397       0.1095       2.4878       0.9281       0.6466
   3660.5000   2888.5022  -2866.5022      84.0942     146.8465     101.4856       0.0011       0.2468       0.0882       2.5233       1.0000       0.5225
   3660.6250   2888.6250  -2866.6250      83.8161     146.3214     102.5826       0.0041       0.2730       0.1172       2.4749       0.8663       0.5361
   3660.7500   2888.7478  -2866.7478      83.5198     145.7568     112.5003       0.0025       0.2607       0.1065       2.4928       0.9176       0.6591
   3660.8750   2888.8706  -2866.8706      83.2136     145.1661     116.5837       0.0017       0.2534       0.0980       2.5070       0.9500       0.7097
   3661.0000   2888.9934  -2866.9934      82.9239     144.5586     113.8605       0.0012       0.2441       0.0905       2.5194       0.9707       0.6759
   3661.1250   2889.1162  -2867.1162      82.6854     143.9441     109.8349       0.0007       0.2256       0.0775       2.5411       1.0000       0.6260
   3661.2500   2889.2390  -2867.2390      82.5426     143.3377     112.0782       0.0013       0.2594       0.0922       2.5165       1.0000       0.6538
   3661.3750   2889.3618  -2867.3618      82.4746     142.7599     115.2247       0.0013       0.2400       0.0908       2.5188       1.0000       0.6929
   3661.5000   2889.4844  -2867.4844      82.4233     142.2099     110.9304       0.0012       0.2443       0.0901       2.5200       1.0000       0.6396
   3661.6250   2889.6072  -2867.6072      82.3741     141.6980     109.8260       0.0012       0.2662       0.0901       2.5200       1.0000       0.6260
   3661.7500   2889.7300  -2867.7300      82.3289     141.2480     112.3582       0.0031       0.2749       0.1111       2.4852       1.0000       0.6573
   3661.8750   2889.8528  -2867.8528      82.3035     140.8984     107.9379       0.0640       0.2340       0.1783       2.3733       1.0000       0.6026
   3662.0000   2889.9756  -2867.9756      82.3273     140.7441      94.5923       0.0102       0.2199       0.1374       2.4414       1.0000       0.4372
   3662.1250   2890.0984  -2868.0984      82.3912     140.8232      71.9984       0.0417       0.2248       0.1688       2.3891       1.0000       0.1570
   3662.2500   2890.2212  -2868.2212      82.4687     141.1250      55.1447       0.1364       0.2129       0.1952       2.3452       1.0000       0.0010
   3662.3750   2890.3438  -2868.3438      82.5406     141.6205      49.6799       0.0436       0.2109       0.1698       2.3874       1.0000       0.0010
   3662.5000   2890.4666  -2868.4666      82.5897     142.2546      52.2457       0.0022       0.2349       0.1034       2.4980       1.0000       0.0010
   3662.6250   2890.5894  -2868.5894      82.5987     142.9422      45.5668       0.0046       0.2286       0.1196       2.4709       1.0000       0.0010
   3662.7500   2890.7122  -2868.7122      82.5395     143.5480      47.6854       0.0074       0.2088       0.1302       2.4534       1.0000       0.0010
   3662.8750   2890.8350  -2868.8350      82.4442     144.0130      48.9416       0.0311       0.1911       0.1623       2.4000       0.8087       0.0010
   3663.0000   2890.9578  -2868.9578      82.3346     144.3318      53.9510       0.0239       0.1964       0.1564       2.4092       0.7233       0.0010
   3663.1250   2891.0806  -2869.0806      82.2279     144.5178      61.2662       0.0079       0.2171       0.1317       2.4509       0.7522       0.0239
   3663.2500   2891.2031  -2869.2031      82.1367     144.5939      66.4620       0.0150       0.2254       0.1460       2.4251       0.6463       0.0883
   3663.3750   2891.3259  -2869.3259      82.0776     144.5594      82.2668       0.0019       0.2120       0.0999       2.5038       0.9021       0.2844
   3663.5000   2891.4487  -2869.4487      82.0593     144.4585      94.3411       0.0026       0.2581       0.1070       2.4919       0.8807       0.4341
   3663.6250   2891.5715  -2869.5715      82.0742     144.3463     103.5398       0.0036       0.2670       0.1140       2.4803       0.8635       0.5480
   3663.7500   2891.6943  -2869.6943      82.1342     144.2639     114.4459       0.0031       0.2610       0.1107       2.4858       0.9124       0.6832
   3663.8750   2891.8171  -2869.8171      82.2535     144.2455     124.5906       0.0021       0.2642       0.1022       2.5000       1.0000       0.8090
   3664.0000   2891.9399  -2869.9399      82.4450     144.3140     117.5110       0.0021       0.2543       0.1022       2.5000       1.0000       0.7218
   3664.1250   2892.0625  -2870.0625      82.6995     144.5000     127.3701       0.0043       0.2508       0.1183       2.4731       0.9386       0.8435
   3664.2500   2892.1853  -2870.1853      82.9812     144.7643     125.2591       0.0043       0.2757       0.1182       2.4733       0.9472       0.8172
   3664.3750   2892.3081  -2870.3081      83.2884     145.0722     116.8274       0.0075       0.2751       0.1305       2.4529       0.8678       0.7127
   3664.5000   2892.4309  -2870.4309      83.6216     145.3856     107.4519       0.0097       0.2478       0.1364       2.4430       0.8260       0.5965
   3664.6250   2892.5537  -2870.5537      83.9766     145.6679     100.5781       0.0029       0.2295       0.1093       2.4880       0.9798       0.5114
   3664.7500   2892.6765  -2870.6765      84.3228     145.8886      93.1635       0.0091       0.2693       0.1350       2.4454       0.8013       0.4193
   3664.8750   2892.7993  -2870.7993      84.5762     146.0909     103.7599       0.0075       0.2860       0.1305       2.4528       0.8124       0.5508
   3665.0000   2892.9219  -2870.9219      84.7036     146.3142     100.7237       0.0069       0.2441       0.1287       2.4559       0.8194       0.5131
