#------------------------------------------------------------------------------
#
#   Created by  : [OpenWorks] Log Export Utility (LEXP)
#   Created on  : 2007-05-07 11:57:13
#   Project     : NORNE
#   User        : JSE
#   Interpreter : JSE
#
#------------------------------------------------------------------------------
~VERSION INFORMATION
VERS. 2.0 : CWLS Log ASCII Standard - version 2.0
WRAP.  NO : One line per depth step
~WELL INFORMATION
#MNEMONIC   .UNIT                                           VALUE :DESCRIPTION
#------------------------------------------------------------------------------
STRT        .M                                          1325.1250 :START DEPTH
STOP        .M                                          3789.8750 :STOP DEPTH
STEP        .M                                             0.1250 :STEP
NULL        .                                           -999.2500 :NULL VALUE
COMP        .                                             STATOIL :COMPANY
WELL        .                                       6608/10-C-3 H :WELL
FLD         .                                               NORNE :FIELD
LOC         .                                             UNKNOWN :LOCATION
CNTY        .                                             UNKNOWN :COUNTY
STAT        .                                             UNKNOWN :STATE
CTRY        .                                              Norway :COUNTRY
SRVC        .                                             UNKNOWN :SERVICE COMPANY
DATE        .                                             UNKNOWN :LOG DATE
UWI         .                                    NO 6608/10-C-3 H :UNIQUE WELL ID
XCOORD      .                                       457175.596094 :SURFACE X
YCOORD      .                                      7322029.604515 :SURFACE Y
LAT         .                                           66.014460 :LATITUDE
LON         .                                            8.055937 :LONGITUDE
ELEV        .M                                            22.0000 :SURFACE ELEV
ELEV_TYPE   .                                                  KB :ELEV TYPE
~CURVE INFORMATION
#MNEMONIC.UNIT        API CODE       : CURVE DESCRIPTION
#------------------------------------------------------------------------------
DEPTH    .M                          : Measured Depth
TVD      .M                          : True Vertical Depth (TVD)
TVDSS    .M                          : True Vertical Depth (TVDSS)
DT       .us/ft       UNKNOWN        : DT:UNKNOWN:rC:NONE:v1 
DTS      .us/ft       UNKNOWN        : DTS:UNKNOWN:rC:NONE:v1 
GR       .API         UNKNOWN        : GR:UNKNOWN:rC:NONE:v1 
KLOGH    .mD          UNKNOWN        : KLOGH:UNKNOWN:rC::v0 (auto-composite)
NPHI     .v/v_decimal UNKNOWN        : NPHI:UNKNOWN:rC:NONE:v1 
PHIF     .v/v_decimal UNKNOWN        : PHIF:UNKNOWN:rC::v0 (auto-composite)
RHOB     .g/cm3       UNKNOWN        : RHOB:UNKNOWN:rC:NONE:v1 
SW       .v/v_decimal UNKNOWN        : SW:UNKNOWN:rC::v0 (auto-composite)
VSH      .v/v_decimal UNKNOWN        : VSH:UNKNOWN:rC::v0 (auto-composite)
~A     DEPTH         TVD       TVDSS           DT          DTS           GR        KLOGH         NPHI         PHIF         RHOB           SW          VSH
# ...
   3626.1250   2854.8018  -2832.8018      86.4591     154.6611      49.8885     208.2624       0.2534       0.2491       2.2408       1.0000       0.0010
   3626.2500   2854.9241  -2832.9241      86.4975     154.5977      50.9907     148.4896       0.2476       0.2415       2.2532       1.0000       0.0010
   3626.3750   2855.0464  -2833.0464      86.5241     154.3150      56.3817      65.0744       0.2858       0.2232       2.2833       1.0000       0.0010
   3626.5000   2855.1685  -2833.1685      86.4954     153.8326      62.3978       8.1008       0.2826       0.1767       2.3596       1.0000       0.0380
   3626.6250   2855.2910  -2833.2910      86.3419     153.1711      81.2511       4.4229       0.2460       0.1632       2.3818       1.0000       0.2717
   3626.7500   2855.4136  -2833.4136      86.0832     152.3372      96.5518       2.0857       0.2314       0.1465       2.4093       1.0000       0.4613
   3626.8750   2855.5359  -2833.5359      85.7955     151.3260     103.7164       0.7738       0.2522       0.1244       2.4456       1.0000       0.5502
   3627.0000   2855.6584  -2833.6584      85.5779     150.2002     101.4785       0.3092       0.2753       0.1040       2.4792       1.0000       0.5225
   3627.1250   2855.7810  -2833.7810      85.5356     149.1133      92.3284       0.2084       0.2328       0.0952       2.4936       1.0000       0.4091
   3627.2500   2855.9036  -2833.9036      85.7699     148.6078     107.5694       0.0339       0.2985       0.0547       2.5601       1.0000       0.5980
   3627.3750   2856.0261  -2834.0261      86.1640     148.9545     111.8749       0.0323       0.3272       0.0536       2.5619       1.0000       0.6513
   3627.5000   2856.1484  -2834.1484      86.6395     150.0091     114.0911       0.0428       0.3292       0.0599       2.5516       1.0000       0.6788
   3627.6250   2856.2710  -2834.2710      87.1640     151.4990     115.9371       0.1557       0.3258       0.0887       2.5043       1.0000       0.7017
   3627.7500   2856.3936  -2834.3936      87.7138     153.1118     114.0084       2.2718       0.3221       0.1484       2.3952       0.7443       0.6776
   3627.8750   2856.5161  -2834.5161      88.2431     154.6101      97.3429      34.9324       0.2583       0.2093       2.2852       0.6183       0.4711
   3628.0000   2856.6387  -2834.6387      88.6251     155.9458      76.2670     207.1527       0.2854       0.2490       2.2179       0.6661       0.2099
   3628.1250   2856.7610  -2834.7610      88.8112     157.1339      66.1437     669.9000       0.2379       0.2751       2.1810       0.7769       0.0845
   3628.2500   2856.8835  -2834.8835      88.8153     158.0810      58.5048    1069.5140       0.2096       0.2855       2.1808       0.9171       0.0010
   3628.3750   2857.0061  -2835.0061      88.6981     158.6952      52.9429     494.4855       0.2310       0.2684       2.2091       1.0000       0.0010
   3628.5000   2857.1287  -2835.1287      88.5573     158.9229      56.5018     198.8661       0.2515       0.2481       2.2424       1.0000       0.0010
   3628.6250   2857.2512  -2835.2512      88.5327     158.9212      53.8491     166.2324       0.2173       0.2441       2.2490       1.0000       0.0010
   3628.7500   2857.3735  -2835.3735      88.7050     159.0970      55.0155     387.4840       0.2461       0.2629       2.2180       1.0000       0.0010
   3628.8750   2857.4961  -2835.4961      89.0586     159.5528      55.4599     493.5677       0.2997       0.2683       2.2092       1.0000       0.0010
   3629.0000   2857.6187  -2835.6187      89.5549     160.2432      53.4361     709.4400       0.2964       0.2764       2.1959       0.9830       0.0010
   3629.1250   2857.7412  -2835.7412      90.1263     161.0602      49.4673    1648.9543       0.2238       0.2952       2.1650       0.9398       0.0010
   3629.2500   2857.8638  -2835.8638      90.6710     161.8761      47.2519     805.1139       0.2529       0.2792       2.1912       0.9799       0.0010
   3629.3750   2857.9861  -2835.9861      91.0709     162.5658      56.8546    1418.5549       0.2740       0.2918       2.1705       0.9617       0.0010
   3629.5000   2858.1086  -2836.1086      91.3387     163.1013      57.1871     945.5789       0.2775       0.2828       2.1854       1.0000       0.0010
   3629.6250   2858.2312  -2836.2312      91.4891     163.4737      57.4600     440.8155       0.2541       0.2658       2.2133       1.0000       0.0010
   3629.7500   2858.3538  -2836.3538      91.5354     163.6855      59.6012     289.8923       0.2251       0.2565       2.2286       1.0000       0.0033
   3629.8750   2858.4761  -2836.4761      91.4854     163.7499      59.5131     409.3112       0.2250       0.2641       2.2160       1.0000       0.0022
   3630.0000   2858.5986  -2836.5986      91.3117     163.6860      56.1539     409.3004       0.2332       0.2641       2.2160       1.0000       0.0010
   3630.1250   2858.7212  -2836.7212      91.0323     163.5093      58.9863     722.5825       0.2531       0.2768       2.1952       1.0000       0.0010
   3630.2500   2858.8438  -2836.8438      90.7038     163.2072      61.9531     864.7087       0.2569       0.2808       2.1886       1.0000       0.0325
   3630.3750   2858.9663  -2836.9663      90.3729     162.7806      61.7278     664.8609       0.2514       0.2749       2.1982       1.0000       0.0296
   3630.5000   2859.0886  -2837.0886      90.0771     162.2361      57.9355     322.1303       0.2490       0.2588       2.2247       1.0000       0.0010
   3630.6250   2859.2112  -2837.2112      89.8350     161.5770      54.3560      73.2309       0.2560       0.2258       2.2790       1.0000       0.0010
   3630.7500   2859.3337  -2837.3337      89.6696     160.8768      56.1060     350.2988       0.2598       0.2607       2.2217       1.0000       0.0010
   3630.8750   2859.4563  -2837.4563      89.5595     160.2047      59.7189     621.5927       0.2298       0.2734       2.2007       0.9930       0.0047
   3631.0000   2859.5789  -2837.5789      89.4959     159.5506      64.3754     209.3923       0.2213       0.2492       2.2405       1.0000       0.0625
   3631.1250   2859.7012  -2837.7012      89.4661     158.9192      69.5002      66.2474       0.2275       0.2236       2.2827       1.0000       0.1261
   3631.2500   2859.8237  -2837.8237      89.4512     158.3311      74.6417     109.2223       0.2196       0.2347       2.2643       1.0000       0.1898
   3631.3750   2859.9463  -2837.9463      89.4118     157.8445      79.0158      16.6368       0.2484       0.1928       2.3333       1.0000       0.2440
   3631.5000   2860.0688  -2838.0688      89.3273     157.6608      74.7727       5.8033       0.2623       0.1693       2.3718       1.0000       0.1914
   3631.6250   2860.1914  -2838.1914      89.2261     157.8391      80.3876       8.1296       0.2410       0.1768       2.3595       1.0000       0.2610
   3631.7500   2860.3137  -2838.3137      89.1415     158.3478      89.9095      14.9385       0.2286       0.1904       2.3372       1.0000       0.3791
   3631.8750   2860.4363  -2838.4363      89.1032     159.0715      90.0382      21.9065       0.2412       0.1989       2.3232       1.0000       0.3806
   3632.0000   2860.5588  -2838.5588      89.1309     159.8180      65.5307      52.8081       0.2444       0.2185       2.2910       1.0000       0.0768
   3632.1250   2860.6814  -2838.6814      89.2449     160.2906      61.6972     161.8566       0.2686       0.2435       2.2499       0.9848       0.0293
   3632.2500   2860.8040  -2838.8040      89.4265     160.5217      60.4128     299.2032       0.2675       0.2572       2.2274       0.9678       0.0134
   3632.3750   2860.9263  -2838.9263      89.6580     160.5887      61.1095     305.0891       0.2491       0.2576       2.2267       0.9776       0.0220
   3632.5000   2861.0488  -2839.0488      89.9118     160.5643      58.8579     325.6692       0.2419       0.2590       2.2244       0.9840       0.0010
