#------------------------------------------------------------------------------
#
#   Created by  : [OpenWorks] Log Export Utility (LEXP)
#   Created on  : 2007-05-07 11:57:13
#   Project     : NORNE
#   User        : JSE
#   Interpreter : JSE
#
#------------------------------------------------------------------------------
~VERSION INFORMATION
VERS. 2.0 : CWLS Log ASCII Standard - version 2.0
WRAP.  NO : One line per depth step
~WELL INFORMATION
#MNEMONIC   .UNIT                                           VALUE :DESCRIPTION
#------------------------------------------------------------------------------
STRT        .M                                          1325.1250 :START DEPTH
STOP        .M                                          3789.8750 :STOP DEPTH
STEP        .M                                             0.1250 :STEP
NULL        .                                           -999.2500 :NULL VALUE
COMP        .                                             STATOIL :COMPANY
WELL        .                                       6608/10-C-3 H :WELL
FLD         .                                               NORNE :FIELD
LOC         .                                             UNKNOWN :LOCATION
CNTY        .                                             UNKNOWN :COUNTY
STAT        .                                             UNKNOWN :STATE
CTRY        .                                              Norway :COUNTRY
SRVC        .                                             UNKNOWN :SERVICE COMPANY
DATE        .                                             UNKNOWN :LOG DATE
UWI         .                                    NO 6608/10-C-3 H :UNIQUE WELL ID
XCOORD      .                                       457175.596094 :SURFACE X
YCOORD      .                                      7322029.604515 :SURFACE Y
LAT         .                                           66.014460 :LATITUDE
LON         .                                            8.055937 :LONGITUDE
ELEV        .M                                            22.0000 :SURFACE ELEV
ELEV_TYPE   .                                                  KB :ELEV TYPE
~CURVE INFORMATION
#MNEMONIC.UNIT        API CODE       : CURVE DESCRIPTION
#------------------------------------------------------------------------------
DEPTH    .M                          : Measured Depth
TVD      .M                          : True Vertical Depth (TVD)
TVDSS    .M                          : True Vertical Depth (TVDSS)
DT       .us/ft       UNKNOWN        : DT:UNKNOWN:rC:NONE:v1 
DTS      .us/ft       UNKNOWN        : DTS:UNKNOWN:rC:NONE:v1 
GR       .API         UNKNOWN        : GR:UNKNOWN:rC:NONE:v1 
KLOGH    .mD          UNKNOWN        : KLOGH:UNKNOWN:rC::v0 (auto-composite)
NPHI     .v/v_decimal UNKNOWN        : NPHI:UNKNOWN:rC:NONE:v1 
PHIF     .v/v_decimal UNKNOWN        : PHIF:UNKNOWN:rC::v0 (auto-composite)
RHOB     .g/cm3       UNKNOWN        : RHOB:UNKNOWN:rC:NONE:v1 
SW       .v/v_decimal UNKNOWN        : SW:UNKNOWN:rC::v0 (auto-composite)
VSH      .v/v_decimal UNKNOWN        : VSH:UNKNOWN:rC::v0 (auto-composite)
~A     DEPTH         TVD       TVDSS           DT          DTS           GR        KLOGH         NPHI         PHIF         RHOB           SW          VSH
# ...
   3333.6250   2570.7451  -2548.7451     100.8516     211.6695    -999.2500    -999.2500      47.1184    -999.2500       2.1859    -999.2500    -999.2500
   3333.7500   2570.8657  -2548.8657     100.9730     214.5060    -999.2500    -999.2500      51.3170    -999.2500       2.3000    -999.2500    -999.2500
   3333.8750   2570.9861  -2548.9861     100.3724     214.8982    -999.2500    -999.2500      70.4062    -999.2500       2.3927    -999.2500    -999.2500
   3334.0000   2571.1067  -2549.1067      99.2641     213.6789    -999.2500    -999.2500      47.8332    -999.2500       2.3541    -999.2500    -999.2500
   3334.1250   2571.2273  -2549.2273      97.8082     211.4771    -999.2500    -999.2500      53.4777    -999.2500       2.2626    -999.2500    -999.2500
   3334.2500   2571.3477  -2549.3477      96.2408     209.0246    -999.2500    -999.2500      69.7252    -999.2500       2.1472    -999.2500    -999.2500
   3334.3750   2571.4683  -2549.4683      94.8136     207.0028    -999.2500    -999.2500      46.6924    -999.2500       2.0729    -999.2500    -999.2500
   3334.5000   2571.5886  -2549.5886      93.7297     205.8393    -999.2500    -999.2500      27.3127    -999.2500       2.4463    -999.2500    -999.2500
   3334.6250   2571.7092  -2549.7092      93.0784     205.1700    -999.2500    -999.2500      32.1334    -999.2500       2.3953    -999.2500    -999.2500
   3334.7500   2571.8298  -2549.8298      92.9004     204.4973    -999.2500    -999.2500      32.1671    -999.2500       2.5058    -999.2500    -999.2500
   3334.8750   2571.9502  -2549.9502      93.2664     203.7766    -999.2500    -999.2500      37.5035    -999.2500       2.5721    -999.2500    -999.2500
   3335.0000   2572.0708  -2550.0708      94.1859     203.1936     152.5909    -999.2500      44.8513    -999.2500       2.4885    -999.2500    -999.2500
   3335.1250   2572.1912  -2550.1912      95.5889     203.1400     140.3454    -999.2500      28.7002    -999.2500       2.4371    -999.2500    -999.2500
   3335.2500   2572.3118  -2550.3118      97.1930     204.1254     134.6921    -999.2500      49.4075    -999.2500       2.3690    -999.2500    -999.2500
   3335.3750   2572.4324  -2550.4324      98.5124     205.5155     135.0805    -999.2500      41.0027    -999.2500       2.3851    -999.2500    -999.2500
   3335.5000   2572.5527  -2550.5527      99.3425     206.5744     137.9717    -999.2500      43.0792    -999.2500       2.3098    -999.2500    -999.2500
   3335.6250   2572.6733  -2550.6733      99.5477     206.9444     140.9878    -999.2500      54.9258    -999.2500       2.2048    -999.2500    -999.2500
   3335.7500   2572.7937  -2550.7937      99.0516     206.5957     143.2249    -999.2500      61.8641    -999.2500       2.1639    -999.2500    -999.2500
   3335.8750   2572.9143  -2550.9143      97.7921     205.9688     147.1141    -999.2500      64.3248    -999.2500       2.0170    -999.2500    -999.2500
   3336.0000   2573.0349  -2551.0349      95.8783     205.5377     129.5135    -999.2500      43.2417    -999.2500       2.1131    -999.2500    -999.2500
   3336.1250   2573.1553  -2551.1553      93.6807     204.9694     121.5550    -999.2500      41.7813    -999.2500       2.1518    -999.2500    -999.2500
   3336.2500   2573.2759  -2551.2759      91.4564     203.8491     127.0629    -999.2500      40.6128    -999.2500       2.1520    -999.2500    -999.2500
   3336.3750   2573.3962  -2551.3962      89.4605     202.0335     138.0496    -999.2500      33.6049    -999.2500       2.1534    -999.2500    -999.2500
   3336.5000   2573.5168  -2551.5168      87.9381     199.7319     138.7907    -999.2500      34.3952    -999.2500       2.1751    -999.2500    -999.2500
   3336.6250   2573.6375  -2551.6375      87.3186     197.8841     132.7696    -999.2500      40.6342    -999.2500       2.1038    -999.2500    -999.2500
   3336.7500   2573.7578  -2551.7578      87.6183     197.0275     121.7177    -999.2500      34.5130    -999.2500       2.4321    -999.2500    -999.2500
   3336.8750   2573.8784  -2551.8784      88.6307     196.7336     121.2901    -999.2500      30.0979    -999.2500       2.4911    -999.2500    -999.2500
   3337.0000   2573.9988  -2551.9988      90.1323     196.5805     130.3258    -999.2500      33.0309    -999.2500       2.3225    -999.2500    -999.2500
   3337.1250   2574.1194  -2552.1194      91.8797     196.2699     140.5000    -999.2500      43.5855    -999.2500       2.2042    -999.2500    -999.2500
   3337.2500   2574.2400  -2552.2400      93.6446     195.8473     140.5000    -999.2500      56.0056    -999.2500       2.3856    -999.2500    -999.2500
   3337.3750   2574.3604  -2552.3604      95.1160     195.7914     130.7586    -999.2500      53.6931    -999.2500       2.4621    -999.2500    -999.2500
   3337.5000   2574.4810  -2552.4810      96.1008     195.9302     138.1134    -999.2500      52.8600    -999.2500       2.3114    -999.2500    -999.2500
   3337.6250   2574.6013  -2552.6013      96.4863     195.9775     145.2183    -999.2500      41.5336    -999.2500       2.2475    -999.2500    -999.2500
   3337.7500   2574.7219  -2552.7219      96.2677     195.8214     146.6887    -999.2500      26.2409    -999.2500       2.3241    -999.2500    -999.2500
   3337.8750   2574.8425  -2552.8425      95.5551     195.5417     148.8527    -999.2500      25.9784    -999.2500       2.3727    -999.2500    -999.2500
   3338.0000   2574.9629  -2552.9629      94.6172     195.4645     149.9832    -999.2500      26.6543    -999.2500       2.4423    -999.2500    -999.2500
   3338.1250   2575.0835  -2553.0835      93.7962     195.6885     141.3765    -999.2500      30.4202    -999.2500       2.3396    -999.2500    -999.2500
   3338.2500   2575.2039  -2553.2039      93.1694     195.9598     137.0124    -999.2500      32.3837    -999.2500       2.4296    -999.2500    -999.2500
   3338.3750   2575.3245  -2553.3245      92.7705     196.1421     133.2024    -999.2500      30.5158    -999.2500       2.5113    -999.2500    -999.2500
   3338.5000   2575.4451  -2553.4451      92.6586     196.2043     125.9847    -999.2500      28.8041    -999.2500       2.4044    -999.2500    -999.2500
   3338.6250   2575.5654  -2553.5654      92.9730     196.2700     119.5700    -999.2500      41.3390    -999.2500       2.2530    -999.2500    -999.2500
   3338.7500   2575.6860  -2553.6860      93.8341     196.5484     122.5504    -999.2500      43.7944    -999.2500       2.3774    -999.2500    -999.2500
   3338.8750   2575.8064  -2553.8064      94.8639     196.9347     123.6746    -999.2500      35.8122    -999.2500       2.2927    -999.2500    -999.2500
   3339.0000   2575.9270  -2553.9270      95.7536     197.3152     129.5245    -999.2500      36.7297    -999.2500       2.1236    -999.2500    -999.2500
   3339.1250   2576.0476  -2554.0476      96.3480     197.5274     131.3269    -999.2500      41.6925    -999.2500       2.0518    -999.2500    -999.2500
   3339.2500   2576.1680  -2554.1680      96.6314     197.3844     118.7674    -999.2500      36.6592    -999.2500       2.1985    -999.2500    -999.2500
   3339.3750   2576.2886  -2554.2886      96.7176     196.6386     130.0805    -999.2500      50.0367    -999.2500       2.2304    -999.2500    -999.2500
   3339.5000   2576.4092  -2554.4092      96.6329     195.4407     124.9598    -999.2500      41.6830    -999.2500       2.3106    -999.2500    -999.2500
   3339.6250   2576.5295  -2554.5295      96.3210     194.1739     119.9790    -999.2500      33.4306    -999.2500       2.4066    -999.2500    -999.2500
   3339.7500   2576.6501  -2554.6501      95.7297     193.1466     117.6142    -999.2500      33.4891    -999.2500       2.4357    -999.2500    -999.2500
   3339.8750   2576.7705  -2554.7705      94.9477     192.5849     119.0369    -999.2500      36.7786    -999.2500       2.4182    -999.2500    -999.2500
   3340.0000   2576.8911  -2554.8911      94.2590     192.5720     126.7200    -999.2500      23.1020    -999.2500       2.5340    -999.2500    -999.2500
