#------------------------------------------------------------------------------
#
#   Created by  : [OpenWorks] Log Export Utility (LEXP)
#   Created on  : 2007-05-07 11:58:04
#   Project     : NORNE
#   User        : JSE
#   Interpreter : JSE
#
#------------------------------------------------------------------------------
~VERSION INFORMATION
VERS. 2.0 : CWLS Log ASCII Standard - version 2.0
WRAP.  NO : One line per depth step
~WELL INFORMATION
#MNEMONIC   .UNIT                                           VALUE :DESCRIPTION
#------------------------------------------------------------------------------
STRT        .M                                           461.1250 :START DEPTH
STOP        .M                                          3010.0000 :STOP DEPTH
STEP        .M                                             0.1250 :STEP
NULL        .                                           -999.2500 :NULL VALUE
COMP        .                                             STATOIL :COMPANY
WELL        .                                       6608/10-E-3 H :WELL
FLD         .                                               NORNE :FIELD
LOC         .                                             UNKNOWN :LOCATION
CNTY        .                                             UNKNOWN :COUNTY
STAT        .                                             UNKNOWN :STATE
CTRY        .                                              Norway :COUNTRY
SRVC        .                                             UNKNOWN :SERVICE COMPANY
DATE        .                                             UNKNOWN :LOG DATE
UWI         .                                    NO 6608/10-E-3 H :UNIQUE WELL ID
XCOORD      .                                       459189.815835 :SURFACE X
YCOORD      .                                      7325451.234448 :SURFACE Y
LAT         .                                           66.045417 :LATITUDE
LON         .                                            8.099250 :LONGITUDE
ELEV        .M                                            22.0000 :SURFACE ELEV
ELEV_TYPE   .                                                  KB :ELEV TYPE
~CURVE INFORMATION
#MNEMONIC.UNIT        API CODE       : CURVE DESCRIPTION
#------------------------------------------------------------------------------
DEPTH    .M                          : Measured Depth
TVD      .M                          : True Vertical Depth (TVD)
TVDSS    .M                          : True Vertical Depth (TVDSS)
DT       .us/ft       UNKNOWN        : DT:DT:rC:NONE:v1 
DTS      .us/ft       UNKNOWN        : DTS:DTS:rC:NONE:v1 
GR       .API         UNKNOWN        : GR:GR:rC:NONE:v1 
KLOGH    .mD          UNKNOWN        : KLOGH:UNKNOWN:rC::v0 (auto-composite)
NPHI     .v/v_decimal UNKNOWN        : NPHI:NPHI:rC:NONE:v1 
PHIF     .v/v_decimal UNKNOWN        : PHIF:UNKNOWN:rC::v0 (auto-composite)
RHOB     .g/cm3       UNKNOWN        : RHOB:RHOB:rC:NONE:v1 
SW       .v/v_decimal UNKNOWN        : SW:UNKNOWN:rC::v0 (auto-composite)
VSH      .v/v_decimal UNKNOWN        : VSH:UNKNOWN:rC::v0 (auto-composite)
~A     DEPTH         TVD       TVDSS           DT          DTS           GR        KLOGH         NPHI         PHIF         RHOB           SW          VSH
# ...
   2892.1250   2796.6692  -2774.6692      88.6304     145.7329      55.8484     525.0939       0.2504       0.2697       2.2074       1.0000       0.0010
   2892.2500   2796.7876  -2774.7876      88.5626     145.3706      54.7643     559.9210       0.2339       0.2711       2.2051       1.0000       0.0010
   2892.3750   2796.9062  -2774.9062      88.1712     145.0277      55.0088     523.4695       0.2122       0.2696       2.2075       1.0000       0.0010
   2892.5000   2797.0247  -2775.0247      87.6501     144.7183      56.5627     480.6508       0.2154       0.2677       2.2106       1.0000       0.0010
   2892.6250   2797.1431  -2775.1431      87.4114     144.4409      56.3372     445.1906       0.2171       0.2660       2.2134       1.0000       0.0010
   2892.7500   2797.2617  -2775.2617      87.4342     144.1814      54.7804     506.5758       0.2138       0.2689       2.2087       1.0000       0.0010
   2892.8750   2797.3801  -2775.3801      87.5552     143.9166      53.4636     759.9412       0.2161       0.2779       2.1939       1.0000       0.0010
   2893.0000   2797.4985  -2775.4985      87.8678     143.6098      51.8703     777.1555       0.2470       0.2784       2.1931       1.0000       0.0010
   2893.1250   2797.6172  -2775.6172      87.5811     143.2505      55.6709     558.2084       0.2331       0.2711       2.2052       1.0000       0.0010
   2893.2500   2797.7356  -2775.7356      87.0973     142.8847      56.6894     312.2235       0.2087       0.2581       2.2264       1.0000       0.0010
   2893.3750   2797.8540  -2775.8540      86.8362     142.5422      53.7834     138.1704       0.2040       0.2399       2.2562       1.0000       0.0010
   2893.5000   2797.9724  -2775.9724      86.9247     142.2477      50.3207      72.9563       0.2248       0.2257       2.2796       1.0000       0.0010
   2893.6250   2798.0911  -2776.0911      87.1249     142.0204      52.7469      96.9837       0.2488       0.2321       2.2691       1.0000       0.0010
   2893.7500   2798.2095  -2776.2095      86.8780     141.9064      55.8369     266.0780       0.2442       0.2545       2.2323       1.0000       0.0010
   2893.8750   2798.3279  -2776.3279      86.6787     141.9422      56.8047     366.4089       0.2317       0.2617       2.2206       1.0000       0.0010
   2894.0000   2798.4465  -2776.4465      86.4442     142.1568      55.5604     463.1292       0.2160       0.2669       2.2120       1.0000       0.0010
   2894.1250   2798.5649  -2776.5649      86.3269     142.5677      54.7528     569.9431       0.2005       0.2715       2.2044       1.0000       0.0010
   2894.2500   2798.6833  -2776.6833      86.4167     143.1743      56.6825     596.8580       0.1936       0.2725       2.2027       1.0000       0.0010
   2894.3750   2798.8018  -2776.8018      86.4093     143.9554      60.1180     456.0085       0.2201       0.2665       2.2125       1.0000       0.0097
   2894.5000   2798.9204  -2776.9204      86.5857     144.8703      58.9495     431.5049       0.2455       0.2653       2.2146       1.0000       0.0010
   2894.6250   2799.0388  -2777.0388      86.7042     145.8772      58.6736     301.6755       0.2353       0.2573       2.2277       1.0000       0.0010
   2894.7500   2799.1572  -2777.1572      87.0602     146.9792      58.1014     242.9001       0.2153       0.2525       2.2356       1.0000       0.0010
   2894.8750   2799.2759  -2777.2759      87.6779     148.1903      57.8231     319.7409       0.2042       0.2586       2.2255       1.0000       0.0010
   2895.0000   2799.3943  -2777.3943      88.3350     149.5302      60.1137     740.7133       0.2087       0.2774       2.1948       1.0000       0.0097
   2895.1250   2799.5127  -2777.5127      89.0702     151.0302      66.2011    1134.2336       0.2262       0.2868       2.1792       1.0000       0.0851
   2895.2500   2799.6313  -2777.6313      89.6927     152.6574      65.9961    1460.6904       0.2297       0.2925       2.1700       1.0000       0.0826
   2895.3750   2799.7498  -2777.7498      90.3613     154.3517      63.1062    1495.7607       0.2223       0.2930       2.1691       1.0000       0.0468
   2895.5000   2799.8682  -2777.8682      91.0776     156.0540      60.8886    1280.2430       0.2124       0.2895       2.1748       1.0000       0.0193
   2895.6250   2799.9866  -2777.9866      91.7274     157.6966      61.5242    1004.8223       0.2119       0.2842       2.1836       1.0000       0.0272
   2895.7500   2800.1052  -2778.1052      92.0507     159.2006      64.7480     802.9255       0.2355       0.2792       2.1918       1.0000       0.0671
   2895.8750   2800.2236  -2778.2236      92.3651     160.4223      68.3435     441.3899       0.2618       0.2658       2.2137       1.0000       0.1117
   2896.0000   2800.3420  -2778.3420      92.6534     161.4046      69.6908     606.0656       0.2572       0.2729       2.2021       1.0000       0.1284
   2896.1250   2800.4607  -2778.4607      92.8592     162.1558      72.3223     780.2214       0.2449       0.2785       2.1929       1.0000       0.1610
   2896.2500   2800.5791  -2778.5791      92.9716     162.6811      76.6506     645.2427       0.2423       0.2743       2.1998       1.0000       0.2147
   2896.3750   2800.6975  -2778.6975      93.0187     162.9844      80.6568     454.3094       0.2550       0.2665       2.2127       1.0000       0.2643
   2896.5000   2800.8162  -2778.8162      93.0539     163.0369      81.4756    1089.4286       0.2570       0.2860       2.1807       1.0000       0.2745
   2896.6250   2800.9346  -2778.9346      92.9971     162.8625      80.8876    1304.1931       0.2436       0.2900       2.1741       1.0000       0.2672
   2896.7500   2801.0530  -2779.0530      92.8340     162.4867      77.4561     871.5343       0.2506       0.2810       2.1888       1.0000       0.2247
   2896.8750   2801.1714  -2779.1714      92.6293     161.8686      74.7813     478.1517       0.2643       0.2676       2.2108       1.0000       0.1915
   2897.0000   2801.2900  -2779.2900      92.4216     160.9558      76.0251     304.4025       0.2663       0.2575       2.2273       1.0000       0.2070
   2897.1250   2801.4084  -2779.4084      92.1790     159.7070      81.7800     259.2148       0.2481       0.2540       2.2330       1.0000       0.2787
   2897.2500   2801.5269  -2779.5269      91.6102     157.9390      86.0320     141.4724       0.2343       0.2405       2.2553       1.0000       0.3310
   2897.3750   2801.6455  -2779.6455      90.6653     155.8812      88.7788      44.6120       0.2310       0.2147       2.2976       1.0000       0.3650
   2897.5000   2801.7639  -2779.7639      89.5214     153.6532      92.3577      20.7792       0.2261       0.1977       2.3255       1.0000       0.4094
   2897.6250   2801.8823  -2779.8823      88.3545     151.4038      95.2588       7.1522       0.2138       0.1740       2.3645       1.0000       0.4454
   2897.7500   2802.0010  -2780.0010      87.3000     149.2979      94.8638       0.8304       0.1970       0.1260       2.4432       1.0000       0.4405
   2897.8750   2802.1194  -2780.1194      86.3753     147.5699      92.3637       0.4237       0.2007       0.1110       2.4678       1.0000       0.4095
   2898.0000   2802.2378  -2780.2378      85.9391     146.4055      97.8565       0.2599       0.2431       0.1001       2.4857       1.0000       0.4775
   2898.1250   2802.3564  -2780.3564      85.4162     145.7045     104.3034       0.1389       0.2664       0.0861       2.5086       1.0000       0.5575
   2898.2500   2802.4749  -2780.4749      85.0640     145.3880     111.3671       0.1298       0.2912       0.0846       2.5111       1.0000       0.6451
   2898.3750   2802.5933  -2780.5933      84.9888     145.3796     120.0038       0.1756       0.3170       0.0914       2.5000       1.0000       0.7522
   2898.5000   2802.7117  -2780.7117      84.9724     145.6246     131.0706       0.0848       0.3070       0.0751       2.5267       1.0000       0.8893
