#------------------------------------------------------------------------------
#
#   Created by  : [OpenWorks] Log Export Utility (LEXP)
#   Created on  : 2007-05-07 11:58:15
#   Project     : NORNE
#   User        : JSE
#   Interpreter : JSE
#
#------------------------------------------------------------------------------
~VERSION INFORMATION
VERS. 2.0 : CWLS Log ASCII Standard - version 2.0
WRAP.  NO : One line per depth step
~WELL INFORMATION
#MNEMONIC   .UNIT                                           VALUE :DESCRIPTION
#------------------------------------------------------------------------------
STRT        .M                                           454.5508 :START DEPTH
STOP        .M                                          3169.8008 :STOP DEPTH
STEP        .M                                             0.1250 :STEP
NULL        .                                           -999.2500 :NULL VALUE
COMP        .                                             STATOIL :COMPANY
WELL        .                                       6608/10-F-1 H :WELL
FLD         .                                               NORNE :FIELD
LOC         .                                             UNKNOWN :LOCATION
CNTY        .                                             UNKNOWN :COUNTY
STAT        .                                             UNKNOWN :STATE
CTRY        .                                              Norway :COUNTRY
SRVC        .                                             UNKNOWN :SERVICE COMPANY
DATE        .                                             UNKNOWN :LOG DATE
UWI         .                                    NO 6608/10-F-1 H :UNIQUE WELL ID
XCOORD      .                                       459309.364262 :SURFACE X
YCOORD      .                                      7325355.161830 :SURFACE Y
LAT         .                                           66.044571 :LATITUDE
LON         .                                            8.101919 :LONGITUDE
ELEV        .M                                            24.0000 :SURFACE ELEV
ELEV_TYPE   .                                                  KB :ELEV TYPE
~CURVE INFORMATION
#MNEMONIC.UNIT        API CODE       : CURVE DESCRIPTION
#------------------------------------------------------------------------------
DEPTH    .M                          : Measured Depth
TVD      .M                          : True Vertical Depth (TVD)
TVDSS    .M                          : True Vertical Depth (TVDSS)
DT       .us/ft       UNKNOWN        : DT:UNKNOWN:rC:NONE:v1 
DTS      .us/ft       UNKNOWN        : DTS:UNKNOWN:rC:NONE:v1 
GR       .API         UNKNOWN        : GR:UNKNOWN:rC:NONE:v1 
KLOGH    .mD          UNKNOWN        : KLOGH:UNKNOWN:rC::v0 (auto-composite)
NPHI     .v/v_decimal UNKNOWN        : NPHI:SFINX:rC:NONE:v1 
PHIF     .v/v_decimal UNKNOWN        : PHIF:UNKNOWN:rC::v0 (auto-composite)
RHOB     .g/cm3       UNKNOWN        : RHOB:UNKNOWN:rC:NONE:v1 
SW       .v/v_decimal UNKNOWN        : SW:UNKNOWN:rC::v0 (auto-composite)
VSH      .v/v_decimal UNKNOWN        : VSH:UNKNOWN:rC::v0 (auto-composite)
~A     DEPTH         TVD       TVDSS           DT          DTS           GR        KLOGH         NPHI         PHIF         RHOB           SW          VSH
# ...
   2677.5508   2523.3955  -2499.3955     123.0238     238.8919     129.5785    -999.2500       0.6915    -999.2500       2.5001    -999.2500    -999.2500
   2677.6758   2523.5203  -2499.5203     123.6582     240.3536     148.2749    -999.2500       0.6917    -999.2500       2.5006    -999.2500    -999.2500
   2677.8008   2523.6453  -2499.6453     123.9019     241.9314     128.0328    -999.2500       0.6918    -999.2500       2.5011    -999.2500    -999.2500
   2677.9258   2523.7703  -2499.7703     123.7731     243.9794     140.1801    -999.2500       0.6920    -999.2500       2.5016    -999.2500    -999.2500
   2678.0508   2523.8953  -2499.8953     123.4624     246.6007     147.6795    -999.2500       0.6922    -999.2500       2.5021    -999.2500    -999.2500
   2678.1758   2524.0200  -2500.0200     123.0987     249.4310     149.8393    -999.2500       0.6923    -999.2500       2.5026    -999.2500    -999.2500
   2678.3008   2524.1450  -2500.1450     122.7498     251.7422     152.3506    -999.2500       0.6925    -999.2500       2.5031    -999.2500    -999.2500
   2678.4258   2524.2700  -2500.2700     122.3716     252.3092     149.2819    -999.2500       0.6926    -999.2500       2.5036    -999.2500    -999.2500
   2678.5508   2524.3948  -2500.3948     121.6895     250.2433     161.4322    -999.2500       0.6928    -999.2500       2.5041    -999.2500    -999.2500
   2678.6758   2524.5198  -2500.5198     120.7300     247.1091     164.6500    -999.2500       0.6930    -999.2500       2.5046    -999.2500    -999.2500
   2678.8008   2524.6448  -2500.6448     119.7104     244.0748     165.7144    -999.2500       0.6931    -999.2500       2.5050    -999.2500    -999.2500
   2678.9258   2524.7698  -2500.7698     118.8832     241.9640     167.4189    -999.2500       0.6933    -999.2500       2.5055    -999.2500    -999.2500
   2679.0508   2524.8945  -2500.8945     118.4799     241.1443     166.1514    -999.2500       0.6934    -999.2500       2.5060    -999.2500    -999.2500
   2679.1758   2525.0195  -2501.0195     118.6129     241.1812     141.9031    -999.2500       0.6936    -999.2500       2.5065    -999.2500    -999.2500
   2679.3008   2525.1445  -2501.1445     119.0382     241.0954     155.0467    -999.2500       0.6938    -999.2500       2.5070    -999.2500    -999.2500
   2679.4258   2525.2695  -2501.2695     119.6903     240.7634     155.5530    -999.2500       0.6939    -999.2500       2.5075    -999.2500    -999.2500
   2679.5508   2525.3943  -2501.3943     120.5824     240.3835     146.1233    -999.2500       0.6941    -999.2500       2.5080    -999.2500    -999.2500
   2679.6758   2525.5193  -2501.5193     121.7169     240.1842     141.8448    -999.2500       0.6942    -999.2500       2.5085    -999.2500    -999.2500
   2679.8008   2525.6443  -2501.6443     123.0680     240.2890     157.2700    -999.2500       0.6944    -999.2500       2.5090    -999.2500    -999.2500
   2679.9258   2525.7693  -2501.7693     124.4302     240.6805     146.4711    -999.2500       0.6946    -999.2500       2.5095    -999.2500    -999.2500
   2680.0508   2525.8940  -2501.8940     125.5638     241.0745     144.0925    -999.2500       0.6947    -999.2500       2.5100    -999.2500    -999.2500
   2680.1758   2526.0190  -2502.0190     126.3721     241.4685     141.7415    -999.2500       0.6949    -999.2500       2.5105    -999.2500    -999.2500
   2680.3008   2526.1440  -2502.1440     126.8404     241.8623     138.0651    -999.2500       0.6950    -999.2500       2.5110    -999.2500    -999.2500
   2680.4258   2526.2688  -2502.2688     127.0057     242.2562     136.2495    -999.2500       0.6952    -999.2500       2.5115    -999.2500    -999.2500
   2680.5508   2526.3938  -2502.3938     126.8834     242.6509     138.8054    -999.2500       0.6954    -999.2500       2.5120    -999.2500    -999.2500
   2680.6758   2526.5188  -2502.5188     126.4404     243.0443     141.1443    -999.2500       0.6955    -999.2500       2.5125    -999.2500    -999.2500
   2680.8008   2526.6438  -2502.6438     125.7883     243.4379     136.7072    -999.2500       0.6957    -999.2500       2.5129    -999.2500    -999.2500
   2680.9258   2526.7686  -2502.7686     125.0615     243.8321     134.8597    -999.2500       0.6959    -999.2500       2.5134    -999.2500    -999.2500
   2681.0508   2526.8936  -2502.8936     124.4271     244.2266     137.2111    -999.2500       0.6960    -999.2500       2.5139    -999.2500    -999.2500
   2681.1758   2527.0186  -2503.0186     124.0693     244.6205     131.9451    -999.2500       0.6962    -999.2500       2.5144    -999.2500    -999.2500
   2681.3008   2527.1436  -2503.1436     124.2683     245.0136     159.6422    -999.2500       0.6963    -999.2500       2.5149    -999.2500    -999.2500
   2681.4258   2527.2683  -2503.2683     124.7765     245.4080     161.1980    -999.2500       0.6965    -999.2500       2.5154    -999.2500    -999.2500
   2681.5508   2527.3933  -2503.3933     125.4088     245.8022     151.0974    -999.2500       0.6967    -999.2500       2.5159    -999.2500    -999.2500
   2681.6758   2527.5183  -2503.5183     126.0908     246.1961     140.0655    -999.2500       0.6968    -999.2500       2.5164    -999.2500    -999.2500
   2681.8008   2527.6433  -2503.6433     126.8063     246.5900     136.3997    -999.2500       0.6970    -999.2500       2.5169    -999.2500    -999.2500
   2681.9258   2527.7681  -2503.7681     127.5554     246.9847     147.6064    -999.2500       0.6971    -999.2500       2.5174    -999.2500    -999.2500
   2682.0508   2527.8931  -2503.8931     128.0478     247.3780     141.9941    -999.2500       0.6973    -999.2500       2.5179    -999.2500    -999.2500
   2682.1758   2528.0181  -2504.0181     128.0487     248.2056     140.4912    -999.2500       0.6975    -999.2500       2.5184    -999.2500    -999.2500
   2682.3008   2528.1431  -2504.1431     127.5027     249.3034     147.4323    -999.2500       0.6976    -999.2500       2.5189    -999.2500    -999.2500
   2682.4258   2528.2678  -2504.2678     126.4957     250.2941     159.4620    -999.2500       0.6978    -999.2500       2.5194    -999.2500    -999.2500
   2682.5508   2528.3928  -2504.3928     125.2457     250.6905     167.1089    -999.2500       0.6979    -999.2500       2.5199    -999.2500    -999.2500
   2682.6758   2528.5178  -2504.5178     124.1341     250.2096     163.6709    -999.2500       0.6981    -999.2500       2.5204    -999.2500    -999.2500
   2682.8008   2528.6426  -2504.6426     123.2336     249.6514     156.3871    -999.2500       0.6983    -999.2500       2.5209    -999.2500    -999.2500
   2682.9258   2528.7676  -2504.7676     122.4770     249.5445     154.5950    -999.2500       0.6984    -999.2500       2.5213    -999.2500    -999.2500
   2683.0508   2528.8926  -2504.8926     121.9060     250.0242     155.7196    -999.2500       0.6986    -999.2500       2.5218    -999.2500    -999.2500
   2683.1758   2529.0176  -2505.0176     121.6128     250.9381     155.1241    -999.2500       0.6988    -999.2500       2.5223    -999.2500    -999.2500
   2683.3008   2529.1423  -2505.1423     121.7455     251.7885     154.6244    -999.2500       0.6989    -999.2500       2.5228    -999.2500    -999.2500
   2683.4258   2529.2673  -2505.2673     122.3069     251.9619     156.4497    -999.2500       0.6991    -999.2500       2.5233    -999.2500    -999.2500
   2683.5508   2529.3923  -2505.3923     122.9360     251.9545     156.9700    -999.2500       0.6992    -999.2500       2.5238    -999.2500    -999.2500
   2683.6758   2529.5173  -2505.5173     123.4051     252.2849     151.2590    -999.2500       0.6994    -999.2500       2.5243    -999.2500    -999.2500
   2683.8008   2529.6421  -2505.6421     123.5858     253.2255     144.9445    -999.2500       0.6996    -999.2500       2.5248    -999.2500    -999.2500
   2683.9258   2529.7671  -2505.7671     123.4662     254.7183     149.5668    -999.2500       0.6997    -999.2500       2.5253    -999.2500    -999.2500
