#------------------------------------------------------------------------------
#
#   Created by  : [OpenWorks] Log Export Utility (LEXP)
#   Created on  : 2007-05-07 11:58:04
#   Project     : NORNE
#   User        : JSE
#   Interpreter : JSE
#
#------------------------------------------------------------------------------
~VERSION INFORMATION
VERS. 2.0 : CWLS Log ASCII Standard - version 2.0
WRAP.  NO : One line per depth step
~WELL INFORMATION
#MNEMONIC   .UNIT                                           VALUE :DESCRIPTION
#------------------------------------------------------------------------------
STRT        .M                                           461.1250 :START DEPTH
STOP        .M                                          3010.0000 :STOP DEPTH
STEP        .M                                             0.1250 :STEP
NULL        .                                           -999.2500 :NULL VALUE
COMP        .                                             STATOIL :COMPANY
WELL        .                                       6608/10-E-3 H :WELL
FLD         .                                               NORNE :FIELD
LOC         .                                             UNKNOWN :LOCATION
CNTY        .                                             UNKNOWN :COUNTY
STAT        .                                             UNKNOWN :STATE
CTRY        .                                              Norway :COUNTRY
SRVC        .                                             UNKNOWN :SERVICE COMPANY
DATE        .                                             UNKNOWN :LOG DATE
UWI         .                                    NO 6608/10-E-3 H :UNIQUE WELL ID
XCOORD      .                                       459189.815835 :SURFACE X
YCOORD      .                                      7325451.234448 :SURFACE Y
LAT         .                                           66.045417 :LATITUDE
LON         .                                            8.099250 :LONGITUDE
ELEV        .M                                            22.0000 :SURFACE ELEV
ELEV_TYPE   .                                                  KB :ELEV TYPE
~CURVE INFORMATION
#MNEMONIC.UNIT        API CODE       : CURVE DESCRIPTION
#------------------------------------------------------------------------------
DEPTH    .M                          : Measured Depth
TVD      .M                          : True Vertical Depth (TVD)
TVDSS    .M                          : True Vertical Depth (TVDSS)
DT       .us/ft       UNKNOWN        : DT:DT:rC:NONE:v1 
DTS      .us/ft       UNKNOWN        : DTS:DTS:rC:NONE:v1 
GR       .API         UNKNOWN        : GR:GR:rC:NONE:v1 
KLOGH    .mD          UNKNOWN        : KLOGH:UNKNOWN:rC::v0 (auto-composite)
NPHI     .v/v_decimal UNKNOWN        : NPHI:NPHI:rC:NONE:v1 
PHIF     .v/v_decimal UNKNOWN        : PHIF:UNKNOWN:rC::v0 (auto-composite)
RHOB     .g/cm3       UNKNOWN        : RHOB:RHOB:rC:NONE:v1 
SW       .v/v_decimal UNKNOWN        : SW:UNKNOWN:rC::v0 (auto-composite)
VSH      .v/v_decimal UNKNOWN        : VSH:UNKNOWN:rC::v0 (auto-composite)
~A     DEPTH         TVD       TVDSS           DT          DTS           GR        KLOGH         NPHI         PHIF         RHOB           SW          VSH
# ...
   2671.1250   2585.2683  -2563.2683      92.2148     159.7519      55.7513    -999.2500       0.6848    -999.2500       2.0760    -999.2500    -999.2500
   2671.2500   2585.3887  -2563.3887      92.4126     160.4379      49.2455    -999.2500       0.8614    -999.2500       2.1130    -999.2500    -999.2500
   2671.3750   2585.5088  -2563.5088      92.5375     160.9521      46.6318    -999.2500       0.8632    -999.2500       2.1583    -999.2500    -999.2500
   2671.5000   2585.6292  -2563.6292      92.6096     161.2220      51.0639    -999.2500       0.7826    -999.2500       2.1360    -999.2500    -999.2500
   2671.6250   2585.7493  -2563.7493      92.6585     161.1825      55.9899    -999.2500       0.7078    -999.2500       2.1128    -999.2500    -999.2500
   2671.7500   2585.8694  -2563.8694      92.7095     160.8003      58.6580    -999.2500       0.7088    -999.2500       2.1372    -999.2500    -999.2500
   2671.8750   2585.9897  -2563.9897      92.7720     160.0740      68.9540    -999.2500       0.8135    -999.2500       2.1480    -999.2500    -999.2500
   2672.0000   2586.1099  -2564.1099      92.8293     159.2090      67.0803    -999.2500       0.8197    -999.2500       2.1431    -999.2500    -999.2500
   2672.1250   2586.2302  -2564.2302      92.8788     158.5186      65.0419    -999.2500       0.8435    -999.2500       2.1313    -999.2500    -999.2500
   2672.2500   2586.3503  -2564.3503      92.9368     158.1885      59.9295    -999.2500       0.8778    -999.2500       2.1003    -999.2500    -999.2500
   2672.3750   2586.4705  -2564.4705      93.0207     158.2769      58.1317    -999.2500       0.9025    -999.2500       2.0730    -999.2500    -999.2500
   2672.5000   2586.5908  -2564.5908      93.1388     158.7276      66.6237    -999.2500       0.8913    -999.2500       2.0845    -999.2500    -999.2500
   2672.6250   2586.7109  -2564.7109      93.2578     159.3290      61.7568    -999.2500       0.8203    -999.2500       2.1165    -999.2500    -999.2500
   2672.7500   2586.8313  -2564.8313      93.2797     159.7008      57.7412    -999.2500       0.7892    -999.2500       2.1317    -999.2500    -999.2500
   2672.8750   2586.9514  -2564.9514      93.1940     159.6634      54.7833    -999.2500       0.7744    -999.2500       2.1267    -999.2500    -999.2500
   2673.0000   2587.0715  -2565.0715      93.0064     159.1593      53.4374    -999.2500       0.7699    -999.2500       2.0909    -999.2500    -999.2500
   2673.1250   2587.1919  -2565.1919      92.7244     158.2339      54.1395    -999.2500       0.7678    -999.2500       2.0396    -999.2500    -999.2500
   2673.2500   2587.3120  -2565.3120      92.3530     157.0500      56.9720    -999.2500       0.7548    -999.2500       2.0250    -999.2500    -999.2500
   2673.3750   2587.4321  -2565.4321      91.8914     156.1701      60.5352    -999.2500       0.7439    -999.2500       2.2600    -999.2500    -999.2500
   2673.5000   2587.5525  -2565.5525      91.4522     156.1741      58.0944    -999.2500       0.7424    -999.2500       2.2026    -999.2500    -999.2500
   2673.6250   2587.6726  -2565.6726      91.1231     157.1955      53.6674    -999.2500       0.7398    -999.2500       2.0423    -999.2500    -999.2500
   2673.7500   2587.7930  -2565.7930      90.9685     159.1162      50.0923    -999.2500       0.7317    -999.2500       1.9216    -999.2500    -999.2500
   2673.8750   2587.9131  -2565.9131      91.1508     161.6134      51.2328    -999.2500       0.6825    -999.2500       1.9324    -999.2500    -999.2500
   2674.0000   2588.0332  -2566.0332      92.3659     164.1546      68.7342    -999.2500       0.4057    -999.2500       2.0891    -999.2500    -999.2500
   2674.1250   2588.1536  -2566.1536      92.9122     164.8415      75.2465    -999.2500       0.3381    -999.2500       2.2697    -999.2500    -999.2500
   2674.2500   2588.2737  -2566.2737      93.2827     166.1605      82.5380    -999.2500       0.3252    -999.2500       2.2792    -999.2500    -999.2500
   2674.3750   2588.3940  -2566.3940      93.7103     167.6396      89.6563    -999.2500       0.3238    -999.2500       2.2619    -999.2500    -999.2500
   2674.5000   2588.5142  -2566.5142      94.1923     168.8287      94.5122    -999.2500       0.3346    -999.2500       2.3100    -999.2500    -999.2500
   2674.6250   2588.6343  -2566.6343      94.5087     169.7652      95.8774    -999.2500       0.3902    -999.2500       2.3917    -999.2500    -999.2500
   2674.7500   2588.7546  -2566.7546      95.1422     170.4881      97.4758    -999.2500       0.3861    -999.2500       2.4081    -999.2500    -999.2500
   2674.8750   2588.8748  -2566.8748      95.6269     171.0299      95.8488    -999.2500       0.3485    -999.2500       2.4184    -999.2500    -999.2500
   2675.0000   2588.9951  -2566.9951      95.8464     171.3699      94.9768    -999.2500       0.3612    -999.2500       2.4225    -999.2500    -999.2500
   2675.1250   2589.1152  -2567.1152      96.0236     171.5149      93.9806    -999.2500       0.4150    -999.2500       2.4101    -999.2500    -999.2500
   2675.2500   2589.2354  -2567.2354      96.2226     171.5088      91.0342    -999.2500       0.4625    -999.2500       2.3823    -999.2500    -999.2500
   2675.3750   2589.3557  -2567.3557      95.5974     171.4579      87.1226    -999.2500       0.4541    -999.2500       2.3839    -999.2500    -999.2500
   2675.5000   2589.4758  -2567.4758      95.3832     171.4705      86.6285    -999.2500       0.4002    -999.2500       2.3871    -999.2500    -999.2500
   2675.6250   2589.5959  -2567.5959      95.3714     171.5505      91.6847    -999.2500       0.3573    -999.2500       2.3916    -999.2500    -999.2500
   2675.7500   2589.7163  -2567.7163      95.4693     171.7164      98.0451    -999.2500       0.3229    -999.2500       2.4152    -999.2500    -999.2500
   2675.8750   2589.8364  -2567.8364      95.7052     172.0132     102.2746    -999.2500       0.3077    -999.2500       2.4372    -999.2500    -999.2500
   2676.0000   2589.9568  -2567.9568      96.2017     172.5129     102.9750    -999.2500       0.3335    -999.2500       2.4114    -999.2500    -999.2500
   2676.1250   2590.0769  -2568.0769      96.9648     173.3695     103.6519    -999.2500       0.3771    -999.2500       2.4024    -999.2500    -999.2500
   2676.2500   2590.1970  -2568.1970      97.5324     174.5384     105.2789    -999.2500       0.3891    -999.2500       2.4170    -999.2500    -999.2500
   2676.3750   2590.3174  -2568.3174      98.3560     175.8776     107.2454    -999.2500       0.3960    -999.2500       2.4152    -999.2500    -999.2500
   2676.5000   2590.4375  -2568.4375      99.1279     177.2449     111.1967    -999.2500       0.4055    -999.2500       2.4057    -999.2500    -999.2500
   2676.6250   2590.5579  -2568.5579      99.5194     178.4996     116.5989    -999.2500       0.4133    -999.2500       2.4047    -999.2500    -999.2500
   2676.7500   2590.6780  -2568.6780      99.6696     179.5162     116.6087    -999.2500       0.4007    -999.2500       2.4137    -999.2500    -999.2500
   2676.8750   2590.7981  -2568.7981     100.1997     180.2429     115.4454    -999.2500       0.3916    -999.2500       2.4036    -999.2500    -999.2500
   2677.0000   2590.9185  -2568.9185     100.2385     180.7986     113.4655    -999.2500       0.3833    -999.2500       2.4022    -999.2500    -999.2500
   2677.1250   2591.0386  -2569.0386     100.0208     181.2249     112.7119    -999.2500       0.3750    -999.2500       2.4166    -999.2500    -999.2500
   2677.2500   2591.1587  -2569.1587      99.8439     181.5358     112.2594    -999.2500       0.3607    -999.2500       2.4263    -999.2500    -999.2500
   2677.3750   2591.2791  -2569.2791      99.9237     181.7218     109.7348    -999.2500       0.3355    -999.2500       2.4046    -999.2500    -999.2500
   2677.5000   2591.3992  -2569.3992      99.9097     181.7300     108.2176    -999.2500       0.3266    -999.2500       2.4112    -999.2500    -999.2500
